,station,station_name,station_code,ts_lat,ts_long,delay,ws,ws_name,ws_code,ws_lat,ws_long,windspeed,mean_temp,percipitation,visibility,wind_direction
0,http://www.group15_KD_tr_onto/AMR,Alkmaar railway station,AMR,52.6378,4.74056,0.786046511627907,http://www.group15_KD_tr_onto/235,De Kooy,235,52.928,4.781,90,64,8,59,290
1,http://www.group15_KD_tr_onto/ANA,Anna Paulowna railway station,ANA,52.8669,4.81111,1.1979166666666667,http://www.group15_KD_tr_onto/235,De Kooy,235,52.928,4.781,90,64,8,59,290
2,http://www.group15_KD_tr_onto/HDRZ,Den Helder Zuid railway station,HDRZ,52.9331,4.76389,0.9479166666666666,http://www.group15_KD_tr_onto/235,De Kooy,235,52.928,4.781,90,64,8,59,290
3,http://www.group15_KD_tr_onto/HDR,Den Helder railway station,HDR,52.9564,4.76083,1.2083333333333333,http://www.group15_KD_tr_onto/235,De Kooy,235,52.928,4.781,90,64,8,59,290
4,http://www.group15_KD_tr_onto/HWD,Heerhugowaard railway station,HWD,52.67,4.82361,0.6923076923076923,http://www.group15_KD_tr_onto/235,De Kooy,235,52.928,4.781,90,64,8,59,290
5,http://www.group15_KD_tr_onto/OBD,Obdam railway station,OBD,52.6781,4.90833,0.5694444444444444,http://www.group15_KD_tr_onto/235,De Kooy,235,52.928,4.781,90,64,8,59,290
6,http://www.group15_KD_tr_onto/SGN,Schagen railway station,SGN,52.7861,4.80528,0.8333333333333334,http://www.group15_KD_tr_onto/235,De Kooy,235,52.928,4.781,90,64,8,59,290
7,http://www.group15_KD_tr_onto/AC,Abcoude railway station,AC,52.2744,4.98222,1.2397260273972603,http://www.group15_KD_tr_onto/240,Schiphol,240,52.318,4.79,60,64,7,60,273
8,http://www.group15_KD_tr_onto/AMPO,Almere Poort railway station,AMPO,52.3428,5.15194,0.4189189189189189,http://www.group15_KD_tr_onto/240,Schiphol,240,52.318,4.79,60,64,7,60,273
9,http://www.group15_KD_tr_onto/ASA,Amsterdam Amstel station,ASA,52.3464,4.91778,0.8489583333333334,http://www.group15_KD_tr_onto/240,Schiphol,240,52.318,4.79,60,64,7,60,273
10,http://www.group15_KD_tr_onto/ASB,Amsterdam Bijlmer ArenA station,ASB,52.3131,4.94611,0.7183098591549296,http://www.group15_KD_tr_onto/240,Schiphol,240,52.318,4.79,60,64,7,60,273
11,http://www.group15_KD_tr_onto/ASDL,Amsterdam Lelylaan station,ASDL,52.3572,4.83389,0.771551724137931,http://www.group15_KD_tr_onto/240,Schiphol,240,52.318,4.79,60,64,7,60,273
12,http://www.group15_KD_tr_onto/ASDM,Amsterdam Muiderpoort railway station,ASDM,52.3608,4.93111,0.881578947368421,http://www.group15_KD_tr_onto/240,Schiphol,240,52.318,4.79,60,64,7,60,273
13,http://www.group15_KD_tr_onto/ASDZ,Amsterdam Zuid station,ASDZ,52.3389,4.87306,0.5481481481481482,http://www.group15_KD_tr_onto/240,Schiphol,240,52.318,4.79,60,64,7,60,273
14,http://www.group15_KD_tr_onto/ASD,Amsterdam Centraal station,ASD,52.3783,4.9,0.8429378531073446,http://www.group15_KD_tr_onto/240,Schiphol,240,52.318,4.79,60,64,7,60,273
15,http://www.group15_KD_tr_onto/ASSP,Amsterdam Science Park railway station,ASSP,52.3525,4.94861,0.759493670886076,http://www.group15_KD_tr_onto/240,Schiphol,240,52.318,4.79,60,64,7,60,273
16,http://www.group15_KD_tr_onto/ASS,Amsterdam Sloterdijk station,ASS,52.3892,4.83806,0.5850487540628385,http://www.group15_KD_tr_onto/240,Schiphol,240,52.318,4.79,60,64,7,60,273
17,http://www.group15_KD_tr_onto/BLL,Bloemendaal railway station,BLL,52.4042,4.6275,0.6144578313253012,http://www.group15_KD_tr_onto/240,Schiphol,240,52.318,4.79,60,64,7,60,273
18,http://www.group15_KD_tr_onto/BV,Beverwijk railway station,BV,52.4783,4.65611,0.21495327102803738,http://www.group15_KD_tr_onto/240,Schiphol,240,52.318,4.79,60,64,7,60,273
19,http://www.group15_KD_tr_onto/CAS,Castricum railway station,CAS,52.5456,4.65889,0.7938931297709924,http://www.group15_KD_tr_onto/240,Schiphol,240,52.318,4.79,60,64,7,60,273
20,http://www.group15_KD_tr_onto/DMNZ,Diemen Zuid station,DMNZ,52.3303,4.95639,0.8088235294117647,http://www.group15_KD_tr_onto/240,Schiphol,240,52.318,4.79,60,64,7,60,273
21,http://www.group15_KD_tr_onto/DMN,Diemen railway station,DMN,52.3453,4.96694,0.6962025316455697,http://www.group15_KD_tr_onto/240,Schiphol,240,52.318,4.79,60,64,7,60,273
22,http://www.group15_KD_tr_onto/HAD,Heemstede-Aerdenhout railway station,HAD,52.3597,4.60694,0.5,http://www.group15_KD_tr_onto/240,Schiphol,240,52.318,4.79,60,64,7,60,273
23,http://www.group15_KD_tr_onto/HFD,Hoofddorp railway station,HFD,52.2933,4.7,0.6388888888888888,http://www.group15_KD_tr_onto/240,Schiphol,240,52.318,4.79,60,64,7,60,273
24,http://www.group15_KD_tr_onto/HIL,Hillegom railway station,HIL,52.3028,4.56583,0.5949367088607594,http://www.group15_KD_tr_onto/240,Schiphol,240,52.318,4.79,60,64,7,60,273
25,http://www.group15_KD_tr_onto/HK,Heemskerk railway station,HK,52.4947,4.68611,0.2891566265060241,http://www.group15_KD_tr_onto/240,Schiphol,240,52.318,4.79,60,64,7,60,273
26,http://www.group15_KD_tr_onto/HLMS,Haarlem Spaarnwoude railway station,HLMS,52.3828,4.67111,0.5031446540880503,http://www.group15_KD_tr_onto/240,Schiphol,240,52.318,4.79,60,64,7,60,273
27,http://www.group15_KD_tr_onto/HLM,Haarlem railway station,HLM,52.3878,4.63889,0.4206128133704735,http://www.group15_KD_tr_onto/240,Schiphol,240,52.318,4.79,60,64,7,60,273
28,http://www.group15_KD_tr_onto/HLO,Heiloo railway station,HLO,52.6,4.70083,0.6390243902439025,http://www.group15_KD_tr_onto/240,Schiphol,240,52.318,4.79,60,64,7,60,273
29,http://www.group15_KD_tr_onto/HWZB,Halfweg-Zwanenburg railway station,HWZB,52.3847,4.75167,0.39622641509433965,http://www.group15_KD_tr_onto/240,Schiphol,240,52.318,4.79,60,64,7,60,273
30,http://www.group15_KD_tr_onto/NVP,Nieuw-Vennep railway station,NVP,52.2597,4.64556,0.5925925925925926,http://www.group15_KD_tr_onto/240,Schiphol,240,52.318,4.79,60,64,7,60,273
31,http://www.group15_KD_tr_onto/OVN,Overveen railway station,OVN,52.3908,4.60778,0.3116883116883117,http://www.group15_KD_tr_onto/240,Schiphol,240,52.318,4.79,60,64,7,60,273
32,http://www.group15_KD_tr_onto/PMR,Purmerend railway station,PMR,52.5033,4.95417,0.5714285714285714,http://www.group15_KD_tr_onto/240,Schiphol,240,52.318,4.79,60,64,7,60,273
33,http://www.group15_KD_tr_onto/PMW,Purmerend Weidevenne railway station,PMW,52.4967,4.93667,0.5844155844155844,http://www.group15_KD_tr_onto/240,Schiphol,240,52.318,4.79,60,64,7,60,273
34,http://www.group15_KD_tr_onto/RAI,Amsterdam RAI station,RAI,52.3367,4.89056,0.44776119402985076,http://www.group15_KD_tr_onto/240,Schiphol,240,52.318,4.79,60,64,7,60,273
35,http://www.group15_KD_tr_onto/SHL,Schiphol Airport railway station,SHL,52.3089,4.76167,0.8249427917620137,http://www.group15_KD_tr_onto/240,Schiphol,240,52.318,4.79,60,64,7,60,273
36,http://www.group15_KD_tr_onto/SPTN,Santpoort Noord railway station,SPTN,52.4428,4.63917,0.18072289156626506,http://www.group15_KD_tr_onto/240,Schiphol,240,52.318,4.79,60,64,7,60,273
37,http://www.group15_KD_tr_onto/SPTZ,Santpoort Zuid railway station,SPTZ,52.4194,4.63167,0.24096385542168675,http://www.group15_KD_tr_onto/240,Schiphol,240,52.318,4.79,60,64,7,60,273
38,http://www.group15_KD_tr_onto/UTG,Uitgeest railway station,UTG,52.5219,4.70278,0.3333333333333333,http://www.group15_KD_tr_onto/240,Schiphol,240,52.318,4.79,60,64,7,60,273
39,http://www.group15_KD_tr_onto/WM,Wormerveer railway station,WM,52.4892,4.79278,0.6643835616438356,http://www.group15_KD_tr_onto/240,Schiphol,240,52.318,4.79,60,64,7,60,273
40,http://www.group15_KD_tr_onto/WP,Weesp railway station,WP,52.3131,5.04361,0.5205479452054794,http://www.group15_KD_tr_onto/240,Schiphol,240,52.318,4.79,60,64,7,60,273
41,http://www.group15_KD_tr_onto/ZD,Zaandam railway station,ZD,52.4389,4.81472,0.7914438502673797,http://www.group15_KD_tr_onto/240,Schiphol,240,52.318,4.79,60,64,7,60,273
42,http://www.group15_KD_tr_onto/ZVT,Zandvoort aan Zee railway station,ZVT,52.3758,4.53139,0.48717948717948717,http://www.group15_KD_tr_onto/240,Schiphol,240,52.318,4.79,60,64,7,60,273
43,http://www.group15_KD_tr_onto/AKL,Arkel railway station,AKL,51.8719,4.99278,0.3076923076923077,http://www.group15_KD_tr_onto/260,De Bilt,260,52.1,5.18,40,65,3,61,255
44,http://www.group15_KD_tr_onto/BHV,Bilthoven railway station,BHV,52.13,5.20528,0.3691275167785235,http://www.group15_KD_tr_onto/260,De Bilt,260,52.1,5.18,40,65,3,61,255
45,http://www.group15_KD_tr_onto/BKL,Breukelen railway station,BKL,52.17,4.99056,1.459016393442623,http://www.group15_KD_tr_onto/260,De Bilt,260,52.1,5.18,40,65,3,61,255
46,http://www.group15_KD_tr_onto/BNK,Bunnik railway station,BNK,52.0631,5.19556,0.5859375,http://www.group15_KD_tr_onto/260,De Bilt,260,52.1,5.18,40,65,3,61,255
47,http://www.group15_KD_tr_onto/BSD,Beesd railway station,BSD,51.8992,5.195,0.48717948717948717,http://www.group15_KD_tr_onto/260,De Bilt,260,52.1,5.18,40,65,3,61,255
48,http://www.group15_KD_tr_onto/CL,Culemborg railway station,CL,51.9472,5.22722,0.3790849673202614,http://www.group15_KD_tr_onto/260,De Bilt,260,52.1,5.18,40,65,3,61,255
49,http://www.group15_KD_tr_onto/DB,Driebergen-Zeist railway station,DB,52.065,5.26,1.4673366834170853,http://www.group15_KD_tr_onto/260,De Bilt,260,52.1,5.18,40,65,3,61,255
50,http://www.group15_KD_tr_onto/GDM,Geldermalsen railway station,GDM,51.8839,5.27083,0.5260416666666666,http://www.group15_KD_tr_onto/260,De Bilt,260,52.1,5.18,40,65,3,61,255
51,http://www.group15_KD_tr_onto/HTN,Houten railway station,HTN,52.0344,5.16778,0.477124183006536,http://www.group15_KD_tr_onto/260,De Bilt,260,52.1,5.18,40,65,3,61,255
52,http://www.group15_KD_tr_onto/LDM,Leerdam railway station,LDM,51.8947,5.09333,0.3974358974358974,http://www.group15_KD_tr_onto/260,De Bilt,260,52.1,5.18,40,65,3,61,255
53,http://www.group15_KD_tr_onto/MAS,Maarssen railway station,MAS,52.1358,5.03306,0.6343283582089553,http://www.group15_KD_tr_onto/260,De Bilt,260,52.1,5.18,40,65,3,61,255
54,http://www.group15_KD_tr_onto/UTLR,Utrecht Leidsche Rijn railway station,UTLR,52.0983,5.06917,0.23529411764705882,http://www.group15_KD_tr_onto/260,De Bilt,260,52.1,5.18,40,65,3,61,255
55,http://www.group15_KD_tr_onto/UTO,Utrecht Overvecht railway station,UTO,52.11,5.12528,0.18374558303886926,http://www.group15_KD_tr_onto/260,De Bilt,260,52.1,5.18,40,65,3,61,255
56,http://www.group15_KD_tr_onto/UTT,Utrecht Terwijde railway station,UTT,52.1008,5.04306,0.17647058823529413,http://www.group15_KD_tr_onto/260,De Bilt,260,52.1,5.18,40,65,3,61,255
57,http://www.group15_KD_tr_onto/UTVR,Utrecht Vaartsche Rijn railway station,UTVR,52.0786,5.1225,0.5088967971530249,http://www.group15_KD_tr_onto/260,De Bilt,260,52.1,5.18,40,65,3,61,255
58,http://www.group15_KD_tr_onto/UTZL,Utrecht Zuilen railway station,UTZL,52.1031,5.08917,0.9477611940298507,http://www.group15_KD_tr_onto/260,De Bilt,260,52.1,5.18,40,65,3,61,255
59,http://www.group15_KD_tr_onto/UT,Utrecht Centraal railway station,UT,52.0892,5.10972,0.7092013888888888,http://www.group15_KD_tr_onto/260,De Bilt,260,52.1,5.18,40,65,3,61,255
60,http://www.group15_KD_tr_onto/VTN,Vleuten railway station,VTN,52.1031,5.01194,0.2426470588235294,http://www.group15_KD_tr_onto/260,De Bilt,260,52.1,5.18,40,65,3,61,255
61,http://www.group15_KD_tr_onto/WD,Woerden railway station,WD,52.0847,4.89306,0.6898954703832753,http://www.group15_KD_tr_onto/260,De Bilt,260,52.1,5.18,40,65,3,61,255
62,http://www.group15_KD_tr_onto/ZBM,Zaltbommel railway station,ZBM,51.8069,5.26472,0.47368421052631576,http://www.group15_KD_tr_onto/260,De Bilt,260,52.1,5.18,40,65,3,61,255
63,http://www.group15_KD_tr_onto/BKF,Bovenkarspel Flora railway station,BKF,52.6958,5.25306,0.044444444444444446,http://www.group15_KD_tr_onto/267,Stavoren,267,52.898,5.384,100,60,8,58,282
64,http://www.group15_KD_tr_onto/BKG,Bovenkarspel-Grootebroek railway station,BKG,52.695,5.23611,0.08888888888888889,http://www.group15_KD_tr_onto/267,Stavoren,267,52.898,5.384,100,60,8,58,282
65,http://www.group15_KD_tr_onto/EKZ,Enkhuizen railway station,EKZ,52.6994,5.28778,0.09523809523809523,http://www.group15_KD_tr_onto/267,Stavoren,267,52.898,5.384,100,60,8,58,282
66,http://www.group15_KD_tr_onto/HKS,Hoogkarspel railway station,HKS,52.6906,5.18389,0.1111111111111111,http://www.group15_KD_tr_onto/267,Stavoren,267,52.898,5.384,100,60,8,58,282
67,http://www.group15_KD_tr_onto/HNP,Hindeloopen railway station,HNP,52.9461,5.42306,0.06521739130434782,http://www.group15_KD_tr_onto/267,Stavoren,267,52.898,5.384,100,60,8,58,282
68,http://www.group15_KD_tr_onto/HN,Hoorn railway station,HN,52.645,5.05472,0.5891089108910891,http://www.group15_KD_tr_onto/267,Stavoren,267,52.898,5.384,100,60,8,58,282
69,http://www.group15_KD_tr_onto/IJT,IJlst railway station,IJT,53.0147,5.61639,0.043478260869565216,http://www.group15_KD_tr_onto/267,Stavoren,267,52.898,5.384,100,60,8,58,282
70,http://www.group15_KD_tr_onto/KMW,Koudum-Molkwerum railway station,KMW,52.9022,5.41056,0.15217391304347827,http://www.group15_KD_tr_onto/267,Stavoren,267,52.898,5.384,100,60,8,58,282
71,http://www.group15_KD_tr_onto/STV,Stavoren railway station,STV,52.8867,5.35972,0.17391304347826086,http://www.group15_KD_tr_onto/267,Stavoren,267,52.898,5.384,100,60,8,58,282
72,http://www.group15_KD_tr_onto/WK,Workum railway station,WK,52.9714,5.45583,0.2608695652173913,http://www.group15_KD_tr_onto/267,Stavoren,267,52.898,5.384,100,60,8,58,282
73,http://www.group15_KD_tr_onto/WV,Wolvega railway station,WV,52.8797,6.00472,0.29850746268656714,http://www.group15_KD_tr_onto/267,Stavoren,267,52.898,5.384,100,60,8,58,282
74,http://www.group15_KD_tr_onto/ALMB,Almere Buiten railway station,ALMB,52.3942,5.27778,0.38571428571428573,http://www.group15_KD_tr_onto/269,Lelystad,269,52.458,5.52,50,59,3,40,251
75,http://www.group15_KD_tr_onto/ALMM,Almere Muziekwijk railway station,ALMM,52.3675,5.19028,0.4864864864864865,http://www.group15_KD_tr_onto/269,Lelystad,269,52.458,5.52,50,59,3,40,251
76,http://www.group15_KD_tr_onto/ALMO,Almere Oostvaarders railway station,ALMO,52.4028,5.3,0.3416666666666667,http://www.group15_KD_tr_onto/269,Lelystad,269,52.458,5.52,50,59,3,40,251
77,http://www.group15_KD_tr_onto/ALMP,Almere Parkwijk railway station,ALMP,52.3767,5.24444,0.30128205128205127,http://www.group15_KD_tr_onto/269,Lelystad,269,52.458,5.52,50,59,3,40,251
78,http://www.group15_KD_tr_onto/ALM,Almere Centrum railway station,ALM,52.375,5.21778,0.9222222222222223,http://www.group15_KD_tr_onto/269,Lelystad,269,52.458,5.52,50,59,3,40,251
79,http://www.group15_KD_tr_onto/DL,Dalfsen railway station,DL,52.4981,6.25861,0.14473684210526316,http://www.group15_KD_tr_onto/269,Lelystad,269,52.458,5.52,50,59,3,40,251
80,http://www.group15_KD_tr_onto/DRON,Dronten railway station,DRON,52.5339,5.72306,0.08860759493670886,http://www.group15_KD_tr_onto/269,Lelystad,269,52.458,5.52,50,59,3,40,251
81,http://www.group15_KD_tr_onto/EML,Ermelo railway station,EML,52.3011,5.61444,0.2328767123287671,http://www.group15_KD_tr_onto/269,Lelystad,269,52.458,5.52,50,59,3,40,251
82,http://www.group15_KD_tr_onto/HDE,'t Harde railway station,HDE,52.4089,5.89306,0.1917808219178082,http://www.group15_KD_tr_onto/269,Lelystad,269,52.458,5.52,50,59,3,40,251
83,http://www.group15_KD_tr_onto/HD,Harderwijk railway station,HD,52.3375,5.61972,0.2564102564102564,http://www.group15_KD_tr_onto/269,Lelystad,269,52.458,5.52,50,59,3,40,251
84,http://www.group15_KD_tr_onto/KPNZ,Kampen Zuid railway station,KPNZ,52.5342,5.91583,0.0759493670886076,http://www.group15_KD_tr_onto/269,Lelystad,269,52.458,5.52,50,59,3,40,251
85,http://www.group15_KD_tr_onto/KPN,Kampen railway station,KPN,52.5597,5.92111,0.15789473684210525,http://www.group15_KD_tr_onto/269,Lelystad,269,52.458,5.52,50,59,3,40,251
86,http://www.group15_KD_tr_onto/LLS,Lelystad Centrum railway station,LLS,52.5078,5.47333,0.8776595744680851,http://www.group15_KD_tr_onto/269,Lelystad,269,52.458,5.52,50,59,3,40,251
87,http://www.group15_KD_tr_onto/MP,Meppel railway station,MP,52.6914,6.1975,1.042654028436019,http://www.group15_KD_tr_onto/269,Lelystad,269,52.458,5.52,50,59,3,40,251
88,http://www.group15_KD_tr_onto/NS,Nunspeet railway station,NS,52.3708,5.78472,0.2876712328767123,http://www.group15_KD_tr_onto/269,Lelystad,269,52.458,5.52,50,59,3,40,251
89,http://www.group15_KD_tr_onto/OMN,Ommen railway station,OMN,52.5094,6.41694,0.75,http://www.group15_KD_tr_onto/269,Lelystad,269,52.458,5.52,50,59,3,40,251
90,http://www.group15_KD_tr_onto/PT,Putten railway station,PT,52.2653,5.57611,0.1232876712328767,http://www.group15_KD_tr_onto/269,Lelystad,269,52.458,5.52,50,59,3,40,251
91,http://www.group15_KD_tr_onto/WZ,Wezep railway station,WZ,52.4536,6.00222,0.2602739726027397,http://www.group15_KD_tr_onto/269,Lelystad,269,52.458,5.52,50,59,3,40,251
92,http://www.group15_KD_tr_onto/ZLSH,Zwolle Stadshagen railway station,ZLSH,52.5279,6.05108,0.02631578947368421,http://www.group15_KD_tr_onto/269,Lelystad,269,52.458,5.52,50,59,3,40,251
93,http://www.group15_KD_tr_onto/ZL,Zwolle railway station,ZL,52.5053,6.09056,0.5352422907488987,http://www.group15_KD_tr_onto/269,Lelystad,269,52.458,5.52,50,59,3,40,251
94,http://www.group15_KD_tr_onto/AKM,Akkrum railway station,AKM,53.0472,5.84306,0.31343283582089554,http://www.group15_KD_tr_onto/270,Leeuwarden,270,53.224,5.752,70,53,12,60,277
95,http://www.group15_KD_tr_onto/DEI,Deinum railway station,DEI,53.1886,5.72778,0.08823529411764706,http://www.group15_KD_tr_onto/270,Leeuwarden,270,53.224,5.752,70,53,12,60,277
96,http://www.group15_KD_tr_onto/DRP,Dronryp railway station,DRP,53.1775,5.63472,0.014705882352941176,http://www.group15_KD_tr_onto/270,Leeuwarden,270,53.224,5.752,70,53,12,60,277
97,http://www.group15_KD_tr_onto/FN,Franeker railway station,FN,53.1822,5.54944,0.04411764705882353,http://www.group15_KD_tr_onto/270,Leeuwarden,270,53.224,5.752,70,53,12,60,277
98,http://www.group15_KD_tr_onto/GW,Grou-Jirnsum railway station,GW,53.0897,5.82222,0.34328358208955223,http://www.group15_KD_tr_onto/270,Leeuwarden,270,53.224,5.752,70,53,12,60,277
99,http://www.group15_KD_tr_onto/HDG,Hurdegaryp railway station,HDG,53.2186,5.93472,0.45588235294117646,http://www.group15_KD_tr_onto/270,Leeuwarden,270,53.224,5.752,70,53,12,60,277
100,http://www.group15_KD_tr_onto/HLG,Harlingen railway station,HLG,53.1703,5.42528,0.058823529411764705,http://www.group15_KD_tr_onto/270,Leeuwarden,270,53.224,5.752,70,53,12,60,277
101,http://www.group15_KD_tr_onto/HR,Heerenveen railway station,HR,52.9606,5.91528,0.7681159420289855,http://www.group15_KD_tr_onto/270,Leeuwarden,270,53.224,5.752,70,53,12,60,277
102,http://www.group15_KD_tr_onto/LW,Leeuwarden railway station,LW,53.1958,5.79111,0.4782608695652174,http://www.group15_KD_tr_onto/270,Leeuwarden,270,53.224,5.752,70,53,12,60,277
103,http://www.group15_KD_tr_onto/MG,Mantgum railway station,MG,53.1297,5.71333,0.45588235294117646,http://www.group15_KD_tr_onto/270,Leeuwarden,270,53.224,5.752,70,53,12,60,277
104,http://www.group15_KD_tr_onto/SK,Sneek railway station,SK,53.0322,5.65167,0.18461538461538463,http://www.group15_KD_tr_onto/270,Leeuwarden,270,53.224,5.752,70,53,12,60,277
105,http://www.group15_KD_tr_onto/AHPR,Arnhem Presikhaaf railway station,AHPR,51.9875,5.94306,0.22857142857142856,http://www.group15_KD_tr_onto/275,Deelen,275,52.056,5.873,50,58,8,56,241
106,http://www.group15_KD_tr_onto/AHZ,Arnhem Zuid railway station,AHZ,51.9542,5.85167,0.3787878787878788,http://www.group15_KD_tr_onto/275,Deelen,275,52.056,5.873,50,58,8,56,241
107,http://www.group15_KD_tr_onto/AML,Almelo railway station,AML,52.3572,6.655,0.3153846153846154,http://www.group15_KD_tr_onto/275,Deelen,275,52.056,5.873,50,58,8,56,241
108,http://www.group15_KD_tr_onto/APD,Apeldoorn railway station,APD,52.2092,5.96944,0.4245810055865922,http://www.group15_KD_tr_onto/275,Deelen,275,52.056,5.873,50,58,8,56,241
109,http://www.group15_KD_tr_onto/ATN,Aalten railway station,ATN,51.9211,6.57806,0.08108108108108109,http://www.group15_KD_tr_onto/275,Deelen,275,52.056,5.873,50,58,8,56,241
110,http://www.group15_KD_tr_onto/BMN,Brummen railway station,BMN,52.0908,6.14694,0.14285714285714285,http://www.group15_KD_tr_onto/275,Deelen,275,52.056,5.873,50,58,8,56,241
111,http://www.group15_KD_tr_onto/BN,Borne railway station,BN,52.2983,6.74833,0.08602150537634409,http://www.group15_KD_tr_onto/275,Deelen,275,52.056,5.873,50,58,8,56,241
112,http://www.group15_KD_tr_onto/CK,Cuijk railway station,CK,51.7264,5.87417,0.3815789473684211,http://www.group15_KD_tr_onto/275,Deelen,275,52.056,5.873,50,58,8,56,241
113,http://www.group15_KD_tr_onto/DA,Daarlerveen railway station,DA,52.4411,6.57583,0.2962962962962963,http://www.group15_KD_tr_onto/275,Deelen,275,52.056,5.873,50,58,8,56,241
114,http://www.group15_KD_tr_onto/DDN,Delden railway station,DDN,52.26,6.71444,0.5555555555555556,http://www.group15_KD_tr_onto/275,Deelen,275,52.056,5.873,50,58,8,56,241
115,http://www.group15_KD_tr_onto/DID,Didam railway station,DID,51.9333,6.13222,0.03875968992248062,http://www.group15_KD_tr_onto/275,Deelen,275,52.056,5.873,50,58,8,56,241
116,http://www.group15_KD_tr_onto/DR,Dieren railway station,DR,52.045,6.10333,0.5319148936170213,http://www.group15_KD_tr_onto/275,Deelen,275,52.056,5.873,50,58,8,56,241
117,http://www.group15_KD_tr_onto/DTC,Doetinchem railway station,DTC,51.9583,6.29528,0.1,http://www.group15_KD_tr_onto/275,Deelen,275,52.056,5.873,50,58,8,56,241
118,http://www.group15_KD_tr_onto/DVN,Duiven railway station,DVN,51.9433,6.01417,0.10852713178294573,http://www.group15_KD_tr_onto/275,Deelen,275,52.056,5.873,50,58,8,56,241
119,http://www.group15_KD_tr_onto/DV,Deventer railway station,DV,52.2572,6.16083,0.6074380165289256,http://www.group15_KD_tr_onto/275,Deelen,275,52.056,5.873,50,58,8,56,241
120,http://www.group15_KD_tr_onto/ED,Ede-Wageningen railway station,ED,52.0278,5.67194,1.1654929577464788,http://www.group15_KD_tr_onto/275,Deelen,275,52.056,5.873,50,58,8,56,241
121,http://www.group15_KD_tr_onto/EST,Elst railway station,EST,51.9167,5.855,0.35751295336787564,http://www.group15_KD_tr_onto/275,Deelen,275,52.056,5.873,50,58,8,56,241
122,http://www.group15_KD_tr_onto/ES,Enschede railway station,ES,52.2222,6.89,0.5877862595419847,http://www.group15_KD_tr_onto/275,Deelen,275,52.056,5.873,50,58,8,56,241
123,http://www.group15_KD_tr_onto/GBR,Glanerbrug railway station,GBR,52.2186,6.97389,0.0,http://www.group15_KD_tr_onto/275,Deelen,275,52.056,5.873,50,58,8,56,241
124,http://www.group15_KD_tr_onto/GDR,Gaanderen railway station,GDR,51.9308,6.34778,0.04054054054054054,http://www.group15_KD_tr_onto/275,Deelen,275,52.056,5.873,50,58,8,56,241
125,http://www.group15_KD_tr_onto/GO,Goor railway station,GO,52.2303,6.58444,0.19718309859154928,http://www.group15_KD_tr_onto/275,Deelen,275,52.056,5.873,50,58,8,56,241
126,http://www.group15_KD_tr_onto/HGL,Hengelo railway station,HGL,52.2619,6.79417,0.46688741721854304,http://www.group15_KD_tr_onto/275,Deelen,275,52.056,5.873,50,58,8,56,241
127,http://www.group15_KD_tr_onto/HMN,Hemmen-Dodewaard railway station,HMN,51.9222,5.67333,0.359375,http://www.group15_KD_tr_onto/275,Deelen,275,52.056,5.873,50,58,8,56,241
128,http://www.group15_KD_tr_onto/HNO,Heino railway station,HNO,52.4269,6.22194,0.11842105263157894,http://www.group15_KD_tr_onto/275,Deelen,275,52.056,5.873,50,58,8,56,241
129,http://www.group15_KD_tr_onto/HON,Holten railway station,HON,52.2839,6.42056,0.3333333333333333,http://www.group15_KD_tr_onto/275,Deelen,275,52.056,5.873,50,58,8,56,241
130,http://www.group15_KD_tr_onto/KBK,Klarenbeek railway station,KBK,52.1778,6.08417,0.03125,http://www.group15_KD_tr_onto/275,Deelen,275,52.056,5.873,50,58,8,56,241
131,http://www.group15_KD_tr_onto/KLP,Veenendaal-De Klomp railway station,KLP,52.0458,5.57389,0.6707317073170732,http://www.group15_KD_tr_onto/275,Deelen,275,52.056,5.873,50,58,8,56,241
132,http://www.group15_KD_tr_onto/KTR,Kesteren railway station,KTR,51.9314,5.58361,0.328125,http://www.group15_KD_tr_onto/275,Deelen,275,52.056,5.873,50,58,8,56,241
133,http://www.group15_KD_tr_onto/LC,Lochem railway station,LC,52.1667,6.42583,0.14285714285714285,http://www.group15_KD_tr_onto/275,Deelen,275,52.056,5.873,50,58,8,56,241
134,http://www.group15_KD_tr_onto/LTV,Lichtenvoorde-Groenlo railway station,LTV,52.0117,6.59639,0.13043478260869565,http://www.group15_KD_tr_onto/275,Deelen,275,52.056,5.873,50,58,8,56,241
135,http://www.group15_KD_tr_onto/MMLH,Mook-Molenhoek railway station,MMLH,51.7647,5.8775,0.7236842105263158,http://www.group15_KD_tr_onto/275,Deelen,275,52.056,5.873,50,58,8,56,241
136,http://www.group15_KD_tr_onto/NM,Nijmegen railway station,NM,51.8433,5.8525,0.7003058103975535,http://www.group15_KD_tr_onto/275,Deelen,275,52.056,5.873,50,58,8,56,241
137,http://www.group15_KD_tr_onto/NVD,Nijverdal railway station,NVD,52.3656,6.47028,0.38235294117647056,http://www.group15_KD_tr_onto/275,Deelen,275,52.056,5.873,50,58,8,56,241
138,http://www.group15_KD_tr_onto/ODZ,Oldenzaal railway station,ODZ,52.3061,6.93361,0.14457831325301204,http://www.group15_KD_tr_onto/275,Deelen,275,52.056,5.873,50,58,8,56,241
139,http://www.group15_KD_tr_onto/OP,Opheusden railway station,OP,51.9261,5.63694,0.34375,http://www.group15_KD_tr_onto/275,Deelen,275,52.056,5.873,50,58,8,56,241
140,http://www.group15_KD_tr_onto/OST,Olst railway station,OST,52.335,6.11306,0.9178082191780822,http://www.group15_KD_tr_onto/275,Deelen,275,52.056,5.873,50,58,8,56,241
141,http://www.group15_KD_tr_onto/OTB,Oosterbeek railway station,OTB,51.9947,5.84,1.0606060606060606,http://www.group15_KD_tr_onto/275,Deelen,275,52.056,5.873,50,58,8,56,241
142,http://www.group15_KD_tr_onto/RAT,Raalte railway station,RAT,52.3908,6.27861,0.22549019607843138,http://www.group15_KD_tr_onto/275,Deelen,275,52.056,5.873,50,58,8,56,241
143,http://www.group15_KD_tr_onto/RHN,Rhenen railway station,RHN,51.9578,5.57833,0.24324324324324326,http://www.group15_KD_tr_onto/275,Deelen,275,52.056,5.873,50,58,8,56,241
144,http://www.group15_KD_tr_onto/RH,Rheden railway station,RH,52.0097,6.02972,0.11267605633802817,http://www.group15_KD_tr_onto/275,Deelen,275,52.056,5.873,50,58,8,56,241
145,http://www.group15_KD_tr_onto/RL,Ruurlo railway station,RL,52.0806,6.45,0.14492753623188406,http://www.group15_KD_tr_onto/275,Deelen,275,52.056,5.873,50,58,8,56,241
146,http://www.group15_KD_tr_onto/RSN,Rijssen railway station,RSN,52.3117,6.51917,0.18055555555555555,http://www.group15_KD_tr_onto/275,Deelen,275,52.056,5.873,50,58,8,56,241
147,http://www.group15_KD_tr_onto/RVS,Ravenstein railway station,RVS,51.7947,5.63722,0.84,http://www.group15_KD_tr_onto/275,Deelen,275,52.056,5.873,50,58,8,56,241
148,http://www.group15_KD_tr_onto/TWL,Twello railway station,TWL,52.2381,6.1,0.21212121212121213,http://www.group15_KD_tr_onto/275,Deelen,275,52.056,5.873,50,58,8,56,241
149,http://www.group15_KD_tr_onto/VEM,Voorst-Empe railway station,VEM,52.1578,6.14278,0.09375,http://www.group15_KD_tr_onto/275,Deelen,275,52.056,5.873,50,58,8,56,241
150,http://www.group15_KD_tr_onto/VHP,Vroomshoop railway station,VHP,52.4411,6.57583,0.24074074074074073,http://www.group15_KD_tr_onto/275,Deelen,275,52.056,5.873,50,58,8,56,241
151,http://www.group15_KD_tr_onto/VP,Arnhem Velperpoort railway station,VP,51.985,5.92,0.08571428571428572,http://www.group15_KD_tr_onto/275,Deelen,275,52.056,5.873,50,58,8,56,241
152,http://www.group15_KD_tr_onto/VSV,Varsseveld railway station,VSV,51.9369,6.45806,0.0,http://www.group15_KD_tr_onto/275,Deelen,275,52.056,5.873,50,58,8,56,241
153,http://www.group15_KD_tr_onto/VZ,Vriezenveen railway station,VZ,52.4019,6.60028,0.16666666666666666,http://www.group15_KD_tr_onto/275,Deelen,275,52.056,5.873,50,58,8,56,241
154,http://www.group15_KD_tr_onto/WC,Wijchen railway station,WC,51.8111,5.72944,0.5673076923076923,http://www.group15_KD_tr_onto/275,Deelen,275,52.056,5.873,50,58,8,56,241
155,http://www.group15_KD_tr_onto/WDN,Wierden railway station,WDN,52.3614,6.59111,0.10810810810810811,http://www.group15_KD_tr_onto/275,Deelen,275,52.056,5.873,50,58,8,56,241
156,http://www.group15_KD_tr_onto/WF,Wolfheze railway station,WF,52.0053,5.79361,1.2238805970149254,http://www.group15_KD_tr_onto/275,Deelen,275,52.056,5.873,50,58,8,56,241
157,http://www.group15_KD_tr_onto/WH,Wijhe railway station,WH,52.3936,6.14083,0.9041095890410958,http://www.group15_KD_tr_onto/275,Deelen,275,52.056,5.873,50,58,8,56,241
158,http://www.group15_KD_tr_onto/WL,Wehl railway station,WL,51.9567,6.2125,0.18604651162790697,http://www.group15_KD_tr_onto/275,Deelen,275,52.056,5.873,50,58,8,56,241
159,http://www.group15_KD_tr_onto/WWW,Winterswijk West railway station,WWW,51.9744,6.70361,0.10144927536231885,http://www.group15_KD_tr_onto/275,Deelen,275,52.056,5.873,50,58,8,56,241
160,http://www.group15_KD_tr_onto/WW,Winterswijk railway station,WW,51.9675,6.71556,0.1111111111111111,http://www.group15_KD_tr_onto/275,Deelen,275,52.056,5.873,50,58,8,56,241
161,http://www.group15_KD_tr_onto/ZA,Zetten-Andelst railway station,ZA,51.9194,5.72306,0.375,http://www.group15_KD_tr_onto/275,Deelen,275,52.056,5.873,50,58,8,56,241
162,http://www.group15_KD_tr_onto/ZP,Zutphen railway station,ZP,52.1444,6.19389,0.5450236966824644,http://www.group15_KD_tr_onto/275,Deelen,275,52.056,5.873,50,58,8,56,241
163,http://www.group15_KD_tr_onto/ZV,Zevenaar railway station,ZV,51.9231,6.07278,0.5454545454545454,http://www.group15_KD_tr_onto/275,Deelen,275,52.056,5.873,50,58,8,56,241
164,http://www.group15_KD_tr_onto/ASN,Assen railway station,ASN,52.9917,6.57056,0.9047619047619048,http://www.group15_KD_tr_onto/280,Eelde,280,53.125,6.585,60,48,25,56,246
165,http://www.group15_KD_tr_onto/BF,Baflo railway station,BF,53.3608,6.51833,0.3815789473684211,http://www.group15_KD_tr_onto/280,Eelde,280,53.125,6.585,60,48,25,56,246
166,http://www.group15_KD_tr_onto/BL,Beilen railway station,BL,52.8547,6.52083,1.3866666666666667,http://www.group15_KD_tr_onto/280,Eelde,280,53.125,6.585,60,48,25,56,246
167,http://www.group15_KD_tr_onto/DLN,Dalen railway station,DLN,52.6944,6.75806,0.10638297872340426,http://www.group15_KD_tr_onto/280,Eelde,280,53.125,6.585,60,48,25,56,246
168,http://www.group15_KD_tr_onto/EMNZ,Emmen Zuid railway station,EMNZ,52.7489,6.87472,0.17105263157894737,http://www.group15_KD_tr_onto/280,Eelde,280,53.125,6.585,60,48,25,56,246
169,http://www.group15_KD_tr_onto/EMN,Emmen railway station,EMN,52.7903,6.89917,0.15789473684210525,http://www.group15_KD_tr_onto/280,Eelde,280,53.125,6.585,60,48,25,56,246
170,http://www.group15_KD_tr_onto/GBG,Gramsbergen railway station,GBG,52.6094,6.67583,0.5106382978723404,http://www.group15_KD_tr_onto/280,Eelde,280,53.125,6.585,60,48,25,56,246
171,http://www.group15_KD_tr_onto/GK,Grijpskerk railway station,GK,53.2556,6.31056,0.10294117647058823,http://www.group15_KD_tr_onto/280,Eelde,280,53.125,6.585,60,48,25,56,246
172,http://www.group15_KD_tr_onto/GN,Groningen railway station,GN,53.2106,6.56472,0.4585987261146497,http://www.group15_KD_tr_onto/280,Eelde,280,53.125,6.585,60,48,25,56,246
173,http://www.group15_KD_tr_onto/HDB,Hardenberg railway station,HDB,52.5722,6.62778,0.19607843137254902,http://www.group15_KD_tr_onto/280,Eelde,280,53.125,6.585,60,48,25,56,246
174,http://www.group15_KD_tr_onto/HGV,Hoogeveen railway station,HGV,52.7333,6.4725,1.3506493506493507,http://www.group15_KD_tr_onto/280,Eelde,280,53.125,6.585,60,48,25,56,246
175,http://www.group15_KD_tr_onto/HRN,Haren (NL) railway station,HRN,53.175,6.61778,0.974025974025974,http://www.group15_KD_tr_onto/280,Eelde,280,53.125,6.585,60,48,25,56,246
176,http://www.group15_KD_tr_onto/KW,Kropswolde railway station,KW,53.1617,6.72139,0.4,http://www.group15_KD_tr_onto/280,Eelde,280,53.125,6.585,60,48,25,56,246
177,http://www.group15_KD_tr_onto/NA,Nieuw Amsterdam railway station,NA,52.7186,6.84861,0.2236842105263158,http://www.group15_KD_tr_onto/280,Eelde,280,53.125,6.585,60,48,25,56,246
178,http://www.group15_KD_tr_onto/NSCH,Bad Nieuweschans railway station,NSCH,53.1842,7.19944,0.6666666666666666,http://www.group15_KD_tr_onto/280,Eelde,280,53.125,6.585,60,48,25,56,246
179,http://www.group15_KD_tr_onto/SWK,Steenwijk railway station,SWK,52.7908,6.11611,0.7318840579710145,http://www.group15_KD_tr_onto/280,Eelde,280,53.125,6.585,60,48,25,56,246
180,http://www.group15_KD_tr_onto/VDM,Veendam railway station,VDM,53.1036,6.88472,0.05714285714285714,http://www.group15_KD_tr_onto/280,Eelde,280,53.125,6.585,60,48,25,56,246
181,http://www.group15_KD_tr_onto/VD,Coevorden railway station,VD,52.6631,6.73556,0.34782608695652173,http://www.group15_KD_tr_onto/280,Eelde,280,53.125,6.585,60,48,25,56,246
182,http://www.group15_KD_tr_onto/BGN,Bergen op Zoom railway station,BGN,51.4947,4.29611,1.238532110091743,http://www.group15_KD_tr_onto/340,Woensdrecht,340,51.449,4.342,60,67,13,62,259
183,http://www.group15_KD_tr_onto/KBD,Krabbendijke railway station,KBD,51.4333,4.11694,1.1688311688311688,http://www.group15_KD_tr_onto/340,Woensdrecht,340,51.449,4.342,60,67,13,62,259
184,http://www.group15_KD_tr_onto/KRG,Kruiningen-Yerseke railway station,KRG,51.4653,4.03694,0.922077922077922,http://www.group15_KD_tr_onto/340,Woensdrecht,340,51.449,4.342,60,67,13,62,259
185,http://www.group15_KD_tr_onto/ODB,Oudenbosch railway station,ODB,51.5881,4.53361,0.43478260869565216,http://www.group15_KD_tr_onto/340,Woensdrecht,340,51.449,4.342,60,67,13,62,259
186,http://www.group15_KD_tr_onto/RB,Rilland-Bath railway station,RB,51.4222,4.16111,1.2727272727272727,http://www.group15_KD_tr_onto/340,Woensdrecht,340,51.449,4.342,60,67,13,62,259
187,http://www.group15_KD_tr_onto/RSD,Roosendaal railway station,RSD,51.5403,4.45889,1.3206521739130435,http://www.group15_KD_tr_onto/340,Woensdrecht,340,51.449,4.342,60,67,13,62,259
188,http://www.group15_KD_tr_onto/BSKS,Boskoop Snijdelwijk railway station,BSKS,52.0676,4.6462,0.0,http://www.group15_KD_tr_onto/344,Rotterdam,344,51.962,4.447,60,67,8,50,263
189,http://www.group15_KD_tr_onto/CPS,Capelle Schollevaar railway station,CPS,51.9533,4.58417,1.5393258426966292,http://www.group15_KD_tr_onto/344,Rotterdam,344,51.962,4.447,60,67,8,50,263
190,http://www.group15_KD_tr_onto/DT,Rotterdam Delftsche Poort railway station,DT,51.9253,4.47361,0.7754137115839244,http://www.group15_KD_tr_onto/344,Rotterdam,344,51.962,4.447,60,67,8,50,263
191,http://www.group15_KD_tr_onto/EC,Dordrecht railway station,EC,51.8075,4.66778,0.21621621621621623,http://www.group15_KD_tr_onto/344,Rotterdam,344,51.962,4.447,60,67,8,50,263
192,http://www.group15_KD_tr_onto/GD,Gouda railway station,GD,52.0175,4.70556,0.679144385026738,http://www.group15_KD_tr_onto/344,Rotterdam,344,51.962,4.447,60,67,8,50,263
193,http://www.group15_KD_tr_onto/GVMW,Den Haag Moerwijk railway station,GVMW,52.0533,4.30861,0.41007194244604317,http://www.group15_KD_tr_onto/344,Rotterdam,344,51.962,4.447,60,67,8,50,263
194,http://www.group15_KD_tr_onto/NWK,Nieuwerkerk aan den IJssel railway station,NWK,51.9653,4.61694,1.5730337078651686,http://www.group15_KD_tr_onto/344,Rotterdam,344,51.962,4.447,60,67,8,50,263
195,http://www.group15_KD_tr_onto/RLB,Rotterdam Lombardijen railway station,RLB,51.8797,4.53111,0.42857142857142855,http://www.group15_KD_tr_onto/344,Rotterdam,344,51.962,4.447,60,67,8,50,263
196,http://www.group15_KD_tr_onto/RSW,Rijswijk railway station,RSW,52.0394,4.31972,0.460431654676259,http://www.group15_KD_tr_onto/344,Rotterdam,344,51.962,4.447,60,67,8,50,263
197,http://www.group15_KD_tr_onto/RTA,Rotterdam Alexander station,RTA,51.9519,4.55278,1.0982142857142858,http://www.group15_KD_tr_onto/344,Rotterdam,344,51.962,4.447,60,67,8,50,263
198,http://www.group15_KD_tr_onto/RTB,Rotterdam Blaak station,RTB,51.92,4.48917,0.5747126436781609,http://www.group15_KD_tr_onto/344,Rotterdam,344,51.962,4.447,60,67,8,50,263
199,http://www.group15_KD_tr_onto/RTD,Rotterdam Centraal station,RTD,51.9244,4.46944,1.1724137931034482,http://www.group15_KD_tr_onto/344,Rotterdam,344,51.962,4.447,60,67,8,50,263
200,http://www.group15_KD_tr_onto/RTN,Rotterdam Noord railway station,RTN,51.9422,4.48139,1.7078651685393258,http://www.group15_KD_tr_onto/344,Rotterdam,344,51.962,4.447,60,67,8,50,263
201,http://www.group15_KD_tr_onto/RTZ,Rotterdam Zuid railway station,RTZ,51.9094,4.50944,0.43386243386243384,http://www.group15_KD_tr_onto/344,Rotterdam,344,51.962,4.447,60,67,8,50,263
202,http://www.group15_KD_tr_onto/SDM,Schiedam Centrum station,SDM,51.9219,4.41,0.5146198830409356,http://www.group15_KD_tr_onto/344,Rotterdam,344,51.962,4.447,60,67,8,50,263
203,http://www.group15_KD_tr_onto/SDT,Sliedrecht Baanhoek railway station,SDT,51.8297,4.74333,0.5555555555555556,http://www.group15_KD_tr_onto/344,Rotterdam,344,51.962,4.447,60,67,8,50,263
204,http://www.group15_KD_tr_onto/YPB,Den Haag Ypenburg railway station,YPB,52.0592,4.38972,0.29927007299270075,http://www.group15_KD_tr_onto/344,Rotterdam,344,51.962,4.447,60,67,8,50,263
205,http://www.group15_KD_tr_onto/ZTM,Lansingerland-Zoetermeer railway station,ZTM,52.0394,4.52556,0.26277372262773724,http://www.group15_KD_tr_onto/344,Rotterdam,344,51.962,4.447,60,67,8,50,263
206,http://www.group15_KD_tr_onto/ZWD,Zwijndrecht railway station,ZWD,51.8147,4.64222,0.3333333333333333,http://www.group15_KD_tr_onto/344,Rotterdam,344,51.962,4.447,60,67,8,50,263
207,http://www.group15_KD_tr_onto/BD,Breda railway station,BD,51.595,4.78,1.2566666666666666,http://www.group15_KD_tr_onto/350,Gilze-Rijen,350,51.566,4.936,40,66,37,58,257
208,http://www.group15_KD_tr_onto/BHDV,Boven Hardinxveld railway station,BHDV,51.8319,4.87472,0.3037037037037037,http://www.group15_KD_tr_onto/350,Gilze-Rijen,350,51.566,4.936,40,66,37,58,257
209,http://www.group15_KD_tr_onto/ETN,Etten-Leur railway station,ETN,51.5753,4.63694,0.8266666666666667,http://www.group15_KD_tr_onto/350,Gilze-Rijen,350,51.566,4.936,40,66,37,58,257
210,http://www.group15_KD_tr_onto/GND,Hardinxveld-Giessendam railway station,GND,51.8303,4.83528,0.6222222222222222,http://www.group15_KD_tr_onto/350,Gilze-Rijen,350,51.566,4.936,40,66,37,58,257
211,http://www.group15_KD_tr_onto/GR,Gorinchem railway station,GR,51.8336,4.9675,0.4528301886792453,http://www.group15_KD_tr_onto/350,Gilze-Rijen,350,51.566,4.936,40,66,37,58,257
212,http://www.group15_KD_tr_onto/GZ,Gilze-Rijen railway station,GZ,51.5839,4.925,0.7974683544303798,http://www.group15_KD_tr_onto/350,Gilze-Rijen,350,51.566,4.936,40,66,37,58,257
213,http://www.group15_KD_tr_onto/OT,Oisterwijk railway station,OT,51.5822,5.19444,0.463768115942029,http://www.group15_KD_tr_onto/350,Gilze-Rijen,350,51.566,4.936,40,66,37,58,257
214,http://www.group15_KD_tr_onto/TBR,Tilburg Reeshof railway station,TBR,51.5739,4.99278,0.9367088607594937,http://www.group15_KD_tr_onto/350,Gilze-Rijen,350,51.566,4.936,40,66,37,58,257
215,http://www.group15_KD_tr_onto/TBU,Tilburg Universiteit railway station,TBU,51.5653,5.05139,0.7522123893805309,http://www.group15_KD_tr_onto/350,Gilze-Rijen,350,51.566,4.936,40,66,37,58,257
216,http://www.group15_KD_tr_onto/TB,Tilburg railway station,TB,51.5606,5.08278,1.1357615894039734,http://www.group15_KD_tr_onto/350,Gilze-Rijen,350,51.566,4.936,40,66,37,58,257
217,http://www.group15_KD_tr_onto/ZLW,Lage Zwaluwe railway station,ZLW,51.6906,4.66333,0.6711409395973155,http://www.group15_KD_tr_onto/350,Gilze-Rijen,350,51.566,4.936,40,66,37,58,257
218,http://www.group15_KD_tr_onto/ZVB,Zevenbergen railway station,ZVB,51.6414,4.60972,0.9710144927536232,http://www.group15_KD_tr_onto/350,Gilze-Rijen,350,51.566,4.936,40,66,37,58,257
219,http://www.group15_KD_tr_onto/BET,Best railway station,BET,51.5097,5.38889,0.5306122448979592,http://www.group15_KD_tr_onto/370,Eindhoven,370,51.451,5.377,60,66,39,56,236
220,http://www.group15_KD_tr_onto/BMR,Boxmeer railway station,BMR,51.6444,5.93944,0.2236842105263158,http://www.group15_KD_tr_onto/370,Eindhoven,370,51.451,5.377,60,66,39,56,236
221,http://www.group15_KD_tr_onto/BR,Blerick railway station,BR,51.3725,6.155,0.625,http://www.group15_KD_tr_onto/370,Eindhoven,370,51.451,5.377,60,66,39,56,236
222,http://www.group15_KD_tr_onto/BTL,Boxtel railway station,BTL,51.5844,5.31889,0.4900662251655629,http://www.group15_KD_tr_onto/370,Eindhoven,370,51.451,5.377,60,66,39,56,236
223,http://www.group15_KD_tr_onto/DN,Deurne railway station,DN,51.4558,5.78833,1.0341880341880343,http://www.group15_KD_tr_onto/370,Eindhoven,370,51.451,5.377,60,66,39,56,236
224,http://www.group15_KD_tr_onto/EHS,Eindhoven Stadion railway station,EHS,51.443,5.46731,0.5034013605442177,http://www.group15_KD_tr_onto/370,Eindhoven,370,51.451,5.377,60,66,39,56,236
225,http://www.group15_KD_tr_onto/EHV,Eindhoven Centraal railway station,EHV,51.4428,5.48028,0.9782608695652174,http://www.group15_KD_tr_onto/370,Eindhoven,370,51.451,5.377,60,66,39,56,236
226,http://www.group15_KD_tr_onto/GP,Geldrop railway station,GP,51.42,5.55111,0.23880597014925373,http://www.group15_KD_tr_onto/370,Eindhoven,370,51.451,5.377,60,66,39,56,236
227,http://www.group15_KD_tr_onto/HMH,Helmond 't Hout railway station,HMH,51.4678,5.63083,0.5522388059701493,http://www.group15_KD_tr_onto/370,Eindhoven,370,51.451,5.377,60,66,39,56,236
228,http://www.group15_KD_tr_onto/HM,Helmond railway station,HM,51.4756,5.66167,0.7086092715231788,http://www.group15_KD_tr_onto/370,Eindhoven,370,51.451,5.377,60,66,39,56,236
229,http://www.group15_KD_tr_onto/HRT,Horst-Sevenum railway station,HRT,51.4267,6.04194,0.7142857142857143,http://www.group15_KD_tr_onto/370,Eindhoven,370,51.451,5.377,60,66,39,56,236
230,http://www.group15_KD_tr_onto/HT,'s-Hertogenbosch railway station,HT,51.69,5.29333,0.5229759299781181,http://www.group15_KD_tr_onto/370,Eindhoven,370,51.451,5.377,60,66,39,56,236
231,http://www.group15_KD_tr_onto/HZ,Heeze railway station,HZ,51.385,5.56944,1.5526315789473684,http://www.group15_KD_tr_onto/370,Eindhoven,370,51.451,5.377,60,66,39,56,236
232,http://www.group15_KD_tr_onto/MZ,Maarheeze railway station,MZ,51.3039,5.63028,0.3582089552238806,http://www.group15_KD_tr_onto/370,Eindhoven,370,51.451,5.377,60,66,39,56,236
233,http://www.group15_KD_tr_onto/OW,Oss West railway station,OW,51.7581,5.50611,0.25301204819277107,http://www.group15_KD_tr_onto/370,Eindhoven,370,51.451,5.377,60,66,39,56,236
234,http://www.group15_KD_tr_onto/O,Oss railway station,O,51.7653,5.53167,0.9161290322580645,http://www.group15_KD_tr_onto/370,Eindhoven,370,51.451,5.377,60,66,39,56,236
235,http://www.group15_KD_tr_onto/RS,Rosmalen railway station,RS,51.715,5.36889,0.2289156626506024,http://www.group15_KD_tr_onto/370,Eindhoven,370,51.451,5.377,60,66,39,56,236
236,http://www.group15_KD_tr_onto/TG,Tegelen railway station,TG,51.3411,6.14333,1.1973684210526316,http://www.group15_KD_tr_onto/370,Eindhoven,370,51.451,5.377,60,66,39,56,236
237,http://www.group15_KD_tr_onto/VG,Vught railway station,VG,51.6547,5.29194,0.3333333333333333,http://www.group15_KD_tr_onto/370,Eindhoven,370,51.451,5.377,60,66,39,56,236
238,http://www.group15_KD_tr_onto/VLB,Vierlingsbeek railway station,VLB,51.5922,5.99667,0.7631578947368421,http://www.group15_KD_tr_onto/370,Eindhoven,370,51.451,5.377,60,66,39,56,236
239,http://www.group15_KD_tr_onto/VL,Venlo railway station,VL,51.3647,6.17139,0.7153284671532847,http://www.group15_KD_tr_onto/370,Eindhoven,370,51.451,5.377,60,66,39,56,236
240,http://www.group15_KD_tr_onto/VRY,Venray railway station,VRY,51.5264,6.01417,0.8026315789473685,http://www.group15_KD_tr_onto/370,Eindhoven,370,51.451,5.377,60,66,39,56,236
241,http://www.group15_KD_tr_onto/WT,Weert railway station,WT,51.2486,5.7025,0.6649214659685864,http://www.group15_KD_tr_onto/370,Eindhoven,370,51.451,5.377,60,66,39,56,236
242,http://www.group15_KD_tr_onto/CVM,Chevremont railway station,CVM,50.8758,6.05944,1.0263157894736843,http://www.group15_KD_tr_onto/380,Maastricht,380,50.906,5.762,50,61,108,50,241
243,http://www.group15_KD_tr_onto/EDN,Eijsden railway station,EDN,50.772,5.71004,0.16666666666666666,http://www.group15_KD_tr_onto/380,Maastricht,380,50.906,5.762,50,61,108,50,241
244,http://www.group15_KD_tr_onto/EGH,Eygelshoven railway station,EGH,50.8903,6.04556,0.868421052631579,http://www.group15_KD_tr_onto/380,Maastricht,380,50.906,5.762,50,61,108,50,241
245,http://www.group15_KD_tr_onto/GLN,Geleen Oost railway station,GLN,50.9672,5.84306,0.4605263157894737,http://www.group15_KD_tr_onto/380,Maastricht,380,50.906,5.762,50,61,108,50,241
246,http://www.group15_KD_tr_onto/HB,Hoensbroek railway station,HB,50.9053,5.93111,0.7894736842105263,http://www.group15_KD_tr_onto/380,Maastricht,380,50.906,5.762,50,61,108,50,241
247,http://www.group15_KD_tr_onto/HRLW,Heerlen Woonboulevard railway station,HRLW,50.8961,5.95278,0.44871794871794873,http://www.group15_KD_tr_onto/380,Maastricht,380,50.906,5.762,50,61,108,50,241
248,http://www.group15_KD_tr_onto/HRL,Heerlen railway station,HRL,50.8908,5.97472,0.5339805825242718,http://www.group15_KD_tr_onto/380,Maastricht,380,50.906,5.762,50,61,108,50,241
249,http://www.group15_KD_tr_onto/KMR,Klimmen-Ransdaal railway station,KMR,50.8667,5.89056,0.3717948717948718,http://www.group15_KD_tr_onto/380,Maastricht,380,50.906,5.762,50,61,108,50,241
250,http://www.group15_KD_tr_onto/KRD,Kerkrade Centrum railway station,KRD,50.8614,6.0575,1.394736842105263,http://www.group15_KD_tr_onto/380,Maastricht,380,50.906,5.762,50,61,108,50,241
251,http://www.group15_KD_tr_onto/LG,Landgraaf railway station,LG,50.8964,6.02,0.9210526315789473,http://www.group15_KD_tr_onto/380,Maastricht,380,50.906,5.762,50,61,108,50,241
252,http://www.group15_KD_tr_onto/MT,Maastricht railway station,MT,50.85,5.70528,0.2834008097165992,http://www.group15_KD_tr_onto/380,Maastricht,380,50.906,5.762,50,61,108,50,241
253,http://www.group15_KD_tr_onto/NH,Nuth railway station,NH,50.9197,5.8925,0.5526315789473685,http://www.group15_KD_tr_onto/380,Maastricht,380,50.906,5.762,50,61,108,50,241
254,http://www.group15_KD_tr_onto/RM,Roermond railway station,RM,51.1933,5.99472,0.611353711790393,http://www.group15_KD_tr_onto/380,Maastricht,380,50.906,5.762,50,61,108,50,241
255,http://www.group15_KD_tr_onto/RV,Reuver railway station,RV,51.2831,6.07944,0.9473684210526315,http://www.group15_KD_tr_onto/380,Maastricht,380,50.906,5.762,50,61,108,50,241
256,http://www.group15_KD_tr_onto/SBK,Spaubeek railway station,SBK,50.9431,5.84972,0.7105263157894737,http://www.group15_KD_tr_onto/380,Maastricht,380,50.906,5.762,50,61,108,50,241
257,http://www.group15_KD_tr_onto/SM,Swalmen railway station,SM,51.2358,6.0325,0.32894736842105265,http://www.group15_KD_tr_onto/380,Maastricht,380,50.906,5.762,50,61,108,50,241
258,http://www.group15_KD_tr_onto/SN,Schinnen railway station,SN,50.9386,5.87611,0.7894736842105263,http://www.group15_KD_tr_onto/380,Maastricht,380,50.906,5.762,50,61,108,50,241
259,http://www.group15_KD_tr_onto/SRN,Susteren railway station,SRN,51.0608,5.86278,0.20270270270270271,http://www.group15_KD_tr_onto/380,Maastricht,380,50.906,5.762,50,61,108,50,241
260,http://www.group15_KD_tr_onto/STD,Sittard railway station,STD,51.0011,5.85833,0.3381818181818182,http://www.group15_KD_tr_onto/380,Maastricht,380,50.906,5.762,50,61,108,50,241
261,http://www.group15_KD_tr_onto/VDL,Voerendaal railway station,VDL,50.8867,5.92944,0.3333333333333333,http://www.group15_KD_tr_onto/380,Maastricht,380,50.906,5.762,50,61,108,50,241
