,station,station_name,station_code,ts_lat,ts_long,delay,ws,ws_name,ws_code,ws_lat,ws_long,windspeed,mean_temp,percipitation,visibility,wind_direction
0,http://www.group15_KD_tr_onto/AMR,Alkmaar railway station,AMR,52.6378,4.74056,1.3934426229508197,http://www.group15_KD_tr_onto/235,De Kooy,235,52.928,4.781,130,95,14,56,205
1,http://www.group15_KD_tr_onto/ANA,Anna Paulowna railway station,ANA,52.8669,4.81111,1.2261904761904763,http://www.group15_KD_tr_onto/235,De Kooy,235,52.928,4.781,130,95,14,56,205
2,http://www.group15_KD_tr_onto/HDRZ,Den Helder Zuid railway station,HDRZ,52.9331,4.76389,1.0833333333333333,http://www.group15_KD_tr_onto/235,De Kooy,235,52.928,4.781,130,95,14,56,205
3,http://www.group15_KD_tr_onto/HDR,Den Helder railway station,HDR,52.9564,4.76083,1.7317073170731707,http://www.group15_KD_tr_onto/235,De Kooy,235,52.928,4.781,130,95,14,56,205
4,http://www.group15_KD_tr_onto/HWD,Heerhugowaard railway station,HWD,52.67,4.82361,0.9466666666666667,http://www.group15_KD_tr_onto/235,De Kooy,235,52.928,4.781,130,95,14,56,205
5,http://www.group15_KD_tr_onto/OBD,Obdam railway station,OBD,52.6781,4.90833,0.7121212121212122,http://www.group15_KD_tr_onto/235,De Kooy,235,52.928,4.781,130,95,14,56,205
6,http://www.group15_KD_tr_onto/SGN,Schagen railway station,SGN,52.7861,4.80528,1.3095238095238095,http://www.group15_KD_tr_onto/235,De Kooy,235,52.928,4.781,130,95,14,56,205
7,http://www.group15_KD_tr_onto/AC,Abcoude railway station,AC,52.2744,4.98222,0.5688073394495413,http://www.group15_KD_tr_onto/240,Schiphol,240,52.318,4.79,80,92,28,35,196
8,http://www.group15_KD_tr_onto/AMPO,Almere Poort railway station,AMPO,52.3428,5.15194,0.8256880733944955,http://www.group15_KD_tr_onto/240,Schiphol,240,52.318,4.79,80,92,28,35,196
9,http://www.group15_KD_tr_onto/ASA,Amsterdam Amstel station,ASA,52.3464,4.91778,0.9937304075235109,http://www.group15_KD_tr_onto/240,Schiphol,240,52.318,4.79,80,92,28,35,196
10,http://www.group15_KD_tr_onto/ASB,Amsterdam Bijlmer ArenA station,ASB,52.3131,4.94611,0.6789667896678967,http://www.group15_KD_tr_onto/240,Schiphol,240,52.318,4.79,80,92,28,35,196
11,http://www.group15_KD_tr_onto/ASDL,Amsterdam Lelylaan station,ASDL,52.3572,4.83389,1.054945054945055,http://www.group15_KD_tr_onto/240,Schiphol,240,52.318,4.79,80,92,28,35,196
12,http://www.group15_KD_tr_onto/ASDM,Amsterdam Muiderpoort railway station,ASDM,52.3608,4.93111,0.9391634980988594,http://www.group15_KD_tr_onto/240,Schiphol,240,52.318,4.79,80,92,28,35,196
13,http://www.group15_KD_tr_onto/ASDZ,Amsterdam Zuid station,ASDZ,52.3389,4.87306,0.9392624728850325,http://www.group15_KD_tr_onto/240,Schiphol,240,52.318,4.79,80,92,28,35,196
14,http://www.group15_KD_tr_onto/ASD,Amsterdam Centraal station,ASD,52.3783,4.9,1.869281045751634,http://www.group15_KD_tr_onto/240,Schiphol,240,52.318,4.79,80,92,28,35,196
15,http://www.group15_KD_tr_onto/ASSP,Amsterdam Science Park railway station,ASSP,52.3525,4.94861,1.155844155844156,http://www.group15_KD_tr_onto/240,Schiphol,240,52.318,4.79,80,92,28,35,196
16,http://www.group15_KD_tr_onto/ASS,Amsterdam Sloterdijk station,ASS,52.3892,4.83806,1.00531208499336,http://www.group15_KD_tr_onto/240,Schiphol,240,52.318,4.79,80,92,28,35,196
17,http://www.group15_KD_tr_onto/BLL,Bloemendaal railway station,BLL,52.4042,4.6275,1.4545454545454546,http://www.group15_KD_tr_onto/240,Schiphol,240,52.318,4.79,80,92,28,35,196
18,http://www.group15_KD_tr_onto/BV,Beverwijk railway station,BV,52.4783,4.65611,1.077922077922078,http://www.group15_KD_tr_onto/240,Schiphol,240,52.318,4.79,80,92,28,35,196
19,http://www.group15_KD_tr_onto/CAS,Castricum railway station,CAS,52.5456,4.65889,1.2279069767441861,http://www.group15_KD_tr_onto/240,Schiphol,240,52.318,4.79,80,92,28,35,196
20,http://www.group15_KD_tr_onto/DMNZ,Diemen Zuid station,DMNZ,52.3303,4.95639,0.9015151515151515,http://www.group15_KD_tr_onto/240,Schiphol,240,52.318,4.79,80,92,28,35,196
21,http://www.group15_KD_tr_onto/DMN,Diemen railway station,DMN,52.3453,4.96694,1.1168831168831168,http://www.group15_KD_tr_onto/240,Schiphol,240,52.318,4.79,80,92,28,35,196
22,http://www.group15_KD_tr_onto/HAD,Heemstede-Aerdenhout railway station,HAD,52.3597,4.60694,0.774869109947644,http://www.group15_KD_tr_onto/240,Schiphol,240,52.318,4.79,80,92,28,35,196
23,http://www.group15_KD_tr_onto/HFD,Hoofddorp railway station,HFD,52.2933,4.7,0.960352422907489,http://www.group15_KD_tr_onto/240,Schiphol,240,52.318,4.79,80,92,28,35,196
24,http://www.group15_KD_tr_onto/HIL,Hillegom railway station,HIL,52.3028,4.56583,0.6329113924050633,http://www.group15_KD_tr_onto/240,Schiphol,240,52.318,4.79,80,92,28,35,196
25,http://www.group15_KD_tr_onto/HK,Heemskerk railway station,HK,52.4947,4.68611,1.0389610389610389,http://www.group15_KD_tr_onto/240,Schiphol,240,52.318,4.79,80,92,28,35,196
26,http://www.group15_KD_tr_onto/HLMS,Haarlem Spaarnwoude railway station,HLMS,52.3828,4.67111,0.917910447761194,http://www.group15_KD_tr_onto/240,Schiphol,240,52.318,4.79,80,92,28,35,196
27,http://www.group15_KD_tr_onto/HLM,Haarlem railway station,HLM,52.3878,4.63889,0.831081081081081,http://www.group15_KD_tr_onto/240,Schiphol,240,52.318,4.79,80,92,28,35,196
28,http://www.group15_KD_tr_onto/HLO,Heiloo railway station,HLO,52.6,4.70083,1.2389937106918238,http://www.group15_KD_tr_onto/240,Schiphol,240,52.318,4.79,80,92,28,35,196
29,http://www.group15_KD_tr_onto/HWZB,Halfweg-Zwanenburg railway station,HWZB,52.3847,4.75167,0.746268656716418,http://www.group15_KD_tr_onto/240,Schiphol,240,52.318,4.79,80,92,28,35,196
30,http://www.group15_KD_tr_onto/NVP,Nieuw-Vennep railway station,NVP,52.2597,4.64556,0.7407407407407407,http://www.group15_KD_tr_onto/240,Schiphol,240,52.318,4.79,80,92,28,35,196
31,http://www.group15_KD_tr_onto/OVN,Overveen railway station,OVN,52.3908,4.60778,0.34210526315789475,http://www.group15_KD_tr_onto/240,Schiphol,240,52.318,4.79,80,92,28,35,196
32,http://www.group15_KD_tr_onto/PMR,Purmerend railway station,PMR,52.5033,4.95417,0.6027397260273972,http://www.group15_KD_tr_onto/240,Schiphol,240,52.318,4.79,80,92,28,35,196
33,http://www.group15_KD_tr_onto/PMW,Purmerend Weidevenne railway station,PMW,52.4967,4.93667,0.547945205479452,http://www.group15_KD_tr_onto/240,Schiphol,240,52.318,4.79,80,92,28,35,196
34,http://www.group15_KD_tr_onto/RAI,Amsterdam RAI station,RAI,52.3367,4.89056,0.9166666666666666,http://www.group15_KD_tr_onto/240,Schiphol,240,52.318,4.79,80,92,28,35,196
35,http://www.group15_KD_tr_onto/SHL,Schiphol Airport railway station,SHL,52.3089,4.76167,1.6797297297297298,http://www.group15_KD_tr_onto/240,Schiphol,240,52.318,4.79,80,92,28,35,196
36,http://www.group15_KD_tr_onto/SPTN,Santpoort Noord railway station,SPTN,52.4428,4.63917,1.051948051948052,http://www.group15_KD_tr_onto/240,Schiphol,240,52.318,4.79,80,92,28,35,196
37,http://www.group15_KD_tr_onto/SPTZ,Santpoort Zuid railway station,SPTZ,52.4194,4.63167,1.0,http://www.group15_KD_tr_onto/240,Schiphol,240,52.318,4.79,80,92,28,35,196
38,http://www.group15_KD_tr_onto/UTG,Uitgeest railway station,UTG,52.5219,4.70278,1.2406015037593985,http://www.group15_KD_tr_onto/240,Schiphol,240,52.318,4.79,80,92,28,35,196
39,http://www.group15_KD_tr_onto/WM,Wormerveer railway station,WM,52.4892,4.79278,1.2844036697247707,http://www.group15_KD_tr_onto/240,Schiphol,240,52.318,4.79,80,92,28,35,196
40,http://www.group15_KD_tr_onto/WP,Weesp railway station,WP,52.3131,5.04361,1.0874125874125875,http://www.group15_KD_tr_onto/240,Schiphol,240,52.318,4.79,80,92,28,35,196
41,http://www.group15_KD_tr_onto/ZD,Zaandam railway station,ZD,52.4389,4.81472,1.0222222222222221,http://www.group15_KD_tr_onto/240,Schiphol,240,52.318,4.79,80,92,28,35,196
42,http://www.group15_KD_tr_onto/ZVT,Zandvoort aan Zee railway station,ZVT,52.3758,4.53139,0.6842105263157895,http://www.group15_KD_tr_onto/240,Schiphol,240,52.318,4.79,80,92,28,35,196
43,http://www.group15_KD_tr_onto/AKL,Arkel railway station,AKL,51.8719,4.99278,1.8,http://www.group15_KD_tr_onto/260,De Bilt,260,52.1,5.18,60,100,75,27,197
44,http://www.group15_KD_tr_onto/BHV,Bilthoven railway station,BHV,52.13,5.20528,0.9148936170212766,http://www.group15_KD_tr_onto/260,De Bilt,260,52.1,5.18,60,100,75,27,197
45,http://www.group15_KD_tr_onto/BKL,Breukelen railway station,BKL,52.17,4.99056,0.5958904109589042,http://www.group15_KD_tr_onto/260,De Bilt,260,52.1,5.18,60,100,75,27,197
46,http://www.group15_KD_tr_onto/BNK,Bunnik railway station,BNK,52.0631,5.19556,0.21052631578947367,http://www.group15_KD_tr_onto/260,De Bilt,260,52.1,5.18,60,100,75,27,197
47,http://www.group15_KD_tr_onto/BSD,Beesd railway station,BSD,51.8992,5.195,1.1428571428571428,http://www.group15_KD_tr_onto/260,De Bilt,260,52.1,5.18,60,100,75,27,197
48,http://www.group15_KD_tr_onto/CL,Culemborg railway station,CL,51.9472,5.22722,0.7417218543046358,http://www.group15_KD_tr_onto/260,De Bilt,260,52.1,5.18,60,100,75,27,197
49,http://www.group15_KD_tr_onto/DB,Driebergen-Zeist railway station,DB,52.065,5.26,0.593939393939394,http://www.group15_KD_tr_onto/260,De Bilt,260,52.1,5.18,60,100,75,27,197
50,http://www.group15_KD_tr_onto/GDM,Geldermalsen railway station,GDM,51.8839,5.27083,0.978494623655914,http://www.group15_KD_tr_onto/260,De Bilt,260,52.1,5.18,60,100,75,27,197
51,http://www.group15_KD_tr_onto/HTN,Houten railway station,HTN,52.0344,5.16778,0.3509933774834437,http://www.group15_KD_tr_onto/260,De Bilt,260,52.1,5.18,60,100,75,27,197
52,http://www.group15_KD_tr_onto/LDM,Leerdam railway station,LDM,51.8947,5.09333,1.1714285714285715,http://www.group15_KD_tr_onto/260,De Bilt,260,52.1,5.18,60,100,75,27,197
53,http://www.group15_KD_tr_onto/MAS,Maarssen railway station,MAS,52.1358,5.03306,0.3055555555555556,http://www.group15_KD_tr_onto/260,De Bilt,260,52.1,5.18,60,100,75,27,197
54,http://www.group15_KD_tr_onto/UTLR,Utrecht Leidsche Rijn railway station,UTLR,52.0983,5.06917,0.4621212121212121,http://www.group15_KD_tr_onto/260,De Bilt,260,52.1,5.18,60,100,75,27,197
55,http://www.group15_KD_tr_onto/UTO,Utrecht Overvecht railway station,UTO,52.11,5.12528,0.8168498168498168,http://www.group15_KD_tr_onto/260,De Bilt,260,52.1,5.18,60,100,75,27,197
56,http://www.group15_KD_tr_onto/UTT,Utrecht Terwijde railway station,UTT,52.1008,5.04306,0.38636363636363635,http://www.group15_KD_tr_onto/260,De Bilt,260,52.1,5.18,60,100,75,27,197
57,http://www.group15_KD_tr_onto/UTVR,Utrecht Vaartsche Rijn railway station,UTVR,52.0786,5.1225,0.27235772357723576,http://www.group15_KD_tr_onto/260,De Bilt,260,52.1,5.18,60,100,75,27,197
58,http://www.group15_KD_tr_onto/UTZL,Utrecht Zuilen railway station,UTZL,52.1031,5.08917,0.17592592592592593,http://www.group15_KD_tr_onto/260,De Bilt,260,52.1,5.18,60,100,75,27,197
59,http://www.group15_KD_tr_onto/UT,Utrecht Centraal railway station,UT,52.0892,5.10972,0.9632277834525026,http://www.group15_KD_tr_onto/260,De Bilt,260,52.1,5.18,60,100,75,27,197
60,http://www.group15_KD_tr_onto/VTN,Vleuten railway station,VTN,52.1031,5.01194,0.45454545454545453,http://www.group15_KD_tr_onto/260,De Bilt,260,52.1,5.18,60,100,75,27,197
61,http://www.group15_KD_tr_onto/WD,Woerden railway station,WD,52.0847,4.89306,0.5075757575757576,http://www.group15_KD_tr_onto/260,De Bilt,260,52.1,5.18,60,100,75,27,197
62,http://www.group15_KD_tr_onto/ZBM,Zaltbommel railway station,ZBM,51.8069,5.26472,0.19736842105263158,http://www.group15_KD_tr_onto/260,De Bilt,260,52.1,5.18,60,100,75,27,197
63,http://www.group15_KD_tr_onto/BKF,Bovenkarspel Flora railway station,BKF,52.6958,5.25306,0.14634146341463414,http://www.group15_KD_tr_onto/267,Stavoren,267,52.898,5.384,90,65,4,1,192
64,http://www.group15_KD_tr_onto/BKG,Bovenkarspel-Grootebroek railway station,BKG,52.695,5.23611,0.4146341463414634,http://www.group15_KD_tr_onto/267,Stavoren,267,52.898,5.384,90,65,4,1,192
65,http://www.group15_KD_tr_onto/EKZ,Enkhuizen railway station,EKZ,52.6994,5.28778,0.3333333333333333,http://www.group15_KD_tr_onto/267,Stavoren,267,52.898,5.384,90,65,4,1,192
66,http://www.group15_KD_tr_onto/HKS,Hoogkarspel railway station,HKS,52.6906,5.18389,0.4024390243902439,http://www.group15_KD_tr_onto/267,Stavoren,267,52.898,5.384,90,65,4,1,192
67,http://www.group15_KD_tr_onto/HNP,Hindeloopen railway station,HNP,52.9461,5.42306,1.2765957446808511,http://www.group15_KD_tr_onto/267,Stavoren,267,52.898,5.384,90,65,4,1,192
68,http://www.group15_KD_tr_onto/HN,Hoorn railway station,HN,52.645,5.05472,0.7527472527472527,http://www.group15_KD_tr_onto/267,Stavoren,267,52.898,5.384,90,65,4,1,192
69,http://www.group15_KD_tr_onto/IJT,IJlst railway station,IJT,53.0147,5.61639,1.2765957446808511,http://www.group15_KD_tr_onto/267,Stavoren,267,52.898,5.384,90,65,4,1,192
70,http://www.group15_KD_tr_onto/KMW,Koudum-Molkwerum railway station,KMW,52.9022,5.41056,1.5106382978723405,http://www.group15_KD_tr_onto/267,Stavoren,267,52.898,5.384,90,65,4,1,192
71,http://www.group15_KD_tr_onto/STV,Stavoren railway station,STV,52.8867,5.35972,1.565217391304348,http://www.group15_KD_tr_onto/267,Stavoren,267,52.898,5.384,90,65,4,1,192
72,http://www.group15_KD_tr_onto/WK,Workum railway station,WK,52.9714,5.45583,1.2340425531914894,http://www.group15_KD_tr_onto/267,Stavoren,267,52.898,5.384,90,65,4,1,192
73,http://www.group15_KD_tr_onto/WV,Wolvega railway station,WV,52.8797,6.00472,0.4925373134328358,http://www.group15_KD_tr_onto/267,Stavoren,267,52.898,5.384,90,65,4,1,192
74,http://www.group15_KD_tr_onto/ALMB,Almere Buiten railway station,ALMB,52.3942,5.27778,0.7062146892655368,http://www.group15_KD_tr_onto/269,Lelystad,269,52.458,5.52,90,99,38,9,205
75,http://www.group15_KD_tr_onto/ALMM,Almere Muziekwijk railway station,ALMM,52.3675,5.19028,0.8027522935779816,http://www.group15_KD_tr_onto/269,Lelystad,269,52.458,5.52,90,99,38,9,205
76,http://www.group15_KD_tr_onto/ALMO,Almere Oostvaarders railway station,ALMO,52.4028,5.3,0.7924528301886793,http://www.group15_KD_tr_onto/269,Lelystad,269,52.458,5.52,90,99,38,9,205
77,http://www.group15_KD_tr_onto/ALMP,Almere Parkwijk railway station,ALMP,52.3767,5.24444,0.7426470588235294,http://www.group15_KD_tr_onto/269,Lelystad,269,52.458,5.52,90,99,38,9,205
78,http://www.group15_KD_tr_onto/ALM,Almere Centrum railway station,ALM,52.375,5.21778,0.9459459459459459,http://www.group15_KD_tr_onto/269,Lelystad,269,52.458,5.52,90,99,38,9,205
79,http://www.group15_KD_tr_onto/DL,Dalfsen railway station,DL,52.4981,6.25861,1.3229166666666667,http://www.group15_KD_tr_onto/269,Lelystad,269,52.458,5.52,90,99,38,9,205
80,http://www.group15_KD_tr_onto/DRON,Dronten railway station,DRON,52.5339,5.72306,0.32,http://www.group15_KD_tr_onto/269,Lelystad,269,52.458,5.52,90,99,38,9,205
81,http://www.group15_KD_tr_onto/EML,Ermelo railway station,EML,52.3011,5.61444,1.2328767123287672,http://www.group15_KD_tr_onto/269,Lelystad,269,52.458,5.52,90,99,38,9,205
82,http://www.group15_KD_tr_onto/HDE,'t Harde railway station,HDE,52.4089,5.89306,0.821917808219178,http://www.group15_KD_tr_onto/269,Lelystad,269,52.458,5.52,90,99,38,9,205
83,http://www.group15_KD_tr_onto/HD,Harderwijk railway station,HD,52.3375,5.61972,1.1486486486486487,http://www.group15_KD_tr_onto/269,Lelystad,269,52.458,5.52,90,99,38,9,205
84,http://www.group15_KD_tr_onto/KPNZ,Kampen Zuid railway station,KPNZ,52.5342,5.91583,0.36,http://www.group15_KD_tr_onto/269,Lelystad,269,52.458,5.52,90,99,38,9,205
85,http://www.group15_KD_tr_onto/KPN,Kampen railway station,KPN,52.5597,5.92111,0.39473684210526316,http://www.group15_KD_tr_onto/269,Lelystad,269,52.458,5.52,90,99,38,9,205
86,http://www.group15_KD_tr_onto/LLS,Lelystad Centrum railway station,LLS,52.5078,5.47333,0.7298850574712644,http://www.group15_KD_tr_onto/269,Lelystad,269,52.458,5.52,90,99,38,9,205
87,http://www.group15_KD_tr_onto/MP,Meppel railway station,MP,52.6914,6.1975,1.0717703349282297,http://www.group15_KD_tr_onto/269,Lelystad,269,52.458,5.52,90,99,38,9,205
88,http://www.group15_KD_tr_onto/NS,Nunspeet railway station,NS,52.3708,5.78472,1.1917808219178083,http://www.group15_KD_tr_onto/269,Lelystad,269,52.458,5.52,90,99,38,9,205
89,http://www.group15_KD_tr_onto/OMN,Ommen railway station,OMN,52.5094,6.41694,2.0104166666666665,http://www.group15_KD_tr_onto/269,Lelystad,269,52.458,5.52,90,99,38,9,205
90,http://www.group15_KD_tr_onto/PT,Putten railway station,PT,52.2653,5.57611,1.0684931506849316,http://www.group15_KD_tr_onto/269,Lelystad,269,52.458,5.52,90,99,38,9,205
91,http://www.group15_KD_tr_onto/WZ,Wezep railway station,WZ,52.4536,6.00222,0.9041095890410958,http://www.group15_KD_tr_onto/269,Lelystad,269,52.458,5.52,90,99,38,9,205
92,http://www.group15_KD_tr_onto/ZLSH,Zwolle Stadshagen railway station,ZLSH,52.5279,6.05108,0.35526315789473684,http://www.group15_KD_tr_onto/269,Lelystad,269,52.458,5.52,90,99,38,9,205
93,http://www.group15_KD_tr_onto/ZL,Zwolle railway station,ZL,52.5053,6.09056,1.3562231759656653,http://www.group15_KD_tr_onto/269,Lelystad,269,52.458,5.52,90,99,38,9,205
94,http://www.group15_KD_tr_onto/AKM,Akkrum railway station,AKM,53.0472,5.84306,0.4925373134328358,http://www.group15_KD_tr_onto/270,Leeuwarden,270,53.224,5.752,90,84,3,1,201
95,http://www.group15_KD_tr_onto/DEI,Deinum railway station,DEI,53.1886,5.72778,0.7297297297297297,http://www.group15_KD_tr_onto/270,Leeuwarden,270,53.224,5.752,90,84,3,1,201
96,http://www.group15_KD_tr_onto/DRP,Dronryp railway station,DRP,53.1775,5.63472,1.4594594594594594,http://www.group15_KD_tr_onto/270,Leeuwarden,270,53.224,5.752,90,84,3,1,201
97,http://www.group15_KD_tr_onto/FN,Franeker railway station,FN,53.1822,5.54944,0.803030303030303,http://www.group15_KD_tr_onto/270,Leeuwarden,270,53.224,5.752,90,84,3,1,201
98,http://www.group15_KD_tr_onto/GW,Grou-Jirnsum railway station,GW,53.0897,5.82222,0.5223880597014925,http://www.group15_KD_tr_onto/270,Leeuwarden,270,53.224,5.752,90,84,3,1,201
99,http://www.group15_KD_tr_onto/HDG,Hurdegaryp railway station,HDG,53.2186,5.93472,1.0588235294117647,http://www.group15_KD_tr_onto/270,Leeuwarden,270,53.224,5.752,90,84,3,1,201
100,http://www.group15_KD_tr_onto/HLG,Harlingen railway station,HLG,53.1703,5.42528,0.8333333333333334,http://www.group15_KD_tr_onto/270,Leeuwarden,270,53.224,5.752,90,84,3,1,201
101,http://www.group15_KD_tr_onto/HR,Heerenveen railway station,HR,52.9606,5.91528,0.5620437956204379,http://www.group15_KD_tr_onto/270,Leeuwarden,270,53.224,5.752,90,84,3,1,201
102,http://www.group15_KD_tr_onto/LW,Leeuwarden railway station,LW,53.1958,5.79111,0.8217821782178217,http://www.group15_KD_tr_onto/270,Leeuwarden,270,53.224,5.752,90,84,3,1,201
103,http://www.group15_KD_tr_onto/MG,Mantgum railway station,MG,53.1297,5.71333,0.6811594202898551,http://www.group15_KD_tr_onto/270,Leeuwarden,270,53.224,5.752,90,84,3,1,201
104,http://www.group15_KD_tr_onto/SK,Sneek railway station,SK,53.0322,5.65167,1.1206896551724137,http://www.group15_KD_tr_onto/270,Leeuwarden,270,53.224,5.752,90,84,3,1,201
105,http://www.group15_KD_tr_onto/AHPR,Arnhem Presikhaaf railway station,AHPR,51.9875,5.94306,0.3888888888888889,http://www.group15_KD_tr_onto/275,Deelen,275,52.056,5.873,70,99,157,15,196
106,http://www.group15_KD_tr_onto/AHZ,Arnhem Zuid railway station,AHZ,51.9542,5.85167,1.2571428571428571,http://www.group15_KD_tr_onto/275,Deelen,275,52.056,5.873,70,99,157,15,196
107,http://www.group15_KD_tr_onto/AML,Almelo railway station,AML,52.3572,6.655,2.022727272727273,http://www.group15_KD_tr_onto/275,Deelen,275,52.056,5.873,70,99,157,15,196
108,http://www.group15_KD_tr_onto/APD,Apeldoorn railway station,APD,52.2092,5.96944,1.3879781420765027,http://www.group15_KD_tr_onto/275,Deelen,275,52.056,5.873,70,99,157,15,196
109,http://www.group15_KD_tr_onto/ATN,Aalten railway station,ATN,51.9211,6.57806,0.08108108108108109,http://www.group15_KD_tr_onto/275,Deelen,275,52.056,5.873,70,99,157,15,196
110,http://www.group15_KD_tr_onto/BMN,Brummen railway station,BMN,52.0908,6.14694,0.1111111111111111,http://www.group15_KD_tr_onto/275,Deelen,275,52.056,5.873,70,99,157,15,196
111,http://www.group15_KD_tr_onto/BN,Borne railway station,BN,52.2983,6.74833,1.5161290322580645,http://www.group15_KD_tr_onto/275,Deelen,275,52.056,5.873,70,99,157,15,196
112,http://www.group15_KD_tr_onto/CK,Cuijk railway station,CK,51.7264,5.87417,1.2307692307692308,http://www.group15_KD_tr_onto/275,Deelen,275,52.056,5.873,70,99,157,15,196
113,http://www.group15_KD_tr_onto/DA,Daarlerveen railway station,DA,52.4411,6.57583,1.0535714285714286,http://www.group15_KD_tr_onto/275,Deelen,275,52.056,5.873,70,99,157,15,196
114,http://www.group15_KD_tr_onto/DDN,Delden railway station,DDN,52.26,6.71444,2.5945945945945947,http://www.group15_KD_tr_onto/275,Deelen,275,52.056,5.873,70,99,157,15,196
115,http://www.group15_KD_tr_onto/DID,Didam railway station,DID,51.9333,6.13222,0.21705426356589147,http://www.group15_KD_tr_onto/275,Deelen,275,52.056,5.873,70,99,157,15,196
116,http://www.group15_KD_tr_onto/DR,Dieren railway station,DR,52.045,6.10333,0.4090909090909091,http://www.group15_KD_tr_onto/275,Deelen,275,52.056,5.873,70,99,157,15,196
117,http://www.group15_KD_tr_onto/DTC,Doetinchem railway station,DTC,51.9583,6.29528,0.31,http://www.group15_KD_tr_onto/275,Deelen,275,52.056,5.873,70,99,157,15,196
118,http://www.group15_KD_tr_onto/DVN,Duiven railway station,DVN,51.9433,6.01417,0.29457364341085274,http://www.group15_KD_tr_onto/275,Deelen,275,52.056,5.873,70,99,157,15,196
119,http://www.group15_KD_tr_onto/DV,Deventer railway station,DV,52.2572,6.16083,1.4085603112840468,http://www.group15_KD_tr_onto/275,Deelen,275,52.056,5.873,70,99,157,15,196
120,http://www.group15_KD_tr_onto/ED,Ede-Wageningen railway station,ED,52.0278,5.67194,0.7047619047619048,http://www.group15_KD_tr_onto/275,Deelen,275,52.056,5.873,70,99,157,15,196
121,http://www.group15_KD_tr_onto/EST,Elst railway station,EST,51.9167,5.855,1.138728323699422,http://www.group15_KD_tr_onto/275,Deelen,275,52.056,5.873,70,99,157,15,196
122,http://www.group15_KD_tr_onto/ES,Enschede railway station,ES,52.2222,6.89,1.7651515151515151,http://www.group15_KD_tr_onto/275,Deelen,275,52.056,5.873,70,99,157,15,196
123,http://www.group15_KD_tr_onto/GBR,Glanerbrug railway station,GBR,52.2186,6.97389,0.0,http://www.group15_KD_tr_onto/275,Deelen,275,52.056,5.873,70,99,157,15,196
124,http://www.group15_KD_tr_onto/GDR,Gaanderen railway station,GDR,51.9308,6.34778,0.13513513513513514,http://www.group15_KD_tr_onto/275,Deelen,275,52.056,5.873,70,99,157,15,196
125,http://www.group15_KD_tr_onto/GO,Goor railway station,GO,52.2303,6.58444,1.9589041095890412,http://www.group15_KD_tr_onto/275,Deelen,275,52.056,5.873,70,99,157,15,196
126,http://www.group15_KD_tr_onto/HGL,Hengelo railway station,HGL,52.2619,6.79417,2.357615894039735,http://www.group15_KD_tr_onto/275,Deelen,275,52.056,5.873,70,99,157,15,196
127,http://www.group15_KD_tr_onto/HMN,Hemmen-Dodewaard railway station,HMN,51.9222,5.67333,0.7121212121212122,http://www.group15_KD_tr_onto/275,Deelen,275,52.056,5.873,70,99,157,15,196
128,http://www.group15_KD_tr_onto/HNO,Heino railway station,HNO,52.4269,6.22194,2.311688311688312,http://www.group15_KD_tr_onto/275,Deelen,275,52.056,5.873,70,99,157,15,196
129,http://www.group15_KD_tr_onto/HON,Holten railway station,HON,52.2839,6.42056,1.0547945205479452,http://www.group15_KD_tr_onto/275,Deelen,275,52.056,5.873,70,99,157,15,196
130,http://www.group15_KD_tr_onto/KBK,Klarenbeek railway station,KBK,52.1778,6.08417,0.03125,http://www.group15_KD_tr_onto/275,Deelen,275,52.056,5.873,70,99,157,15,196
131,http://www.group15_KD_tr_onto/KLP,Veenendaal-De Klomp railway station,KLP,52.0458,5.57389,0.6075949367088608,http://www.group15_KD_tr_onto/275,Deelen,275,52.056,5.873,70,99,157,15,196
132,http://www.group15_KD_tr_onto/KTR,Kesteren railway station,KTR,51.9314,5.58361,0.6212121212121212,http://www.group15_KD_tr_onto/275,Deelen,275,52.056,5.873,70,99,157,15,196
133,http://www.group15_KD_tr_onto/LC,Lochem railway station,LC,52.1667,6.42583,1.9305555555555556,http://www.group15_KD_tr_onto/275,Deelen,275,52.056,5.873,70,99,157,15,196
134,http://www.group15_KD_tr_onto/LTV,Lichtenvoorde-Groenlo railway station,LTV,52.0117,6.59639,0.14084507042253522,http://www.group15_KD_tr_onto/275,Deelen,275,52.056,5.873,70,99,157,15,196
135,http://www.group15_KD_tr_onto/MMLH,Mook-Molenhoek railway station,MMLH,51.7647,5.8775,1.4230769230769231,http://www.group15_KD_tr_onto/275,Deelen,275,52.056,5.873,70,99,157,15,196
136,http://www.group15_KD_tr_onto/NM,Nijmegen railway station,NM,51.8433,5.8525,1.13125,http://www.group15_KD_tr_onto/275,Deelen,275,52.056,5.873,70,99,157,15,196
137,http://www.group15_KD_tr_onto/NVD,Nijverdal railway station,NVD,52.3656,6.47028,3.2745098039215685,http://www.group15_KD_tr_onto/275,Deelen,275,52.056,5.873,70,99,157,15,196
138,http://www.group15_KD_tr_onto/ODZ,Oldenzaal railway station,ODZ,52.3061,6.93361,1.36,http://www.group15_KD_tr_onto/275,Deelen,275,52.056,5.873,70,99,157,15,196
139,http://www.group15_KD_tr_onto/OP,Opheusden railway station,OP,51.9261,5.63694,0.696969696969697,http://www.group15_KD_tr_onto/275,Deelen,275,52.056,5.873,70,99,157,15,196
140,http://www.group15_KD_tr_onto/OST,Olst railway station,OST,52.335,6.11306,0.9880952380952381,http://www.group15_KD_tr_onto/275,Deelen,275,52.056,5.873,70,99,157,15,196
141,http://www.group15_KD_tr_onto/OTB,Oosterbeek railway station,OTB,51.9947,5.84,0.7727272727272727,http://www.group15_KD_tr_onto/275,Deelen,275,52.056,5.873,70,99,157,15,196
142,http://www.group15_KD_tr_onto/RAT,Raalte railway station,RAT,52.3908,6.27861,2.5294117647058822,http://www.group15_KD_tr_onto/275,Deelen,275,52.056,5.873,70,99,157,15,196
143,http://www.group15_KD_tr_onto/RHN,Rhenen railway station,RHN,51.9578,5.57833,0.5945945945945946,http://www.group15_KD_tr_onto/275,Deelen,275,52.056,5.873,70,99,157,15,196
144,http://www.group15_KD_tr_onto/RH,Rheden railway station,RH,52.0097,6.02972,0.19444444444444445,http://www.group15_KD_tr_onto/275,Deelen,275,52.056,5.873,70,99,157,15,196
145,http://www.group15_KD_tr_onto/RL,Ruurlo railway station,RL,52.0806,6.45,0.1267605633802817,http://www.group15_KD_tr_onto/275,Deelen,275,52.056,5.873,70,99,157,15,196
146,http://www.group15_KD_tr_onto/RSN,Rijssen railway station,RSN,52.3117,6.51917,0.7808219178082192,http://www.group15_KD_tr_onto/275,Deelen,275,52.056,5.873,70,99,157,15,196
147,http://www.group15_KD_tr_onto/RVS,Ravenstein railway station,RVS,51.7947,5.63722,1.5147058823529411,http://www.group15_KD_tr_onto/275,Deelen,275,52.056,5.873,70,99,157,15,196
148,http://www.group15_KD_tr_onto/TWL,Twello railway station,TWL,52.2381,6.1,1.088235294117647,http://www.group15_KD_tr_onto/275,Deelen,275,52.056,5.873,70,99,157,15,196
149,http://www.group15_KD_tr_onto/VEM,Voorst-Empe railway station,VEM,52.1578,6.14278,0.234375,http://www.group15_KD_tr_onto/275,Deelen,275,52.056,5.873,70,99,157,15,196
150,http://www.group15_KD_tr_onto/VHP,Vroomshoop railway station,VHP,52.4411,6.57583,0.625,http://www.group15_KD_tr_onto/275,Deelen,275,52.056,5.873,70,99,157,15,196
151,http://www.group15_KD_tr_onto/VP,Arnhem Velperpoort railway station,VP,51.985,5.92,0.18055555555555555,http://www.group15_KD_tr_onto/275,Deelen,275,52.056,5.873,70,99,157,15,196
152,http://www.group15_KD_tr_onto/VSV,Varsseveld railway station,VSV,51.9369,6.45806,0.02702702702702703,http://www.group15_KD_tr_onto/275,Deelen,275,52.056,5.873,70,99,157,15,196
153,http://www.group15_KD_tr_onto/VZ,Vriezenveen railway station,VZ,52.4019,6.60028,1.0178571428571428,http://www.group15_KD_tr_onto/275,Deelen,275,52.056,5.873,70,99,157,15,196
154,http://www.group15_KD_tr_onto/WC,Wijchen railway station,WC,51.8111,5.72944,1.2551020408163265,http://www.group15_KD_tr_onto/275,Deelen,275,52.056,5.873,70,99,157,15,196
155,http://www.group15_KD_tr_onto/WDN,Wierden railway station,WDN,52.3614,6.59111,1.261744966442953,http://www.group15_KD_tr_onto/275,Deelen,275,52.056,5.873,70,99,157,15,196
156,http://www.group15_KD_tr_onto/WF,Wolfheze railway station,WF,52.0053,5.79361,0.696969696969697,http://www.group15_KD_tr_onto/275,Deelen,275,52.056,5.873,70,99,157,15,196
157,http://www.group15_KD_tr_onto/WH,Wijhe railway station,WH,52.3936,6.14083,1.4642857142857142,http://www.group15_KD_tr_onto/275,Deelen,275,52.056,5.873,70,99,157,15,196
158,http://www.group15_KD_tr_onto/WL,Wehl railway station,WL,51.9567,6.2125,0.31007751937984496,http://www.group15_KD_tr_onto/275,Deelen,275,52.056,5.873,70,99,157,15,196
159,http://www.group15_KD_tr_onto/WWW,Winterswijk West railway station,WWW,51.9744,6.70361,0.014084507042253521,http://www.group15_KD_tr_onto/275,Deelen,275,52.056,5.873,70,99,157,15,196
160,http://www.group15_KD_tr_onto/WW,Winterswijk railway station,WW,51.9675,6.71556,0.0958904109589041,http://www.group15_KD_tr_onto/275,Deelen,275,52.056,5.873,70,99,157,15,196
161,http://www.group15_KD_tr_onto/ZA,Zetten-Andelst railway station,ZA,51.9194,5.72306,0.9393939393939394,http://www.group15_KD_tr_onto/275,Deelen,275,52.056,5.873,70,99,157,15,196
162,http://www.group15_KD_tr_onto/ZP,Zutphen railway station,ZP,52.1444,6.19389,0.7333333333333333,http://www.group15_KD_tr_onto/275,Deelen,275,52.056,5.873,70,99,157,15,196
163,http://www.group15_KD_tr_onto/ZV,Zevenaar railway station,ZV,51.9231,6.07278,1.9515151515151514,http://www.group15_KD_tr_onto/275,Deelen,275,52.056,5.873,70,99,157,15,196
164,http://www.group15_KD_tr_onto/ASN,Assen railway station,ASN,52.9917,6.57056,1.0068027210884354,http://www.group15_KD_tr_onto/280,Eelde,280,53.125,6.585,80,97,13,14,204
165,http://www.group15_KD_tr_onto/BF,Baflo railway station,BF,53.3608,6.51833,0.9864864864864865,http://www.group15_KD_tr_onto/280,Eelde,280,53.125,6.585,80,97,13,14,204
166,http://www.group15_KD_tr_onto/BL,Beilen railway station,BL,52.8547,6.52083,1.364864864864865,http://www.group15_KD_tr_onto/280,Eelde,280,53.125,6.585,80,97,13,14,204
167,http://www.group15_KD_tr_onto/DLN,Dalen railway station,DLN,52.6944,6.75806,0.9375,http://www.group15_KD_tr_onto/280,Eelde,280,53.125,6.585,80,97,13,14,204
168,http://www.group15_KD_tr_onto/EMNZ,Emmen Zuid railway station,EMNZ,52.7489,6.87472,0.975609756097561,http://www.group15_KD_tr_onto/280,Eelde,280,53.125,6.585,80,97,13,14,204
169,http://www.group15_KD_tr_onto/EMN,Emmen railway station,EMN,52.7903,6.89917,1.4390243902439024,http://www.group15_KD_tr_onto/280,Eelde,280,53.125,6.585,80,97,13,14,204
170,http://www.group15_KD_tr_onto/GBG,Gramsbergen railway station,GBG,52.6094,6.67583,2.1041666666666665,http://www.group15_KD_tr_onto/280,Eelde,280,53.125,6.585,80,97,13,14,204
171,http://www.group15_KD_tr_onto/GK,Grijpskerk railway station,GK,53.2556,6.31056,0.47058823529411764,http://www.group15_KD_tr_onto/280,Eelde,280,53.125,6.585,80,97,13,14,204
172,http://www.group15_KD_tr_onto/GN,Groningen railway station,GN,53.2106,6.56472,0.9297124600638977,http://www.group15_KD_tr_onto/280,Eelde,280,53.125,6.585,80,97,13,14,204
173,http://www.group15_KD_tr_onto/HDB,Hardenberg railway station,HDB,52.5722,6.62778,1.6885245901639345,http://www.group15_KD_tr_onto/280,Eelde,280,53.125,6.585,80,97,13,14,204
174,http://www.group15_KD_tr_onto/HGV,Hoogeveen railway station,HGV,52.7333,6.4725,1.135135135135135,http://www.group15_KD_tr_onto/280,Eelde,280,53.125,6.585,80,97,13,14,204
175,http://www.group15_KD_tr_onto/HRN,Haren (NL) railway station,HRN,53.175,6.61778,1.263157894736842,http://www.group15_KD_tr_onto/280,Eelde,280,53.125,6.585,80,97,13,14,204
176,http://www.group15_KD_tr_onto/KW,Kropswolde railway station,KW,53.1617,6.72139,1.4428571428571428,http://www.group15_KD_tr_onto/280,Eelde,280,53.125,6.585,80,97,13,14,204
177,http://www.group15_KD_tr_onto/NA,Nieuw Amsterdam railway station,NA,52.7186,6.84861,1.4473684210526316,http://www.group15_KD_tr_onto/280,Eelde,280,53.125,6.585,80,97,13,14,204
178,http://www.group15_KD_tr_onto/NSCH,Bad Nieuweschans railway station,NSCH,53.1842,7.19944,1.7692307692307692,http://www.group15_KD_tr_onto/280,Eelde,280,53.125,6.585,80,97,13,14,204
179,http://www.group15_KD_tr_onto/SWK,Steenwijk railway station,SWK,52.7908,6.11611,1.0072992700729928,http://www.group15_KD_tr_onto/280,Eelde,280,53.125,6.585,80,97,13,14,204
180,http://www.group15_KD_tr_onto/VDM,Veendam railway station,VDM,53.1036,6.88472,0.8857142857142857,http://www.group15_KD_tr_onto/280,Eelde,280,53.125,6.585,80,97,13,14,204
181,http://www.group15_KD_tr_onto/VD,Coevorden railway station,VD,52.6631,6.73556,0.6056338028169014,http://www.group15_KD_tr_onto/280,Eelde,280,53.125,6.585,80,97,13,14,204
182,http://www.group15_KD_tr_onto/BGN,Bergen op Zoom railway station,BGN,51.4947,4.29611,0.7830188679245284,http://www.group15_KD_tr_onto/340,Woensdrecht,340,51.449,4.342,50,102,159,10,204
183,http://www.group15_KD_tr_onto/KBD,Krabbendijke railway station,KBD,51.4333,4.11694,0.9333333333333333,http://www.group15_KD_tr_onto/340,Woensdrecht,340,51.449,4.342,50,102,159,10,204
184,http://www.group15_KD_tr_onto/KRG,Kruiningen-Yerseke railway station,KRG,51.4653,4.03694,0.6666666666666666,http://www.group15_KD_tr_onto/340,Woensdrecht,340,51.449,4.342,50,102,159,10,204
185,http://www.group15_KD_tr_onto/ODB,Oudenbosch railway station,ODB,51.5881,4.53361,0.21739130434782608,http://www.group15_KD_tr_onto/340,Woensdrecht,340,51.449,4.342,50,102,159,10,204
186,http://www.group15_KD_tr_onto/RB,Rilland-Bath railway station,RB,51.4222,4.16111,1.04,http://www.group15_KD_tr_onto/340,Woensdrecht,340,51.449,4.342,50,102,159,10,204
187,http://www.group15_KD_tr_onto/RSD,Roosendaal railway station,RSD,51.5403,4.45889,1.4378378378378378,http://www.group15_KD_tr_onto/340,Woensdrecht,340,51.449,4.342,50,102,159,10,204
188,http://www.group15_KD_tr_onto/BSKS,Boskoop Snijdelwijk railway station,BSKS,52.0676,4.6462,0.5615384615384615,http://www.group15_KD_tr_onto/344,Rotterdam,344,51.962,4.447,80,97,31,17,197
189,http://www.group15_KD_tr_onto/CPS,Capelle Schollevaar railway station,CPS,51.9533,4.58417,0.5769230769230769,http://www.group15_KD_tr_onto/344,Rotterdam,344,51.962,4.447,80,97,31,17,197
190,http://www.group15_KD_tr_onto/DT,Rotterdam Delftsche Poort railway station,DT,51.9253,4.47361,1.3262032085561497,http://www.group15_KD_tr_onto/344,Rotterdam,344,51.962,4.447,80,97,31,17,197
191,http://www.group15_KD_tr_onto/EC,Dordrecht railway station,EC,51.8075,4.66778,0.6351351351351351,http://www.group15_KD_tr_onto/344,Rotterdam,344,51.962,4.447,80,97,31,17,197
192,http://www.group15_KD_tr_onto/GD,Gouda railway station,GD,52.0175,4.70556,0.6157205240174672,http://www.group15_KD_tr_onto/344,Rotterdam,344,51.962,4.447,80,97,31,17,197
193,http://www.group15_KD_tr_onto/GVMW,Den Haag Moerwijk railway station,GVMW,52.0533,4.30861,0.5179856115107914,http://www.group15_KD_tr_onto/344,Rotterdam,344,51.962,4.447,80,97,31,17,197
194,http://www.group15_KD_tr_onto/NWK,Nieuwerkerk aan den IJssel railway station,NWK,51.9653,4.61694,0.5512820512820513,http://www.group15_KD_tr_onto/344,Rotterdam,344,51.962,4.447,80,97,31,17,197
195,http://www.group15_KD_tr_onto/RLB,Rotterdam Lombardijen railway station,RLB,51.8797,4.53111,0.460431654676259,http://www.group15_KD_tr_onto/344,Rotterdam,344,51.962,4.447,80,97,31,17,197
196,http://www.group15_KD_tr_onto/RSW,Rijswijk railway station,RSW,52.0394,4.31972,0.49640287769784175,http://www.group15_KD_tr_onto/344,Rotterdam,344,51.962,4.447,80,97,31,17,197
197,http://www.group15_KD_tr_onto/RTA,Rotterdam Alexander station,RTA,51.9519,4.55278,0.8702702702702703,http://www.group15_KD_tr_onto/344,Rotterdam,344,51.962,4.447,80,97,31,17,197
198,http://www.group15_KD_tr_onto/RTB,Rotterdam Blaak station,RTB,51.92,4.48917,0.9027777777777778,http://www.group15_KD_tr_onto/344,Rotterdam,344,51.962,4.447,80,97,31,17,197
199,http://www.group15_KD_tr_onto/RTD,Rotterdam Centraal station,RTD,51.9244,4.46944,1.8949152542372882,http://www.group15_KD_tr_onto/344,Rotterdam,344,51.962,4.447,80,97,31,17,197
200,http://www.group15_KD_tr_onto/RTN,Rotterdam Noord railway station,RTN,51.9422,4.48139,1.0769230769230769,http://www.group15_KD_tr_onto/344,Rotterdam,344,51.962,4.447,80,97,31,17,197
201,http://www.group15_KD_tr_onto/RTZ,Rotterdam Zuid railway station,RTZ,51.9094,4.50944,0.4316546762589928,http://www.group15_KD_tr_onto/344,Rotterdam,344,51.962,4.447,80,97,31,17,197
202,http://www.group15_KD_tr_onto/SDM,Schiedam Centrum station,SDM,51.9219,4.41,1.0409556313993173,http://www.group15_KD_tr_onto/344,Rotterdam,344,51.962,4.447,80,97,31,17,197
203,http://www.group15_KD_tr_onto/SDT,Sliedrecht Baanhoek railway station,SDT,51.8297,4.74333,1.9926470588235294,http://www.group15_KD_tr_onto/344,Rotterdam,344,51.962,4.447,80,97,31,17,197
204,http://www.group15_KD_tr_onto/YPB,Den Haag Ypenburg railway station,YPB,52.0592,4.38972,0.46078431372549017,http://www.group15_KD_tr_onto/344,Rotterdam,344,51.962,4.447,80,97,31,17,197
205,http://www.group15_KD_tr_onto/ZWD,Zwijndrecht railway station,ZWD,51.8147,4.64222,0.5035971223021583,http://www.group15_KD_tr_onto/344,Rotterdam,344,51.962,4.447,80,97,31,17,197
206,http://www.group15_KD_tr_onto/BD,Breda railway station,BD,51.595,4.78,1.8953488372093024,http://www.group15_KD_tr_onto/350,Gilze-Rijen,350,51.566,4.936,70,101,168,18,194
207,http://www.group15_KD_tr_onto/BHDV,Boven Hardinxveld railway station,BHDV,51.8319,4.87472,1.8529411764705883,http://www.group15_KD_tr_onto/350,Gilze-Rijen,350,51.566,4.936,70,101,168,18,194
208,http://www.group15_KD_tr_onto/ETN,Etten-Leur railway station,ETN,51.5753,4.63694,0.24705882352941178,http://www.group15_KD_tr_onto/350,Gilze-Rijen,350,51.566,4.936,70,101,168,18,194
209,http://www.group15_KD_tr_onto/GND,Hardinxveld-Giessendam railway station,GND,51.8303,4.83528,2.3529411764705883,http://www.group15_KD_tr_onto/350,Gilze-Rijen,350,51.566,4.936,70,101,168,18,194
210,http://www.group15_KD_tr_onto/GR,Gorinchem railway station,GR,51.8336,4.9675,1.9514563106796117,http://www.group15_KD_tr_onto/350,Gilze-Rijen,350,51.566,4.936,70,101,168,18,194
211,http://www.group15_KD_tr_onto/GZ,Gilze-Rijen railway station,GZ,51.5839,4.925,0.8382352941176471,http://www.group15_KD_tr_onto/350,Gilze-Rijen,350,51.566,4.936,70,101,168,18,194
212,http://www.group15_KD_tr_onto/OT,Oisterwijk railway station,OT,51.5822,5.19444,1.536231884057971,http://www.group15_KD_tr_onto/350,Gilze-Rijen,350,51.566,4.936,70,101,168,18,194
213,http://www.group15_KD_tr_onto/TBR,Tilburg Reeshof railway station,TBR,51.5739,4.99278,0.9852941176470589,http://www.group15_KD_tr_onto/350,Gilze-Rijen,350,51.566,4.936,70,101,168,18,194
214,http://www.group15_KD_tr_onto/TBU,Tilburg Universiteit railway station,TBU,51.5653,5.05139,0.7058823529411765,http://www.group15_KD_tr_onto/350,Gilze-Rijen,350,51.566,4.936,70,101,168,18,194
215,http://www.group15_KD_tr_onto/TB,Tilburg railway station,TB,51.5606,5.08278,1.6109215017064846,http://www.group15_KD_tr_onto/350,Gilze-Rijen,350,51.566,4.936,70,101,168,18,194
216,http://www.group15_KD_tr_onto/ZLW,Lage Zwaluwe railway station,ZLW,51.6906,4.66333,0.8115942028985508,http://www.group15_KD_tr_onto/350,Gilze-Rijen,350,51.566,4.936,70,101,168,18,194
217,http://www.group15_KD_tr_onto/ZVB,Zevenbergen railway station,ZVB,51.6414,4.60972,1.144927536231884,http://www.group15_KD_tr_onto/350,Gilze-Rijen,350,51.566,4.936,70,101,168,18,194
218,http://www.group15_KD_tr_onto/BET,Best railway station,BET,51.5097,5.38889,1.3714285714285714,http://www.group15_KD_tr_onto/370,Eindhoven,370,51.451,5.377,60,106,142,37,195
219,http://www.group15_KD_tr_onto/BMR,Boxmeer railway station,BMR,51.6444,5.93944,1.0538461538461539,http://www.group15_KD_tr_onto/370,Eindhoven,370,51.451,5.377,60,106,142,37,195
220,http://www.group15_KD_tr_onto/BR,Blerick railway station,BR,51.3725,6.155,1.0,http://www.group15_KD_tr_onto/370,Eindhoven,370,51.451,5.377,60,106,142,37,195
221,http://www.group15_KD_tr_onto/BTL,Boxtel railway station,BTL,51.5844,5.31889,1.2357142857142858,http://www.group15_KD_tr_onto/370,Eindhoven,370,51.451,5.377,60,106,142,37,195
222,http://www.group15_KD_tr_onto/DN,Deurne railway station,DN,51.4558,5.78833,1.6153846153846154,http://www.group15_KD_tr_onto/370,Eindhoven,370,51.451,5.377,60,106,142,37,195
223,http://www.group15_KD_tr_onto/EHS,Eindhoven Stadion railway station,EHS,51.443,5.46731,1.3357142857142856,http://www.group15_KD_tr_onto/370,Eindhoven,370,51.451,5.377,60,106,142,37,195
224,http://www.group15_KD_tr_onto/EHV,Eindhoven Centraal railway station,EHV,51.4428,5.48028,2.027918781725888,http://www.group15_KD_tr_onto/370,Eindhoven,370,51.451,5.377,60,106,142,37,195
225,http://www.group15_KD_tr_onto/GP,Geldrop railway station,GP,51.42,5.55111,2.074626865671642,http://www.group15_KD_tr_onto/370,Eindhoven,370,51.451,5.377,60,106,142,37,195
226,http://www.group15_KD_tr_onto/HMH,Helmond 't Hout railway station,HMH,51.4678,5.63083,0.7647058823529411,http://www.group15_KD_tr_onto/370,Eindhoven,370,51.451,5.377,60,106,142,37,195
227,http://www.group15_KD_tr_onto/HM,Helmond railway station,HM,51.4756,5.66167,1.205298013245033,http://www.group15_KD_tr_onto/370,Eindhoven,370,51.451,5.377,60,106,142,37,195
228,http://www.group15_KD_tr_onto/HRT,Horst-Sevenum railway station,HRT,51.4267,6.04194,1.0843373493975903,http://www.group15_KD_tr_onto/370,Eindhoven,370,51.451,5.377,60,106,142,37,195
229,http://www.group15_KD_tr_onto/HT,'s-Hertogenbosch railway station,HT,51.69,5.29333,1.114678899082569,http://www.group15_KD_tr_onto/370,Eindhoven,370,51.451,5.377,60,106,142,37,195
230,http://www.group15_KD_tr_onto/HZ,Heeze railway station,HZ,51.385,5.56944,1.8431372549019607,http://www.group15_KD_tr_onto/370,Eindhoven,370,51.451,5.377,60,106,142,37,195
231,http://www.group15_KD_tr_onto/MZ,Maarheeze railway station,MZ,51.3039,5.63028,1.4776119402985075,http://www.group15_KD_tr_onto/370,Eindhoven,370,51.451,5.377,60,106,142,37,195
232,http://www.group15_KD_tr_onto/OW,Oss West railway station,OW,51.7581,5.50611,0.9571428571428572,http://www.group15_KD_tr_onto/370,Eindhoven,370,51.451,5.377,60,106,142,37,195
233,http://www.group15_KD_tr_onto/O,Oss railway station,O,51.7653,5.53167,1.4013157894736843,http://www.group15_KD_tr_onto/370,Eindhoven,370,51.451,5.377,60,106,142,37,195
234,http://www.group15_KD_tr_onto/RS,Rosmalen railway station,RS,51.715,5.36889,1.0857142857142856,http://www.group15_KD_tr_onto/370,Eindhoven,370,51.451,5.377,60,106,142,37,195
235,http://www.group15_KD_tr_onto/TG,Tegelen railway station,TG,51.3411,6.14333,1.048780487804878,http://www.group15_KD_tr_onto/370,Eindhoven,370,51.451,5.377,60,106,142,37,195
236,http://www.group15_KD_tr_onto/VG,Vught railway station,VG,51.6547,5.29194,0.6056338028169014,http://www.group15_KD_tr_onto/370,Eindhoven,370,51.451,5.377,60,106,142,37,195
237,http://www.group15_KD_tr_onto/VLB,Vierlingsbeek railway station,VLB,51.5922,5.99667,1.1,http://www.group15_KD_tr_onto/370,Eindhoven,370,51.451,5.377,60,106,142,37,195
238,http://www.group15_KD_tr_onto/VL,Venlo railway station,VL,51.3647,6.17139,0.8378378378378378,http://www.group15_KD_tr_onto/370,Eindhoven,370,51.451,5.377,60,106,142,37,195
239,http://www.group15_KD_tr_onto/VRY,Venray railway station,VRY,51.5264,6.01417,1.275229357798165,http://www.group15_KD_tr_onto/370,Eindhoven,370,51.451,5.377,60,106,142,37,195
240,http://www.group15_KD_tr_onto/WT,Weert railway station,WT,51.2486,5.7025,1.2254335260115607,http://www.group15_KD_tr_onto/370,Eindhoven,370,51.451,5.377,60,106,142,37,195
241,http://www.group15_KD_tr_onto/CVM,Chevremont railway station,CVM,50.8758,6.05944,0.7631578947368421,http://www.group15_KD_tr_onto/380,Maastricht,380,50.906,5.762,90,109,94,47,200
242,http://www.group15_KD_tr_onto/EDN,Eijsden railway station,EDN,50.772,5.71004,2.2222222222222223,http://www.group15_KD_tr_onto/380,Maastricht,380,50.906,5.762,90,109,94,47,200
243,http://www.group15_KD_tr_onto/EGH,Eygelshoven railway station,EGH,50.8903,6.04556,0.7236842105263158,http://www.group15_KD_tr_onto/380,Maastricht,380,50.906,5.762,90,109,94,47,200
244,http://www.group15_KD_tr_onto/GLN,Geleen Oost railway station,GLN,50.9672,5.84306,0.8,http://www.group15_KD_tr_onto/380,Maastricht,380,50.906,5.762,90,109,94,47,200
245,http://www.group15_KD_tr_onto/HB,Hoensbroek railway station,HB,50.9053,5.93111,1.0,http://www.group15_KD_tr_onto/380,Maastricht,380,50.906,5.762,90,109,94,47,200
246,http://www.group15_KD_tr_onto/HRLW,Heerlen Woonboulevard railway station,HRLW,50.8961,5.95278,0.6153846153846154,http://www.group15_KD_tr_onto/380,Maastricht,380,50.906,5.762,90,109,94,47,200
247,http://www.group15_KD_tr_onto/HRL,Heerlen railway station,HRL,50.8908,5.97472,1.3650793650793651,http://www.group15_KD_tr_onto/380,Maastricht,380,50.906,5.762,90,109,94,47,200
248,http://www.group15_KD_tr_onto/KMR,Klimmen-Ransdaal railway station,KMR,50.8667,5.89056,0.5128205128205128,http://www.group15_KD_tr_onto/380,Maastricht,380,50.906,5.762,90,109,94,47,200
249,http://www.group15_KD_tr_onto/KRD,Kerkrade Centrum railway station,KRD,50.8614,6.0575,0.7105263157894737,http://www.group15_KD_tr_onto/380,Maastricht,380,50.906,5.762,90,109,94,47,200
250,http://www.group15_KD_tr_onto/LG,Landgraaf railway station,LG,50.8964,6.02,1.0964912280701755,http://www.group15_KD_tr_onto/380,Maastricht,380,50.906,5.762,90,109,94,47,200
251,http://www.group15_KD_tr_onto/MT,Maastricht railway station,MT,50.85,5.70528,1.102127659574468,http://www.group15_KD_tr_onto/380,Maastricht,380,50.906,5.762,90,109,94,47,200
252,http://www.group15_KD_tr_onto/NH,Nuth railway station,NH,50.9197,5.8925,0.975,http://www.group15_KD_tr_onto/380,Maastricht,380,50.906,5.762,90,109,94,47,200
253,http://www.group15_KD_tr_onto/RM,Roermond railway station,RM,51.1933,5.99472,0.8899082568807339,http://www.group15_KD_tr_onto/380,Maastricht,380,50.906,5.762,90,109,94,47,200
254,http://www.group15_KD_tr_onto/RV,Reuver railway station,RV,51.2831,6.07944,1.1829268292682926,http://www.group15_KD_tr_onto/380,Maastricht,380,50.906,5.762,90,109,94,47,200
255,http://www.group15_KD_tr_onto/SBK,Spaubeek railway station,SBK,50.9431,5.84972,1.425,http://www.group15_KD_tr_onto/380,Maastricht,380,50.906,5.762,90,109,94,47,200
256,http://www.group15_KD_tr_onto/SM,Swalmen railway station,SM,51.2358,6.0325,0.4878048780487805,http://www.group15_KD_tr_onto/380,Maastricht,380,50.906,5.762,90,109,94,47,200
257,http://www.group15_KD_tr_onto/SN,Schinnen railway station,SN,50.9386,5.87611,1.475,http://www.group15_KD_tr_onto/380,Maastricht,380,50.906,5.762,90,109,94,47,200
258,http://www.group15_KD_tr_onto/SRN,Susteren railway station,SRN,51.0608,5.86278,0.5945945945945946,http://www.group15_KD_tr_onto/380,Maastricht,380,50.906,5.762,90,109,94,47,200
259,http://www.group15_KD_tr_onto/STD,Sittard railway station,STD,51.0011,5.85833,0.8284518828451883,http://www.group15_KD_tr_onto/380,Maastricht,380,50.906,5.762,90,109,94,47,200
260,http://www.group15_KD_tr_onto/VDL,Voerendaal railway station,VDL,50.8867,5.92944,0.4230769230769231,http://www.group15_KD_tr_onto/380,Maastricht,380,50.906,5.762,90,109,94,47,200
