,station,station_name,station_code,ts_lat,ts_long,delay,ws,ws_name,ws_code,ws_lat,ws_long,windspeed,mean_temp,percipitation,visibility,wind_direction
0,http://www.group15_KD_tr_onto/AMR,Alkmaar railway station,AMR,52.6378,4.74056,0.43333333333333335,http://www.group15_KD_tr_onto/235,De Kooy,235,52.928,4.781,110,143,0,64,241
1,http://www.group15_KD_tr_onto/ANA,Anna Paulowna railway station,ANA,52.8669,4.81111,0.3670886075949367,http://www.group15_KD_tr_onto/235,De Kooy,235,52.928,4.781,110,143,0,64,241
2,http://www.group15_KD_tr_onto/HDRZ,Den Helder Zuid railway station,HDRZ,52.9331,4.76389,0.27848101265822783,http://www.group15_KD_tr_onto/235,De Kooy,235,52.928,4.781,110,143,0,64,241
3,http://www.group15_KD_tr_onto/HDR,Den Helder railway station,HDR,52.9564,4.76083,0.15,http://www.group15_KD_tr_onto/235,De Kooy,235,52.928,4.781,110,143,0,64,241
4,http://www.group15_KD_tr_onto/HWD,Heerhugowaard railway station,HWD,52.67,4.82361,0.23178807947019867,http://www.group15_KD_tr_onto/235,De Kooy,235,52.928,4.781,110,143,0,64,241
5,http://www.group15_KD_tr_onto/OBD,Obdam railway station,OBD,52.6781,4.90833,0.42424242424242425,http://www.group15_KD_tr_onto/235,De Kooy,235,52.928,4.781,110,143,0,64,241
6,http://www.group15_KD_tr_onto/SGN,Schagen railway station,SGN,52.7861,4.80528,0.24691358024691357,http://www.group15_KD_tr_onto/235,De Kooy,235,52.928,4.781,110,143,0,64,241
7,http://www.group15_KD_tr_onto/AC,Abcoude railway station,AC,52.2744,4.98222,0.631578947368421,http://www.group15_KD_tr_onto/240,Schiphol,240,52.318,4.79,90,133,0,70,240
8,http://www.group15_KD_tr_onto/AMPO,Almere Poort railway station,AMPO,52.3428,5.15194,0.3087557603686636,http://www.group15_KD_tr_onto/240,Schiphol,240,52.318,4.79,90,133,0,70,240
9,http://www.group15_KD_tr_onto/ASA,Amsterdam Amstel station,ASA,52.3464,4.91778,0.5878136200716846,http://www.group15_KD_tr_onto/240,Schiphol,240,52.318,4.79,90,133,0,70,240
10,http://www.group15_KD_tr_onto/ASB,Amsterdam Bijlmer ArenA station,ASB,52.3131,4.94611,0.424812030075188,http://www.group15_KD_tr_onto/240,Schiphol,240,52.318,4.79,90,133,0,70,240
11,http://www.group15_KD_tr_onto/ASDL,Amsterdam Lelylaan station,ASDL,52.3572,4.83389,0.5043103448275862,http://www.group15_KD_tr_onto/240,Schiphol,240,52.318,4.79,90,133,0,70,240
12,http://www.group15_KD_tr_onto/ASDM,Amsterdam Muiderpoort railway station,ASDM,52.3608,4.93111,0.6376306620209059,http://www.group15_KD_tr_onto/240,Schiphol,240,52.318,4.79,90,133,0,70,240
13,http://www.group15_KD_tr_onto/ASDZ,Amsterdam Zuid station,ASDZ,52.3389,4.87306,0.33260393873085337,http://www.group15_KD_tr_onto/240,Schiphol,240,52.318,4.79,90,133,0,70,240
14,http://www.group15_KD_tr_onto/ASD,Amsterdam Centraal station,ASD,52.3783,4.9,0.9020356234096693,http://www.group15_KD_tr_onto/240,Schiphol,240,52.318,4.79,90,133,0,70,240
15,http://www.group15_KD_tr_onto/ASSP,Amsterdam Science Park railway station,ASSP,52.3525,4.94861,0.538961038961039,http://www.group15_KD_tr_onto/240,Schiphol,240,52.318,4.79,90,133,0,70,240
16,http://www.group15_KD_tr_onto/ASS,Amsterdam Sloterdijk station,ASS,52.3892,4.83806,0.5077844311377245,http://www.group15_KD_tr_onto/240,Schiphol,240,52.318,4.79,90,133,0,70,240
17,http://www.group15_KD_tr_onto/BLL,Bloemendaal railway station,BLL,52.4042,4.6275,0.782051282051282,http://www.group15_KD_tr_onto/240,Schiphol,240,52.318,4.79,90,133,0,70,240
18,http://www.group15_KD_tr_onto/BV,Beverwijk railway station,BV,52.4783,4.65611,0.358974358974359,http://www.group15_KD_tr_onto/240,Schiphol,240,52.318,4.79,90,133,0,70,240
19,http://www.group15_KD_tr_onto/CAS,Castricum railway station,CAS,52.5456,4.65889,0.45588235294117646,http://www.group15_KD_tr_onto/240,Schiphol,240,52.318,4.79,90,133,0,70,240
20,http://www.group15_KD_tr_onto/DMNZ,Diemen Zuid station,DMNZ,52.3303,4.95639,0.12121212121212122,http://www.group15_KD_tr_onto/240,Schiphol,240,52.318,4.79,90,133,0,70,240
21,http://www.group15_KD_tr_onto/DMN,Diemen railway station,DMN,52.3453,4.96694,0.5064935064935064,http://www.group15_KD_tr_onto/240,Schiphol,240,52.318,4.79,90,133,0,70,240
22,http://www.group15_KD_tr_onto/HAD,Heemstede-Aerdenhout railway station,HAD,52.3597,4.60694,0.49065420560747663,http://www.group15_KD_tr_onto/240,Schiphol,240,52.318,4.79,90,133,0,70,240
23,http://www.group15_KD_tr_onto/HFD,Hoofddorp railway station,HFD,52.2933,4.7,0.312,http://www.group15_KD_tr_onto/240,Schiphol,240,52.318,4.79,90,133,0,70,240
24,http://www.group15_KD_tr_onto/HIL,Hillegom railway station,HIL,52.3028,4.56583,0.3924050632911392,http://www.group15_KD_tr_onto/240,Schiphol,240,52.318,4.79,90,133,0,70,240
25,http://www.group15_KD_tr_onto/HK,Heemskerk railway station,HK,52.4947,4.68611,0.3333333333333333,http://www.group15_KD_tr_onto/240,Schiphol,240,52.318,4.79,90,133,0,70,240
26,http://www.group15_KD_tr_onto/HLMS,Haarlem Spaarnwoude railway station,HLMS,52.3828,4.67111,0.746268656716418,http://www.group15_KD_tr_onto/240,Schiphol,240,52.318,4.79,90,133,0,70,240
27,http://www.group15_KD_tr_onto/HLM,Haarlem railway station,HLM,52.3878,4.63889,0.4263322884012539,http://www.group15_KD_tr_onto/240,Schiphol,240,52.318,4.79,90,133,0,70,240
28,http://www.group15_KD_tr_onto/HLO,Heiloo railway station,HLO,52.6,4.70083,0.4805194805194805,http://www.group15_KD_tr_onto/240,Schiphol,240,52.318,4.79,90,133,0,70,240
29,http://www.group15_KD_tr_onto/HWZB,Halfweg-Zwanenburg railway station,HWZB,52.3847,4.75167,0.6268656716417911,http://www.group15_KD_tr_onto/240,Schiphol,240,52.318,4.79,90,133,0,70,240
30,http://www.group15_KD_tr_onto/NVP,Nieuw-Vennep railway station,NVP,52.2597,4.64556,0.3409090909090909,http://www.group15_KD_tr_onto/240,Schiphol,240,52.318,4.79,90,133,0,70,240
31,http://www.group15_KD_tr_onto/OVN,Overveen railway station,OVN,52.3908,4.60778,0.34210526315789475,http://www.group15_KD_tr_onto/240,Schiphol,240,52.318,4.79,90,133,0,70,240
32,http://www.group15_KD_tr_onto/PMR,Purmerend railway station,PMR,52.5033,4.95417,0.33766233766233766,http://www.group15_KD_tr_onto/240,Schiphol,240,52.318,4.79,90,133,0,70,240
33,http://www.group15_KD_tr_onto/PMW,Purmerend Weidevenne railway station,PMW,52.4967,4.93667,0.37662337662337664,http://www.group15_KD_tr_onto/240,Schiphol,240,52.318,4.79,90,133,0,70,240
34,http://www.group15_KD_tr_onto/RAI,Amsterdam RAI station,RAI,52.3367,4.89056,0.15151515151515152,http://www.group15_KD_tr_onto/240,Schiphol,240,52.318,4.79,90,133,0,70,240
35,http://www.group15_KD_tr_onto/SHL,Schiphol Airport railway station,SHL,52.3089,4.76167,0.8533501896333755,http://www.group15_KD_tr_onto/240,Schiphol,240,52.318,4.79,90,133,0,70,240
36,http://www.group15_KD_tr_onto/SPTN,Santpoort Noord railway station,SPTN,52.4428,4.63917,0.34615384615384615,http://www.group15_KD_tr_onto/240,Schiphol,240,52.318,4.79,90,133,0,70,240
37,http://www.group15_KD_tr_onto/SPTZ,Santpoort Zuid railway station,SPTZ,52.4194,4.63167,0.3717948717948718,http://www.group15_KD_tr_onto/240,Schiphol,240,52.318,4.79,90,133,0,70,240
38,http://www.group15_KD_tr_onto/UTG,Uitgeest railway station,UTG,52.5219,4.70278,0.5724137931034483,http://www.group15_KD_tr_onto/240,Schiphol,240,52.318,4.79,90,133,0,70,240
39,http://www.group15_KD_tr_onto/WM,Wormerveer railway station,WM,52.4892,4.79278,0.696969696969697,http://www.group15_KD_tr_onto/240,Schiphol,240,52.318,4.79,90,133,0,70,240
40,http://www.group15_KD_tr_onto/WP,Weesp railway station,WP,52.3131,5.04361,0.2972027972027972,http://www.group15_KD_tr_onto/240,Schiphol,240,52.318,4.79,90,133,0,70,240
41,http://www.group15_KD_tr_onto/ZD,Zaandam railway station,ZD,52.4389,4.81472,0.40963855421686746,http://www.group15_KD_tr_onto/240,Schiphol,240,52.318,4.79,90,133,0,70,240
42,http://www.group15_KD_tr_onto/ZVT,Zandvoort aan Zee railway station,ZVT,52.3758,4.53139,0.5789473684210527,http://www.group15_KD_tr_onto/240,Schiphol,240,52.318,4.79,90,133,0,70,240
43,http://www.group15_KD_tr_onto/AKL,Arkel railway station,AKL,51.8719,4.99278,0.0,http://www.group15_KD_tr_onto/260,De Bilt,260,52.1,5.18,60,123,0,65,223
44,http://www.group15_KD_tr_onto/BHV,Bilthoven railway station,BHV,52.13,5.20528,0.3691275167785235,http://www.group15_KD_tr_onto/260,De Bilt,260,52.1,5.18,60,123,0,65,223
45,http://www.group15_KD_tr_onto/BKL,Breukelen railway station,BKL,52.17,4.99056,0.5906432748538012,http://www.group15_KD_tr_onto/260,De Bilt,260,52.1,5.18,60,123,0,65,223
46,http://www.group15_KD_tr_onto/BNK,Bunnik railway station,BNK,52.0631,5.19556,0.2992125984251969,http://www.group15_KD_tr_onto/260,De Bilt,260,52.1,5.18,60,123,0,65,223
47,http://www.group15_KD_tr_onto/BSD,Beesd railway station,BSD,51.8992,5.195,0.0,http://www.group15_KD_tr_onto/260,De Bilt,260,52.1,5.18,60,123,0,65,223
48,http://www.group15_KD_tr_onto/CL,Culemborg railway station,CL,51.9472,5.22722,0.20394736842105263,http://www.group15_KD_tr_onto/260,De Bilt,260,52.1,5.18,60,123,0,65,223
49,http://www.group15_KD_tr_onto/DB,Driebergen-Zeist railway station,DB,52.065,5.26,0.5212765957446809,http://www.group15_KD_tr_onto/260,De Bilt,260,52.1,5.18,60,123,0,65,223
50,http://www.group15_KD_tr_onto/GDM,Geldermalsen railway station,GDM,51.8839,5.27083,0.12280701754385964,http://www.group15_KD_tr_onto/260,De Bilt,260,52.1,5.18,60,123,0,65,223
51,http://www.group15_KD_tr_onto/HTN,Houten railway station,HTN,52.0344,5.16778,0.2087912087912088,http://www.group15_KD_tr_onto/260,De Bilt,260,52.1,5.18,60,123,0,65,223
52,http://www.group15_KD_tr_onto/LDM,Leerdam railway station,LDM,51.8947,5.09333,0.0,http://www.group15_KD_tr_onto/260,De Bilt,260,52.1,5.18,60,123,0,65,223
53,http://www.group15_KD_tr_onto/MAS,Maarssen railway station,MAS,52.1358,5.03306,0.5488721804511278,http://www.group15_KD_tr_onto/260,De Bilt,260,52.1,5.18,60,123,0,65,223
54,http://www.group15_KD_tr_onto/UTLR,Utrecht Leidsche Rijn railway station,UTLR,52.0983,5.06917,0.23484848484848486,http://www.group15_KD_tr_onto/260,De Bilt,260,52.1,5.18,60,123,0,65,223
55,http://www.group15_KD_tr_onto/UTO,Utrecht Overvecht railway station,UTO,52.11,5.12528,0.40569395017793597,http://www.group15_KD_tr_onto/260,De Bilt,260,52.1,5.18,60,123,0,65,223
56,http://www.group15_KD_tr_onto/UTT,Utrecht Terwijde railway station,UTT,52.1008,5.04306,0.19696969696969696,http://www.group15_KD_tr_onto/260,De Bilt,260,52.1,5.18,60,123,0,65,223
57,http://www.group15_KD_tr_onto/UTVR,Utrecht Vaartsche Rijn railway station,UTVR,52.0786,5.1225,0.23624595469255663,http://www.group15_KD_tr_onto/260,De Bilt,260,52.1,5.18,60,123,0,65,223
58,http://www.group15_KD_tr_onto/UTZL,Utrecht Zuilen railway station,UTZL,52.1031,5.08917,0.5227272727272727,http://www.group15_KD_tr_onto/260,De Bilt,260,52.1,5.18,60,123,0,65,223
59,http://www.group15_KD_tr_onto/UT,Utrecht Centraal railway station,UT,52.0892,5.10972,0.6119257086999023,http://www.group15_KD_tr_onto/260,De Bilt,260,52.1,5.18,60,123,0,65,223
60,http://www.group15_KD_tr_onto/VTN,Vleuten railway station,VTN,52.1031,5.01194,0.25757575757575757,http://www.group15_KD_tr_onto/260,De Bilt,260,52.1,5.18,60,123,0,65,223
61,http://www.group15_KD_tr_onto/WD,Woerden railway station,WD,52.0847,4.89306,0.26666666666666666,http://www.group15_KD_tr_onto/260,De Bilt,260,52.1,5.18,60,123,0,65,223
62,http://www.group15_KD_tr_onto/ZBM,Zaltbommel railway station,ZBM,51.8069,5.26472,0.3116883116883117,http://www.group15_KD_tr_onto/260,De Bilt,260,52.1,5.18,60,123,0,65,223
63,http://www.group15_KD_tr_onto/BKF,Bovenkarspel Flora railway station,BKF,52.6958,5.25306,0.05128205128205128,http://www.group15_KD_tr_onto/267,Stavoren,267,52.898,5.384,100,137,0,70,233
64,http://www.group15_KD_tr_onto/BKG,Bovenkarspel-Grootebroek railway station,BKG,52.695,5.23611,0.02564102564102564,http://www.group15_KD_tr_onto/267,Stavoren,267,52.898,5.384,100,137,0,70,233
65,http://www.group15_KD_tr_onto/EKZ,Enkhuizen railway station,EKZ,52.6994,5.28778,0.02702702702702703,http://www.group15_KD_tr_onto/267,Stavoren,267,52.898,5.384,100,137,0,70,233
66,http://www.group15_KD_tr_onto/HKS,Hoogkarspel railway station,HKS,52.6906,5.18389,0.02564102564102564,http://www.group15_KD_tr_onto/267,Stavoren,267,52.898,5.384,100,137,0,70,233
67,http://www.group15_KD_tr_onto/HNP,Hindeloopen railway station,HNP,52.9461,5.42306,1.108695652173913,http://www.group15_KD_tr_onto/267,Stavoren,267,52.898,5.384,100,137,0,70,233
68,http://www.group15_KD_tr_onto/HN,Hoorn railway station,HN,52.645,5.05472,0.26881720430107525,http://www.group15_KD_tr_onto/267,Stavoren,267,52.898,5.384,100,137,0,70,233
69,http://www.group15_KD_tr_onto/IJT,IJlst railway station,IJT,53.0147,5.61639,0.391304347826087,http://www.group15_KD_tr_onto/267,Stavoren,267,52.898,5.384,100,137,0,70,233
70,http://www.group15_KD_tr_onto/KMW,Koudum-Molkwerum railway station,KMW,52.9022,5.41056,1.108695652173913,http://www.group15_KD_tr_onto/267,Stavoren,267,52.898,5.384,100,137,0,70,233
71,http://www.group15_KD_tr_onto/STV,Stavoren railway station,STV,52.8867,5.35972,1.0434782608695652,http://www.group15_KD_tr_onto/267,Stavoren,267,52.898,5.384,100,137,0,70,233
72,http://www.group15_KD_tr_onto/WK,Workum railway station,WK,52.9714,5.45583,0.782608695652174,http://www.group15_KD_tr_onto/267,Stavoren,267,52.898,5.384,100,137,0,70,233
73,http://www.group15_KD_tr_onto/WV,Wolvega railway station,WV,52.8797,6.00472,0.26865671641791045,http://www.group15_KD_tr_onto/267,Stavoren,267,52.898,5.384,100,137,0,70,233
74,http://www.group15_KD_tr_onto/ALMB,Almere Buiten railway station,ALMB,52.3942,5.27778,0.1827956989247312,http://www.group15_KD_tr_onto/269,Lelystad,269,52.458,5.52,80,122,0,65,228
75,http://www.group15_KD_tr_onto/ALMM,Almere Muziekwijk railway station,ALMM,52.3675,5.19028,0.31797235023041476,http://www.group15_KD_tr_onto/269,Lelystad,269,52.458,5.52,80,122,0,65,228
76,http://www.group15_KD_tr_onto/ALMO,Almere Oostvaarders railway station,ALMO,52.4028,5.3,0.11428571428571428,http://www.group15_KD_tr_onto/269,Lelystad,269,52.458,5.52,80,122,0,65,228
77,http://www.group15_KD_tr_onto/ALMP,Almere Parkwijk railway station,ALMP,52.3767,5.24444,0.1111111111111111,http://www.group15_KD_tr_onto/269,Lelystad,269,52.458,5.52,80,122,0,65,228
78,http://www.group15_KD_tr_onto/ALM,Almere Centrum railway station,ALM,52.375,5.21778,0.39233038348082594,http://www.group15_KD_tr_onto/269,Lelystad,269,52.458,5.52,80,122,0,65,228
79,http://www.group15_KD_tr_onto/DL,Dalfsen railway station,DL,52.4981,6.25861,0.4782608695652174,http://www.group15_KD_tr_onto/269,Lelystad,269,52.458,5.52,80,122,0,65,228
80,http://www.group15_KD_tr_onto/DRON,Dronten railway station,DRON,52.5339,5.72306,0.05405405405405406,http://www.group15_KD_tr_onto/269,Lelystad,269,52.458,5.52,80,122,0,65,228
81,http://www.group15_KD_tr_onto/EML,Ermelo railway station,EML,52.3011,5.61444,0.4794520547945205,http://www.group15_KD_tr_onto/269,Lelystad,269,52.458,5.52,80,122,0,65,228
82,http://www.group15_KD_tr_onto/HDE,'t Harde railway station,HDE,52.4089,5.89306,0.3698630136986301,http://www.group15_KD_tr_onto/269,Lelystad,269,52.458,5.52,80,122,0,65,228
83,http://www.group15_KD_tr_onto/HD,Harderwijk railway station,HD,52.3375,5.61972,0.48717948717948717,http://www.group15_KD_tr_onto/269,Lelystad,269,52.458,5.52,80,122,0,65,228
84,http://www.group15_KD_tr_onto/KPNZ,Kampen Zuid railway station,KPNZ,52.5342,5.91583,0.02631578947368421,http://www.group15_KD_tr_onto/269,Lelystad,269,52.458,5.52,80,122,0,65,228
85,http://www.group15_KD_tr_onto/KPN,Kampen railway station,KPN,52.5597,5.92111,0.05263157894736842,http://www.group15_KD_tr_onto/269,Lelystad,269,52.458,5.52,80,122,0,65,228
86,http://www.group15_KD_tr_onto/LLS,Lelystad Centrum railway station,LLS,52.5078,5.47333,0.2765957446808511,http://www.group15_KD_tr_onto/269,Lelystad,269,52.458,5.52,80,122,0,65,228
87,http://www.group15_KD_tr_onto/MP,Meppel railway station,MP,52.6914,6.1975,0.9862385321100917,http://www.group15_KD_tr_onto/269,Lelystad,269,52.458,5.52,80,122,0,65,228
88,http://www.group15_KD_tr_onto/NS,Nunspeet railway station,NS,52.3708,5.78472,0.5068493150684932,http://www.group15_KD_tr_onto/269,Lelystad,269,52.458,5.52,80,122,0,65,228
89,http://www.group15_KD_tr_onto/OMN,Ommen railway station,OMN,52.5094,6.41694,0.9782608695652174,http://www.group15_KD_tr_onto/269,Lelystad,269,52.458,5.52,80,122,0,65,228
90,http://www.group15_KD_tr_onto/PT,Putten railway station,PT,52.2653,5.57611,0.3424657534246575,http://www.group15_KD_tr_onto/269,Lelystad,269,52.458,5.52,80,122,0,65,228
91,http://www.group15_KD_tr_onto/WZ,Wezep railway station,WZ,52.4536,6.00222,0.3972602739726027,http://www.group15_KD_tr_onto/269,Lelystad,269,52.458,5.52,80,122,0,65,228
92,http://www.group15_KD_tr_onto/ZLSH,Zwolle Stadshagen railway station,ZLSH,52.5279,6.05108,0.05263157894736842,http://www.group15_KD_tr_onto/269,Lelystad,269,52.458,5.52,80,122,0,65,228
93,http://www.group15_KD_tr_onto/ZL,Zwolle railway station,ZL,52.5053,6.09056,0.7608200455580866,http://www.group15_KD_tr_onto/269,Lelystad,269,52.458,5.52,80,122,0,65,228
94,http://www.group15_KD_tr_onto/AKM,Akkrum railway station,AKM,53.0472,5.84306,0.22388059701492538,http://www.group15_KD_tr_onto/270,Leeuwarden,270,53.224,5.752,100,131,2,70,237
95,http://www.group15_KD_tr_onto/DEI,Deinum railway station,DEI,53.1886,5.72778,0.06451612903225806,http://www.group15_KD_tr_onto/270,Leeuwarden,270,53.224,5.752,100,131,2,70,237
96,http://www.group15_KD_tr_onto/DRP,Dronryp railway station,DRP,53.1775,5.63472,0.04838709677419355,http://www.group15_KD_tr_onto/270,Leeuwarden,270,53.224,5.752,100,131,2,70,237
97,http://www.group15_KD_tr_onto/FN,Franeker railway station,FN,53.1822,5.54944,0.0,http://www.group15_KD_tr_onto/270,Leeuwarden,270,53.224,5.752,100,131,2,70,237
98,http://www.group15_KD_tr_onto/GW,Grou-Jirnsum railway station,GW,53.0897,5.82222,0.1791044776119403,http://www.group15_KD_tr_onto/270,Leeuwarden,270,53.224,5.752,100,131,2,70,237
99,http://www.group15_KD_tr_onto/HDG,Hurdegaryp railway station,HDG,53.2186,5.93472,0.9393939393939394,http://www.group15_KD_tr_onto/270,Leeuwarden,270,53.224,5.752,100,131,2,70,237
100,http://www.group15_KD_tr_onto/HLG,Harlingen railway station,HLG,53.1703,5.42528,0.08064516129032258,http://www.group15_KD_tr_onto/270,Leeuwarden,270,53.224,5.752,100,131,2,70,237
101,http://www.group15_KD_tr_onto/HR,Heerenveen railway station,HR,52.9606,5.91528,0.4589041095890411,http://www.group15_KD_tr_onto/270,Leeuwarden,270,53.224,5.752,100,131,2,70,237
102,http://www.group15_KD_tr_onto/LW,Leeuwarden railway station,LW,53.1958,5.79111,0.6029411764705882,http://www.group15_KD_tr_onto/270,Leeuwarden,270,53.224,5.752,100,131,2,70,237
103,http://www.group15_KD_tr_onto/MG,Mantgum railway station,MG,53.1297,5.71333,0.4264705882352941,http://www.group15_KD_tr_onto/270,Leeuwarden,270,53.224,5.752,100,131,2,70,237
104,http://www.group15_KD_tr_onto/SK,Sneek railway station,SK,53.0322,5.65167,0.5396825396825397,http://www.group15_KD_tr_onto/270,Leeuwarden,270,53.224,5.752,100,131,2,70,237
105,http://www.group15_KD_tr_onto/AHPR,Arnhem Presikhaaf railway station,AHPR,51.9875,5.94306,0.23943661971830985,http://www.group15_KD_tr_onto/275,Deelen,275,52.056,5.873,70,123,0,64,224
106,http://www.group15_KD_tr_onto/AHZ,Arnhem Zuid railway station,AHZ,51.9542,5.85167,0.2230769230769231,http://www.group15_KD_tr_onto/275,Deelen,275,52.056,5.873,70,123,0,64,224
107,http://www.group15_KD_tr_onto/AML,Almelo railway station,AML,52.3572,6.655,0.4576923076923077,http://www.group15_KD_tr_onto/275,Deelen,275,52.056,5.873,70,123,0,64,224
108,http://www.group15_KD_tr_onto/APD,Apeldoorn railway station,APD,52.2092,5.96944,0.2569832402234637,http://www.group15_KD_tr_onto/275,Deelen,275,52.056,5.873,70,123,0,64,224
109,http://www.group15_KD_tr_onto/ATN,Aalten railway station,ATN,51.9211,6.57806,0.06756756756756757,http://www.group15_KD_tr_onto/275,Deelen,275,52.056,5.873,70,123,0,64,224
110,http://www.group15_KD_tr_onto/BMN,Brummen railway station,BMN,52.0908,6.14694,0.028169014084507043,http://www.group15_KD_tr_onto/275,Deelen,275,52.056,5.873,70,123,0,64,224
111,http://www.group15_KD_tr_onto/BN,Borne railway station,BN,52.2983,6.74833,0.0967741935483871,http://www.group15_KD_tr_onto/275,Deelen,275,52.056,5.873,70,123,0,64,224
112,http://www.group15_KD_tr_onto/CK,Cuijk railway station,CK,51.7264,5.87417,0.4838709677419355,http://www.group15_KD_tr_onto/275,Deelen,275,52.056,5.873,70,123,0,64,224
113,http://www.group15_KD_tr_onto/DA,Daarlerveen railway station,DA,52.4411,6.57583,0.16666666666666666,http://www.group15_KD_tr_onto/275,Deelen,275,52.056,5.873,70,123,0,64,224
114,http://www.group15_KD_tr_onto/DDN,Delden railway station,DDN,52.26,6.71444,2.013888888888889,http://www.group15_KD_tr_onto/275,Deelen,275,52.056,5.873,70,123,0,64,224
115,http://www.group15_KD_tr_onto/DID,Didam railway station,DID,51.9333,6.13222,0.07751937984496124,http://www.group15_KD_tr_onto/275,Deelen,275,52.056,5.873,70,123,0,64,224
116,http://www.group15_KD_tr_onto/DR,Dieren railway station,DR,52.045,6.10333,0.42657342657342656,http://www.group15_KD_tr_onto/275,Deelen,275,52.056,5.873,70,123,0,64,224
117,http://www.group15_KD_tr_onto/DTC,Doetinchem railway station,DTC,51.9583,6.29528,0.17,http://www.group15_KD_tr_onto/275,Deelen,275,52.056,5.873,70,123,0,64,224
118,http://www.group15_KD_tr_onto/DVN,Duiven railway station,DVN,51.9433,6.01417,0.14728682170542637,http://www.group15_KD_tr_onto/275,Deelen,275,52.056,5.873,70,123,0,64,224
119,http://www.group15_KD_tr_onto/DV,Deventer railway station,DV,52.2572,6.16083,0.44672131147540983,http://www.group15_KD_tr_onto/275,Deelen,275,52.056,5.873,70,123,0,64,224
120,http://www.group15_KD_tr_onto/ED,Ede-Wageningen railway station,ED,52.0278,5.67194,0.39408866995073893,http://www.group15_KD_tr_onto/275,Deelen,275,52.056,5.873,70,123,0,64,224
121,http://www.group15_KD_tr_onto/EST,Elst railway station,EST,51.9167,5.855,0.2094240837696335,http://www.group15_KD_tr_onto/275,Deelen,275,52.056,5.873,70,123,0,64,224
122,http://www.group15_KD_tr_onto/ES,Enschede railway station,ES,52.2222,6.89,0.6793893129770993,http://www.group15_KD_tr_onto/275,Deelen,275,52.056,5.873,70,123,0,64,224
123,http://www.group15_KD_tr_onto/GBR,Glanerbrug railway station,GBR,52.2186,6.97389,0.0,http://www.group15_KD_tr_onto/275,Deelen,275,52.056,5.873,70,123,0,64,224
124,http://www.group15_KD_tr_onto/GDR,Gaanderen railway station,GDR,51.9308,6.34778,0.12162162162162163,http://www.group15_KD_tr_onto/275,Deelen,275,52.056,5.873,70,123,0,64,224
125,http://www.group15_KD_tr_onto/GO,Goor railway station,GO,52.2303,6.58444,1.4788732394366197,http://www.group15_KD_tr_onto/275,Deelen,275,52.056,5.873,70,123,0,64,224
126,http://www.group15_KD_tr_onto/HGL,Hengelo railway station,HGL,52.2619,6.79417,0.9798657718120806,http://www.group15_KD_tr_onto/275,Deelen,275,52.056,5.873,70,123,0,64,224
127,http://www.group15_KD_tr_onto/HMN,Hemmen-Dodewaard railway station,HMN,51.9222,5.67333,0.203125,http://www.group15_KD_tr_onto/275,Deelen,275,52.056,5.873,70,123,0,64,224
128,http://www.group15_KD_tr_onto/HNO,Heino railway station,HNO,52.4269,6.22194,0.13157894736842105,http://www.group15_KD_tr_onto/275,Deelen,275,52.056,5.873,70,123,0,64,224
129,http://www.group15_KD_tr_onto/HON,Holten railway station,HON,52.2839,6.42056,0.3472222222222222,http://www.group15_KD_tr_onto/275,Deelen,275,52.056,5.873,70,123,0,64,224
130,http://www.group15_KD_tr_onto/KBK,Klarenbeek railway station,KBK,52.1778,6.08417,0.078125,http://www.group15_KD_tr_onto/275,Deelen,275,52.056,5.873,70,123,0,64,224
131,http://www.group15_KD_tr_onto/KLP,Veenendaal-De Klomp railway station,KLP,52.0458,5.57389,0.379746835443038,http://www.group15_KD_tr_onto/275,Deelen,275,52.056,5.873,70,123,0,64,224
132,http://www.group15_KD_tr_onto/KTR,Kesteren railway station,KTR,51.9314,5.58361,0.171875,http://www.group15_KD_tr_onto/275,Deelen,275,52.056,5.873,70,123,0,64,224
133,http://www.group15_KD_tr_onto/LC,Lochem railway station,LC,52.1667,6.42583,1.3428571428571427,http://www.group15_KD_tr_onto/275,Deelen,275,52.056,5.873,70,123,0,64,224
134,http://www.group15_KD_tr_onto/LTV,Lichtenvoorde-Groenlo railway station,LTV,52.0117,6.59639,0.15942028985507245,http://www.group15_KD_tr_onto/275,Deelen,275,52.056,5.873,70,123,0,64,224
135,http://www.group15_KD_tr_onto/MMLH,Mook-Molenhoek railway station,MMLH,51.7647,5.8775,0.6693548387096774,http://www.group15_KD_tr_onto/275,Deelen,275,52.056,5.873,70,123,0,64,224
136,http://www.group15_KD_tr_onto/NM,Nijmegen railway station,NM,51.8433,5.8525,0.4727272727272727,http://www.group15_KD_tr_onto/275,Deelen,275,52.056,5.873,70,123,0,64,224
137,http://www.group15_KD_tr_onto/NVD,Nijverdal railway station,NVD,52.3656,6.47028,0.6176470588235294,http://www.group15_KD_tr_onto/275,Deelen,275,52.056,5.873,70,123,0,64,224
138,http://www.group15_KD_tr_onto/ODZ,Oldenzaal railway station,ODZ,52.3061,6.93361,0.9333333333333333,http://www.group15_KD_tr_onto/275,Deelen,275,52.056,5.873,70,123,0,64,224
139,http://www.group15_KD_tr_onto/OP,Opheusden railway station,OP,51.9261,5.63694,0.1875,http://www.group15_KD_tr_onto/275,Deelen,275,52.056,5.873,70,123,0,64,224
140,http://www.group15_KD_tr_onto/OST,Olst railway station,OST,52.335,6.11306,0.7333333333333333,http://www.group15_KD_tr_onto/275,Deelen,275,52.056,5.873,70,123,0,64,224
141,http://www.group15_KD_tr_onto/OTB,Oosterbeek railway station,OTB,51.9947,5.84,0.15151515151515152,http://www.group15_KD_tr_onto/275,Deelen,275,52.056,5.873,70,123,0,64,224
142,http://www.group15_KD_tr_onto/RAT,Raalte railway station,RAT,52.3908,6.27861,0.29411764705882354,http://www.group15_KD_tr_onto/275,Deelen,275,52.056,5.873,70,123,0,64,224
143,http://www.group15_KD_tr_onto/RHN,Rhenen railway station,RHN,51.9578,5.57833,0.6486486486486487,http://www.group15_KD_tr_onto/275,Deelen,275,52.056,5.873,70,123,0,64,224
144,http://www.group15_KD_tr_onto/RH,Rheden railway station,RH,52.0097,6.02972,0.09722222222222222,http://www.group15_KD_tr_onto/275,Deelen,275,52.056,5.873,70,123,0,64,224
145,http://www.group15_KD_tr_onto/RL,Ruurlo railway station,RL,52.0806,6.45,0.14492753623188406,http://www.group15_KD_tr_onto/275,Deelen,275,52.056,5.873,70,123,0,64,224
146,http://www.group15_KD_tr_onto/RSN,Rijssen railway station,RSN,52.3117,6.51917,0.20833333333333334,http://www.group15_KD_tr_onto/275,Deelen,275,52.056,5.873,70,123,0,64,224
147,http://www.group15_KD_tr_onto/RVS,Ravenstein railway station,RVS,51.7947,5.63722,0.6111111111111112,http://www.group15_KD_tr_onto/275,Deelen,275,52.056,5.873,70,123,0,64,224
148,http://www.group15_KD_tr_onto/TWL,Twello railway station,TWL,52.2381,6.1,0.12121212121212122,http://www.group15_KD_tr_onto/275,Deelen,275,52.056,5.873,70,123,0,64,224
149,http://www.group15_KD_tr_onto/VEM,Voorst-Empe railway station,VEM,52.1578,6.14278,0.59375,http://www.group15_KD_tr_onto/275,Deelen,275,52.056,5.873,70,123,0,64,224
150,http://www.group15_KD_tr_onto/VHP,Vroomshoop railway station,VHP,52.4411,6.57583,0.16666666666666666,http://www.group15_KD_tr_onto/275,Deelen,275,52.056,5.873,70,123,0,64,224
151,http://www.group15_KD_tr_onto/VP,Arnhem Velperpoort railway station,VP,51.985,5.92,0.09859154929577464,http://www.group15_KD_tr_onto/275,Deelen,275,52.056,5.873,70,123,0,64,224
152,http://www.group15_KD_tr_onto/VSV,Varsseveld railway station,VSV,51.9369,6.45806,0.0,http://www.group15_KD_tr_onto/275,Deelen,275,52.056,5.873,70,123,0,64,224
153,http://www.group15_KD_tr_onto/VZ,Vriezenveen railway station,VZ,52.4019,6.60028,0.16666666666666666,http://www.group15_KD_tr_onto/275,Deelen,275,52.056,5.873,70,123,0,64,224
154,http://www.group15_KD_tr_onto/WC,Wijchen railway station,WC,51.8111,5.72944,0.46078431372549017,http://www.group15_KD_tr_onto/275,Deelen,275,52.056,5.873,70,123,0,64,224
155,http://www.group15_KD_tr_onto/WDN,Wierden railway station,WDN,52.3614,6.59111,0.20270270270270271,http://www.group15_KD_tr_onto/275,Deelen,275,52.056,5.873,70,123,0,64,224
156,http://www.group15_KD_tr_onto/WF,Wolfheze railway station,WF,52.0053,5.79361,0.13636363636363635,http://www.group15_KD_tr_onto/275,Deelen,275,52.056,5.873,70,123,0,64,224
157,http://www.group15_KD_tr_onto/WH,Wijhe railway station,WH,52.3936,6.14083,1.1466666666666667,http://www.group15_KD_tr_onto/275,Deelen,275,52.056,5.873,70,123,0,64,224
158,http://www.group15_KD_tr_onto/WL,Wehl railway station,WL,51.9567,6.2125,0.3023255813953488,http://www.group15_KD_tr_onto/275,Deelen,275,52.056,5.873,70,123,0,64,224
159,http://www.group15_KD_tr_onto/WWW,Winterswijk West railway station,WWW,51.9744,6.70361,0.08695652173913043,http://www.group15_KD_tr_onto/275,Deelen,275,52.056,5.873,70,123,0,64,224
160,http://www.group15_KD_tr_onto/WW,Winterswijk railway station,WW,51.9675,6.71556,0.16666666666666666,http://www.group15_KD_tr_onto/275,Deelen,275,52.056,5.873,70,123,0,64,224
161,http://www.group15_KD_tr_onto/ZA,Zetten-Andelst railway station,ZA,51.9194,5.72306,0.21875,http://www.group15_KD_tr_onto/275,Deelen,275,52.056,5.873,70,123,0,64,224
162,http://www.group15_KD_tr_onto/ZP,Zutphen railway station,ZP,52.1444,6.19389,0.6150234741784038,http://www.group15_KD_tr_onto/275,Deelen,275,52.056,5.873,70,123,0,64,224
163,http://www.group15_KD_tr_onto/ZV,Zevenaar railway station,ZV,51.9231,6.07278,0.5272727272727272,http://www.group15_KD_tr_onto/275,Deelen,275,52.056,5.873,70,123,0,64,224
164,http://www.group15_KD_tr_onto/ASN,Assen railway station,ASN,52.9917,6.57056,0.9738562091503268,http://www.group15_KD_tr_onto/280,Eelde,280,53.125,6.585,90,124,0,70,231
165,http://www.group15_KD_tr_onto/BF,Baflo railway station,BF,53.3608,6.51833,1.3623188405797102,http://www.group15_KD_tr_onto/280,Eelde,280,53.125,6.585,90,124,0,70,231
166,http://www.group15_KD_tr_onto/BL,Beilen railway station,BL,52.8547,6.52083,1.2567567567567568,http://www.group15_KD_tr_onto/280,Eelde,280,53.125,6.585,90,124,0,70,231
167,http://www.group15_KD_tr_onto/DLN,Dalen railway station,DLN,52.6944,6.75806,0.46808510638297873,http://www.group15_KD_tr_onto/280,Eelde,280,53.125,6.585,90,124,0,70,231
168,http://www.group15_KD_tr_onto/EMNZ,Emmen Zuid railway station,EMNZ,52.7489,6.87472,0.35365853658536583,http://www.group15_KD_tr_onto/280,Eelde,280,53.125,6.585,90,124,0,70,231
169,http://www.group15_KD_tr_onto/EMN,Emmen railway station,EMN,52.7903,6.89917,0.2682926829268293,http://www.group15_KD_tr_onto/280,Eelde,280,53.125,6.585,90,124,0,70,231
170,http://www.group15_KD_tr_onto/GBG,Gramsbergen railway station,GBG,52.6094,6.67583,0.9361702127659575,http://www.group15_KD_tr_onto/280,Eelde,280,53.125,6.585,90,124,0,70,231
171,http://www.group15_KD_tr_onto/GK,Grijpskerk railway station,GK,53.2556,6.31056,0.5303030303030303,http://www.group15_KD_tr_onto/280,Eelde,280,53.125,6.585,90,124,0,70,231
172,http://www.group15_KD_tr_onto/GN,Groningen railway station,GN,53.2106,6.56472,0.9966887417218543,http://www.group15_KD_tr_onto/280,Eelde,280,53.125,6.585,90,124,0,70,231
173,http://www.group15_KD_tr_onto/HDB,Hardenberg railway station,HDB,52.5722,6.62778,0.3813559322033898,http://www.group15_KD_tr_onto/280,Eelde,280,53.125,6.585,90,124,0,70,231
174,http://www.group15_KD_tr_onto/HGV,Hoogeveen railway station,HGV,52.7333,6.4725,0.7439024390243902,http://www.group15_KD_tr_onto/280,Eelde,280,53.125,6.585,90,124,0,70,231
175,http://www.group15_KD_tr_onto/HRN,Haren (NL) railway station,HRN,53.175,6.61778,1.131578947368421,http://www.group15_KD_tr_onto/280,Eelde,280,53.125,6.585,90,124,0,70,231
176,http://www.group15_KD_tr_onto/KW,Kropswolde railway station,KW,53.1617,6.72139,1.0,http://www.group15_KD_tr_onto/280,Eelde,280,53.125,6.585,90,124,0,70,231
177,http://www.group15_KD_tr_onto/NA,Nieuw Amsterdam railway station,NA,52.7186,6.84861,0.4868421052631579,http://www.group15_KD_tr_onto/280,Eelde,280,53.125,6.585,90,124,0,70,231
178,http://www.group15_KD_tr_onto/NSCH,Bad Nieuweschans railway station,NSCH,53.1842,7.19944,1.5897435897435896,http://www.group15_KD_tr_onto/280,Eelde,280,53.125,6.585,90,124,0,70,231
179,http://www.group15_KD_tr_onto/SWK,Steenwijk railway station,SWK,52.7908,6.11611,0.4726027397260274,http://www.group15_KD_tr_onto/280,Eelde,280,53.125,6.585,90,124,0,70,231
180,http://www.group15_KD_tr_onto/VDM,Veendam railway station,VDM,53.1036,6.88472,0.5757575757575758,http://www.group15_KD_tr_onto/280,Eelde,280,53.125,6.585,90,124,0,70,231
181,http://www.group15_KD_tr_onto/VD,Coevorden railway station,VD,52.6631,6.73556,0.4492753623188406,http://www.group15_KD_tr_onto/280,Eelde,280,53.125,6.585,90,124,0,70,231
182,http://www.group15_KD_tr_onto/BGN,Bergen op Zoom railway station,BGN,51.4947,4.29611,0.6915887850467289,http://www.group15_KD_tr_onto/340,Woensdrecht,340,51.449,4.342,60,123,0,64,233
183,http://www.group15_KD_tr_onto/KBD,Krabbendijke railway station,KBD,51.4333,4.11694,0.88,http://www.group15_KD_tr_onto/340,Woensdrecht,340,51.449,4.342,60,123,0,64,233
184,http://www.group15_KD_tr_onto/KRG,Kruiningen-Yerseke railway station,KRG,51.4653,4.03694,0.6533333333333333,http://www.group15_KD_tr_onto/340,Woensdrecht,340,51.449,4.342,60,123,0,64,233
185,http://www.group15_KD_tr_onto/ODB,Oudenbosch railway station,ODB,51.5881,4.53361,0.11594202898550725,http://www.group15_KD_tr_onto/340,Woensdrecht,340,51.449,4.342,60,123,0,64,233
186,http://www.group15_KD_tr_onto/RB,Rilland-Bath railway station,RB,51.4222,4.16111,0.88,http://www.group15_KD_tr_onto/340,Woensdrecht,340,51.449,4.342,60,123,0,64,233
187,http://www.group15_KD_tr_onto/RSD,Roosendaal railway station,RSD,51.5403,4.45889,1.1483516483516483,http://www.group15_KD_tr_onto/340,Woensdrecht,340,51.449,4.342,60,123,0,64,233
188,http://www.group15_KD_tr_onto/BSKS,Boskoop Snijdelwijk railway station,BSKS,52.0676,4.6462,0.03076923076923077,http://www.group15_KD_tr_onto/344,Rotterdam,344,51.962,4.447,70,133,-1,69,235
189,http://www.group15_KD_tr_onto/CPS,Capelle Schollevaar railway station,CPS,51.9533,4.58417,0.4230769230769231,http://www.group15_KD_tr_onto/344,Rotterdam,344,51.962,4.447,70,133,-1,69,235
190,http://www.group15_KD_tr_onto/DT,Rotterdam Delftsche Poort railway station,DT,51.9253,4.47361,1.2078651685393258,http://www.group15_KD_tr_onto/344,Rotterdam,344,51.962,4.447,70,133,-1,69,235
191,http://www.group15_KD_tr_onto/EC,Dordrecht railway station,EC,51.8075,4.66778,0.5774647887323944,http://www.group15_KD_tr_onto/344,Rotterdam,344,51.962,4.447,70,133,-1,69,235
192,http://www.group15_KD_tr_onto/GD,Gouda railway station,GD,52.0175,4.70556,0.12321428571428572,http://www.group15_KD_tr_onto/344,Rotterdam,344,51.962,4.447,70,133,-1,69,235
193,http://www.group15_KD_tr_onto/GVMW,Den Haag Moerwijk railway station,GVMW,52.0533,4.30861,0.6906474820143885,http://www.group15_KD_tr_onto/344,Rotterdam,344,51.962,4.447,70,133,-1,69,235
194,http://www.group15_KD_tr_onto/NWK,Nieuwerkerk aan den IJssel railway station,NWK,51.9653,4.61694,0.41025641025641024,http://www.group15_KD_tr_onto/344,Rotterdam,344,51.962,4.447,70,133,-1,69,235
195,http://www.group15_KD_tr_onto/RLB,Rotterdam Lombardijen railway station,RLB,51.8797,4.53111,0.3423913043478261,http://www.group15_KD_tr_onto/344,Rotterdam,344,51.962,4.447,70,133,-1,69,235
196,http://www.group15_KD_tr_onto/RSW,Rijswijk railway station,RSW,52.0394,4.31972,0.7050359712230215,http://www.group15_KD_tr_onto/344,Rotterdam,344,51.962,4.447,70,133,-1,69,235
197,http://www.group15_KD_tr_onto/RTA,Rotterdam Alexander station,RTA,51.9519,4.55278,0.31718061674008813,http://www.group15_KD_tr_onto/344,Rotterdam,344,51.962,4.447,70,133,-1,69,235
198,http://www.group15_KD_tr_onto/RTB,Rotterdam Blaak station,RTB,51.92,4.48917,0.6214511041009464,http://www.group15_KD_tr_onto/344,Rotterdam,344,51.962,4.447,70,133,-1,69,235
199,http://www.group15_KD_tr_onto/RTD,Rotterdam Centraal station,RTD,51.9244,4.46944,1.2587519025875191,http://www.group15_KD_tr_onto/344,Rotterdam,344,51.962,4.447,70,133,-1,69,235
200,http://www.group15_KD_tr_onto/RTN,Rotterdam Noord railway station,RTN,51.9422,4.48139,0.7948717948717948,http://www.group15_KD_tr_onto/344,Rotterdam,344,51.962,4.447,70,133,-1,69,235
201,http://www.group15_KD_tr_onto/RTZ,Rotterdam Zuid railway station,RTZ,51.9094,4.50944,0.358695652173913,http://www.group15_KD_tr_onto/344,Rotterdam,344,51.962,4.447,70,133,-1,69,235
202,http://www.group15_KD_tr_onto/SDM,Schiedam Centrum station,SDM,51.9219,4.41,0.8072727272727273,http://www.group15_KD_tr_onto/344,Rotterdam,344,51.962,4.447,70,133,-1,69,235
203,http://www.group15_KD_tr_onto/SDT,Sliedrecht Baanhoek railway station,SDT,51.8297,4.74333,1.066350710900474,http://www.group15_KD_tr_onto/344,Rotterdam,344,51.962,4.447,70,133,-1,69,235
204,http://www.group15_KD_tr_onto/YPB,Den Haag Ypenburg railway station,YPB,52.0592,4.38972,0.17054263565891473,http://www.group15_KD_tr_onto/344,Rotterdam,344,51.962,4.447,70,133,-1,69,235
205,http://www.group15_KD_tr_onto/ZTM,Lansingerland-Zoetermeer railway station,ZTM,52.0394,4.52556,0.17054263565891473,http://www.group15_KD_tr_onto/344,Rotterdam,344,51.962,4.447,70,133,-1,69,235
206,http://www.group15_KD_tr_onto/ZWD,Zwijndrecht railway station,ZWD,51.8147,4.64222,0.3423913043478261,http://www.group15_KD_tr_onto/344,Rotterdam,344,51.962,4.447,70,133,-1,69,235
207,http://www.group15_KD_tr_onto/BD,Breda railway station,BD,51.595,4.78,2.2371134020618557,http://www.group15_KD_tr_onto/350,Gilze-Rijen,350,51.566,4.936,50,124,0,65,224
208,http://www.group15_KD_tr_onto/BHDV,Boven Hardinxveld railway station,BHDV,51.8319,4.87472,0.8720379146919431,http://www.group15_KD_tr_onto/350,Gilze-Rijen,350,51.566,4.936,50,124,0,65,224
209,http://www.group15_KD_tr_onto/ETN,Etten-Leur railway station,ETN,51.5753,4.63694,0.8311688311688312,http://www.group15_KD_tr_onto/350,Gilze-Rijen,350,51.566,4.936,50,124,0,65,224
210,http://www.group15_KD_tr_onto/GND,Hardinxveld-Giessendam railway station,GND,51.8303,4.83528,1.146919431279621,http://www.group15_KD_tr_onto/350,Gilze-Rijen,350,51.566,4.936,50,124,0,65,224
211,http://www.group15_KD_tr_onto/GR,Gorinchem railway station,GR,51.8336,4.9675,0.7527472527472527,http://www.group15_KD_tr_onto/350,Gilze-Rijen,350,51.566,4.936,50,124,0,65,224
212,http://www.group15_KD_tr_onto/GZ,Gilze-Rijen railway station,GZ,51.5839,4.925,1.0789473684210527,http://www.group15_KD_tr_onto/350,Gilze-Rijen,350,51.566,4.936,50,124,0,65,224
213,http://www.group15_KD_tr_onto/OT,Oisterwijk railway station,OT,51.5822,5.19444,0.15942028985507245,http://www.group15_KD_tr_onto/350,Gilze-Rijen,350,51.566,4.936,50,124,0,65,224
214,http://www.group15_KD_tr_onto/TBR,Tilburg Reeshof railway station,TBR,51.5739,4.99278,1.144736842105263,http://www.group15_KD_tr_onto/350,Gilze-Rijen,350,51.566,4.936,50,124,0,65,224
215,http://www.group15_KD_tr_onto/TBU,Tilburg Universiteit railway station,TBU,51.5653,5.05139,0.7363636363636363,http://www.group15_KD_tr_onto/350,Gilze-Rijen,350,51.566,4.936,50,124,0,65,224
216,http://www.group15_KD_tr_onto/TB,Tilburg railway station,TB,51.5606,5.08278,0.9041095890410958,http://www.group15_KD_tr_onto/350,Gilze-Rijen,350,51.566,4.936,50,124,0,65,224
217,http://www.group15_KD_tr_onto/ZLW,Lage Zwaluwe railway station,ZLW,51.6906,4.66333,0.6986301369863014,http://www.group15_KD_tr_onto/350,Gilze-Rijen,350,51.566,4.936,50,124,0,65,224
218,http://www.group15_KD_tr_onto/ZVB,Zevenbergen railway station,ZVB,51.6414,4.60972,0.43478260869565216,http://www.group15_KD_tr_onto/350,Gilze-Rijen,350,51.566,4.936,50,124,0,65,224
219,http://www.group15_KD_tr_onto/BET,Best railway station,BET,51.5097,5.38889,0.2585034013605442,http://www.group15_KD_tr_onto/370,Eindhoven,370,51.451,5.377,60,122,0,65,223
220,http://www.group15_KD_tr_onto/BMR,Boxmeer railway station,BMR,51.6444,5.93944,0.1935483870967742,http://www.group15_KD_tr_onto/370,Eindhoven,370,51.451,5.377,60,122,0,65,223
221,http://www.group15_KD_tr_onto/BR,Blerick railway station,BR,51.3725,6.155,0.6797385620915033,http://www.group15_KD_tr_onto/370,Eindhoven,370,51.451,5.377,60,122,0,65,223
222,http://www.group15_KD_tr_onto/BTL,Boxtel railway station,BTL,51.5844,5.31889,0.23129251700680273,http://www.group15_KD_tr_onto/370,Eindhoven,370,51.451,5.377,60,122,0,65,223
223,http://www.group15_KD_tr_onto/DN,Deurne railway station,DN,51.4558,5.78833,1.5566037735849056,http://www.group15_KD_tr_onto/370,Eindhoven,370,51.451,5.377,60,122,0,65,223
224,http://www.group15_KD_tr_onto/EHS,Eindhoven Stadion railway station,EHS,51.443,5.46731,0.2653061224489796,http://www.group15_KD_tr_onto/370,Eindhoven,370,51.451,5.377,60,122,0,65,223
225,http://www.group15_KD_tr_onto/EHV,Eindhoven Centraal railway station,EHV,51.4428,5.48028,1.0968660968660968,http://www.group15_KD_tr_onto/370,Eindhoven,370,51.451,5.377,60,122,0,65,223
226,http://www.group15_KD_tr_onto/GP,Geldrop railway station,GP,51.42,5.55111,0.13432835820895522,http://www.group15_KD_tr_onto/370,Eindhoven,370,51.451,5.377,60,122,0,65,223
227,http://www.group15_KD_tr_onto/HMH,Helmond 't Hout railway station,HMH,51.4678,5.63083,0.6417910447761194,http://www.group15_KD_tr_onto/370,Eindhoven,370,51.451,5.377,60,122,0,65,223
228,http://www.group15_KD_tr_onto/HM,Helmond railway station,HM,51.4756,5.66167,1.1571428571428573,http://www.group15_KD_tr_onto/370,Eindhoven,370,51.451,5.377,60,122,0,65,223
229,http://www.group15_KD_tr_onto/HRT,Horst-Sevenum railway station,HRT,51.4267,6.04194,1.082191780821918,http://www.group15_KD_tr_onto/370,Eindhoven,370,51.451,5.377,60,122,0,65,223
230,http://www.group15_KD_tr_onto/HT,'s-Hertogenbosch railway station,HT,51.69,5.29333,0.8053333333333333,http://www.group15_KD_tr_onto/370,Eindhoven,370,51.451,5.377,60,122,0,65,223
231,http://www.group15_KD_tr_onto/HZ,Heeze railway station,HZ,51.385,5.56944,1.4210526315789473,http://www.group15_KD_tr_onto/370,Eindhoven,370,51.451,5.377,60,122,0,65,223
232,http://www.group15_KD_tr_onto/MZ,Maarheeze railway station,MZ,51.3039,5.63028,0.13432835820895522,http://www.group15_KD_tr_onto/370,Eindhoven,370,51.451,5.377,60,122,0,65,223
233,http://www.group15_KD_tr_onto/OW,Oss West railway station,OW,51.7581,5.50611,0.425,http://www.group15_KD_tr_onto/370,Eindhoven,370,51.451,5.377,60,122,0,65,223
234,http://www.group15_KD_tr_onto/O,Oss railway station,O,51.7653,5.53167,0.7012987012987013,http://www.group15_KD_tr_onto/370,Eindhoven,370,51.451,5.377,60,122,0,65,223
235,http://www.group15_KD_tr_onto/RS,Rosmalen railway station,RS,51.715,5.36889,0.45,http://www.group15_KD_tr_onto/370,Eindhoven,370,51.451,5.377,60,122,0,65,223
236,http://www.group15_KD_tr_onto/TG,Tegelen railway station,TG,51.3411,6.14333,1.0921052631578947,http://www.group15_KD_tr_onto/370,Eindhoven,370,51.451,5.377,60,122,0,65,223
237,http://www.group15_KD_tr_onto/VG,Vught railway station,VG,51.6547,5.29194,0.3717948717948718,http://www.group15_KD_tr_onto/370,Eindhoven,370,51.451,5.377,60,122,0,65,223
238,http://www.group15_KD_tr_onto/VLB,Vierlingsbeek railway station,VLB,51.5922,5.99667,0.3870967741935484,http://www.group15_KD_tr_onto/370,Eindhoven,370,51.451,5.377,60,122,0,65,223
239,http://www.group15_KD_tr_onto/VL,Venlo railway station,VL,51.3647,6.17139,0.5338345864661654,http://www.group15_KD_tr_onto/370,Eindhoven,370,51.451,5.377,60,122,0,65,223
240,http://www.group15_KD_tr_onto/VRY,Venray railway station,VRY,51.5264,6.01417,0.4854368932038835,http://www.group15_KD_tr_onto/370,Eindhoven,370,51.451,5.377,60,122,0,65,223
241,http://www.group15_KD_tr_onto/WT,Weert railway station,WT,51.2486,5.7025,0.6134969325153374,http://www.group15_KD_tr_onto/370,Eindhoven,370,51.451,5.377,60,122,0,65,223
242,http://www.group15_KD_tr_onto/CVM,Chevremont railway station,CVM,50.8758,6.05944,0.5441176470588235,http://www.group15_KD_tr_onto/380,Maastricht,380,50.906,5.762,50,125,0,68,226
243,http://www.group15_KD_tr_onto/EDN,Eijsden railway station,EDN,50.772,5.71004,4.083333333333333,http://www.group15_KD_tr_onto/380,Maastricht,380,50.906,5.762,50,125,0,68,226
244,http://www.group15_KD_tr_onto/EGH,Eygelshoven railway station,EGH,50.8903,6.04556,0.38235294117647056,http://www.group15_KD_tr_onto/380,Maastricht,380,50.906,5.762,50,125,0,68,226
245,http://www.group15_KD_tr_onto/GLN,Geleen Oost railway station,GLN,50.9672,5.84306,0.9705882352941176,http://www.group15_KD_tr_onto/380,Maastricht,380,50.906,5.762,50,125,0,68,226
246,http://www.group15_KD_tr_onto/HB,Hoensbroek railway station,HB,50.9053,5.93111,1.2058823529411764,http://www.group15_KD_tr_onto/380,Maastricht,380,50.906,5.762,50,125,0,68,226
247,http://www.group15_KD_tr_onto/HRLW,Heerlen Woonboulevard railway station,HRLW,50.8961,5.95278,0.42105263157894735,http://www.group15_KD_tr_onto/380,Maastricht,380,50.906,5.762,50,125,0,68,226
248,http://www.group15_KD_tr_onto/HRL,Heerlen railway station,HRL,50.8908,5.97472,0.6914893617021277,http://www.group15_KD_tr_onto/380,Maastricht,380,50.906,5.762,50,125,0,68,226
249,http://www.group15_KD_tr_onto/KMR,Klimmen-Ransdaal railway station,KMR,50.8667,5.89056,0.4025974025974026,http://www.group15_KD_tr_onto/380,Maastricht,380,50.906,5.762,50,125,0,68,226
250,http://www.group15_KD_tr_onto/KRD,Kerkrade Centrum railway station,KRD,50.8614,6.0575,0.7058823529411765,http://www.group15_KD_tr_onto/380,Maastricht,380,50.906,5.762,50,125,0,68,226
251,http://www.group15_KD_tr_onto/LG,Landgraaf railway station,LG,50.8964,6.02,0.9716981132075472,http://www.group15_KD_tr_onto/380,Maastricht,380,50.906,5.762,50,125,0,68,226
252,http://www.group15_KD_tr_onto/MT,Maastricht railway station,MT,50.85,5.70528,1.2025862068965518,http://www.group15_KD_tr_onto/380,Maastricht,380,50.906,5.762,50,125,0,68,226
253,http://www.group15_KD_tr_onto/NH,Nuth railway station,NH,50.9197,5.8925,1.0294117647058822,http://www.group15_KD_tr_onto/380,Maastricht,380,50.906,5.762,50,125,0,68,226
254,http://www.group15_KD_tr_onto/RM,Roermond railway station,RM,51.1933,5.99472,0.6600985221674877,http://www.group15_KD_tr_onto/380,Maastricht,380,50.906,5.762,50,125,0,68,226
255,http://www.group15_KD_tr_onto/RV,Reuver railway station,RV,51.2831,6.07944,1.0263157894736843,http://www.group15_KD_tr_onto/380,Maastricht,380,50.906,5.762,50,125,0,68,226
256,http://www.group15_KD_tr_onto/SBK,Spaubeek railway station,SBK,50.9431,5.84972,1.3088235294117647,http://www.group15_KD_tr_onto/380,Maastricht,380,50.906,5.762,50,125,0,68,226
257,http://www.group15_KD_tr_onto/SM,Swalmen railway station,SM,51.2358,6.0325,0.34210526315789475,http://www.group15_KD_tr_onto/380,Maastricht,380,50.906,5.762,50,125,0,68,226
258,http://www.group15_KD_tr_onto/SN,Schinnen railway station,SN,50.9386,5.87611,1.2647058823529411,http://www.group15_KD_tr_onto/380,Maastricht,380,50.906,5.762,50,125,0,68,226
259,http://www.group15_KD_tr_onto/SRN,Susteren railway station,SRN,51.0608,5.86278,0.5492957746478874,http://www.group15_KD_tr_onto/380,Maastricht,380,50.906,5.762,50,125,0,68,226
260,http://www.group15_KD_tr_onto/STD,Sittard railway station,STD,51.0011,5.85833,0.6375,http://www.group15_KD_tr_onto/380,Maastricht,380,50.906,5.762,50,125,0,68,226
261,http://www.group15_KD_tr_onto/VDL,Voerendaal railway station,VDL,50.8867,5.92944,0.35526315789473684,http://www.group15_KD_tr_onto/380,Maastricht,380,50.906,5.762,50,125,0,68,226
