,station,station_name,station_code,ts_lat,ts_long,delay,ws,ws_name,ws_code,ws_lat,ws_long,windspeed,mean_temp,percipitation,visibility,wind_direction
0,http://www.group15_KD_tr_onto/AMR,Alkmaar railway station,AMR,52.6378,4.74056,0.675392670157068,http://www.group15_KD_tr_onto/235,De Kooy,235,52.928,4.781,50,168,55,50,212
1,http://www.group15_KD_tr_onto/ANA,Anna Paulowna railway station,ANA,52.8669,4.81111,0.4,http://www.group15_KD_tr_onto/235,De Kooy,235,52.928,4.781,50,168,55,50,212
2,http://www.group15_KD_tr_onto/HDRZ,Den Helder Zuid railway station,HDRZ,52.9331,4.76389,0.425,http://www.group15_KD_tr_onto/235,De Kooy,235,52.928,4.781,50,168,55,50,212
3,http://www.group15_KD_tr_onto/HDR,Den Helder railway station,HDR,52.9564,4.76083,0.55,http://www.group15_KD_tr_onto/235,De Kooy,235,52.928,4.781,50,168,55,50,212
4,http://www.group15_KD_tr_onto/HWD,Heerhugowaard railway station,HWD,52.67,4.82361,0.25,http://www.group15_KD_tr_onto/235,De Kooy,235,52.928,4.781,50,168,55,50,212
5,http://www.group15_KD_tr_onto/OBD,Obdam railway station,OBD,52.6781,4.90833,0.6212121212121212,http://www.group15_KD_tr_onto/235,De Kooy,235,52.928,4.781,50,168,55,50,212
6,http://www.group15_KD_tr_onto/SGN,Schagen railway station,SGN,52.7861,4.80528,0.36585365853658536,http://www.group15_KD_tr_onto/235,De Kooy,235,52.928,4.781,50,168,55,50,212
7,http://www.group15_KD_tr_onto/AC,Abcoude railway station,AC,52.2744,4.98222,0.1791044776119403,http://www.group15_KD_tr_onto/240,Schiphol,240,52.318,4.79,80,167,21,58,204
8,http://www.group15_KD_tr_onto/AMPO,Almere Poort railway station,AMPO,52.3428,5.15194,0.3073394495412844,http://www.group15_KD_tr_onto/240,Schiphol,240,52.318,4.79,80,167,21,58,204
9,http://www.group15_KD_tr_onto/ASA,Amsterdam Amstel station,ASA,52.3464,4.91778,0.25225225225225223,http://www.group15_KD_tr_onto/240,Schiphol,240,52.318,4.79,80,167,21,58,204
10,http://www.group15_KD_tr_onto/ASB,Amsterdam Bijlmer ArenA station,ASB,52.3131,4.94611,0.2640845070422535,http://www.group15_KD_tr_onto/240,Schiphol,240,52.318,4.79,80,167,21,58,204
11,http://www.group15_KD_tr_onto/ASDL,Amsterdam Lelylaan station,ASDL,52.3572,4.83389,0.5560344827586207,http://www.group15_KD_tr_onto/240,Schiphol,240,52.318,4.79,80,167,21,58,204
12,http://www.group15_KD_tr_onto/ASDM,Amsterdam Muiderpoort railway station,ASDM,52.3608,4.93111,0.4166666666666667,http://www.group15_KD_tr_onto/240,Schiphol,240,52.318,4.79,80,167,21,58,204
13,http://www.group15_KD_tr_onto/ASDZ,Amsterdam Zuid station,ASDZ,52.3389,4.87306,0.3723404255319149,http://www.group15_KD_tr_onto/240,Schiphol,240,52.318,4.79,80,167,21,58,204
14,http://www.group15_KD_tr_onto/ASD,Amsterdam Centraal station,ASD,52.3783,4.9,1.216117216117216,http://www.group15_KD_tr_onto/240,Schiphol,240,52.318,4.79,80,167,21,58,204
15,http://www.group15_KD_tr_onto/ASSP,Amsterdam Science Park railway station,ASSP,52.3525,4.94861,0.6298701298701299,http://www.group15_KD_tr_onto/240,Schiphol,240,52.318,4.79,80,167,21,58,204
16,http://www.group15_KD_tr_onto/ASS,Amsterdam Sloterdijk station,ASS,52.3892,4.83806,0.530635838150289,http://www.group15_KD_tr_onto/240,Schiphol,240,52.318,4.79,80,167,21,58,204
17,http://www.group15_KD_tr_onto/BLL,Bloemendaal railway station,BLL,52.4042,4.6275,1.051948051948052,http://www.group15_KD_tr_onto/240,Schiphol,240,52.318,4.79,80,167,21,58,204
18,http://www.group15_KD_tr_onto/BV,Beverwijk railway station,BV,52.4783,4.65611,0.7623762376237624,http://www.group15_KD_tr_onto/240,Schiphol,240,52.318,4.79,80,167,21,58,204
19,http://www.group15_KD_tr_onto/CAS,Castricum railway station,CAS,52.5456,4.65889,0.5545851528384279,http://www.group15_KD_tr_onto/240,Schiphol,240,52.318,4.79,80,167,21,58,204
20,http://www.group15_KD_tr_onto/DMNZ,Diemen Zuid station,DMNZ,52.3303,4.95639,0.5298507462686567,http://www.group15_KD_tr_onto/240,Schiphol,240,52.318,4.79,80,167,21,58,204
21,http://www.group15_KD_tr_onto/DMN,Diemen railway station,DMN,52.3453,4.96694,0.525974025974026,http://www.group15_KD_tr_onto/240,Schiphol,240,52.318,4.79,80,167,21,58,204
22,http://www.group15_KD_tr_onto/HAD,Heemstede-Aerdenhout railway station,HAD,52.3597,4.60694,0.40444444444444444,http://www.group15_KD_tr_onto/240,Schiphol,240,52.318,4.79,80,167,21,58,204
23,http://www.group15_KD_tr_onto/HFD,Hoofddorp railway station,HFD,52.2933,4.7,0.6095617529880478,http://www.group15_KD_tr_onto/240,Schiphol,240,52.318,4.79,80,167,21,58,204
24,http://www.group15_KD_tr_onto/HIL,Hillegom railway station,HIL,52.3028,4.56583,0.35443037974683544,http://www.group15_KD_tr_onto/240,Schiphol,240,52.318,4.79,80,167,21,58,204
25,http://www.group15_KD_tr_onto/HK,Heemskerk railway station,HK,52.4947,4.68611,0.8181818181818182,http://www.group15_KD_tr_onto/240,Schiphol,240,52.318,4.79,80,167,21,58,204
26,http://www.group15_KD_tr_onto/HLMS,Haarlem Spaarnwoude railway station,HLMS,52.3828,4.67111,1.1842105263157894,http://www.group15_KD_tr_onto/240,Schiphol,240,52.318,4.79,80,167,21,58,204
27,http://www.group15_KD_tr_onto/HLM,Haarlem railway station,HLM,52.3878,4.63889,0.5742857142857143,http://www.group15_KD_tr_onto/240,Schiphol,240,52.318,4.79,80,167,21,58,204
28,http://www.group15_KD_tr_onto/HLO,Heiloo railway station,HLO,52.6,4.70083,0.5754189944134078,http://www.group15_KD_tr_onto/240,Schiphol,240,52.318,4.79,80,167,21,58,204
29,http://www.group15_KD_tr_onto/HWZB,Halfweg-Zwanenburg railway station,HWZB,52.3847,4.75167,0.8881578947368421,http://www.group15_KD_tr_onto/240,Schiphol,240,52.318,4.79,80,167,21,58,204
30,http://www.group15_KD_tr_onto/NVP,Nieuw-Vennep railway station,NVP,52.2597,4.64556,0.6814814814814815,http://www.group15_KD_tr_onto/240,Schiphol,240,52.318,4.79,80,167,21,58,204
31,http://www.group15_KD_tr_onto/OVN,Overveen railway station,OVN,52.3908,4.60778,0.9868421052631579,http://www.group15_KD_tr_onto/240,Schiphol,240,52.318,4.79,80,167,21,58,204
32,http://www.group15_KD_tr_onto/PMR,Purmerend railway station,PMR,52.5033,4.95417,0.4155844155844156,http://www.group15_KD_tr_onto/240,Schiphol,240,52.318,4.79,80,167,21,58,204
33,http://www.group15_KD_tr_onto/PMW,Purmerend Weidevenne railway station,PMW,52.4967,4.93667,0.5064935064935064,http://www.group15_KD_tr_onto/240,Schiphol,240,52.318,4.79,80,167,21,58,204
34,http://www.group15_KD_tr_onto/RAI,Amsterdam RAI station,RAI,52.3367,4.89056,0.40298507462686567,http://www.group15_KD_tr_onto/240,Schiphol,240,52.318,4.79,80,167,21,58,204
35,http://www.group15_KD_tr_onto/SHL,Schiphol Airport railway station,SHL,52.3089,4.76167,1.3231552162849873,http://www.group15_KD_tr_onto/240,Schiphol,240,52.318,4.79,80,167,21,58,204
36,http://www.group15_KD_tr_onto/SPTN,Santpoort Noord railway station,SPTN,52.4428,4.63917,0.6883116883116883,http://www.group15_KD_tr_onto/240,Schiphol,240,52.318,4.79,80,167,21,58,204
37,http://www.group15_KD_tr_onto/SPTZ,Santpoort Zuid railway station,SPTZ,52.4194,4.63167,0.6623376623376623,http://www.group15_KD_tr_onto/240,Schiphol,240,52.318,4.79,80,167,21,58,204
38,http://www.group15_KD_tr_onto/UTG,Uitgeest railway station,UTG,52.5219,4.70278,0.6827586206896552,http://www.group15_KD_tr_onto/240,Schiphol,240,52.318,4.79,80,167,21,58,204
39,http://www.group15_KD_tr_onto/WM,Wormerveer railway station,WM,52.4892,4.79278,0.4925373134328358,http://www.group15_KD_tr_onto/240,Schiphol,240,52.318,4.79,80,167,21,58,204
40,http://www.group15_KD_tr_onto/WP,Weesp railway station,WP,52.3131,5.04361,0.4409722222222222,http://www.group15_KD_tr_onto/240,Schiphol,240,52.318,4.79,80,167,21,58,204
41,http://www.group15_KD_tr_onto/ZD,Zaandam railway station,ZD,52.4389,4.81472,0.26646706586826346,http://www.group15_KD_tr_onto/240,Schiphol,240,52.318,4.79,80,167,21,58,204
42,http://www.group15_KD_tr_onto/ZVT,Zandvoort aan Zee railway station,ZVT,52.3758,4.53139,1.1842105263157894,http://www.group15_KD_tr_onto/240,Schiphol,240,52.318,4.79,80,167,21,58,204
43,http://www.group15_KD_tr_onto/AKL,Arkel railway station,AKL,51.8719,4.99278,0.32051282051282054,http://www.group15_KD_tr_onto/260,De Bilt,260,52.1,5.18,30,162,63,39,220
44,http://www.group15_KD_tr_onto/BHV,Bilthoven railway station,BHV,52.13,5.20528,0.40939597315436244,http://www.group15_KD_tr_onto/260,De Bilt,260,52.1,5.18,30,162,63,39,220
45,http://www.group15_KD_tr_onto/BKL,Breukelen railway station,BKL,52.17,4.99056,0.21637426900584794,http://www.group15_KD_tr_onto/260,De Bilt,260,52.1,5.18,30,162,63,39,220
46,http://www.group15_KD_tr_onto/BNK,Bunnik railway station,BNK,52.0631,5.19556,0.07086614173228346,http://www.group15_KD_tr_onto/260,De Bilt,260,52.1,5.18,30,162,63,39,220
47,http://www.group15_KD_tr_onto/BSD,Beesd railway station,BSD,51.8992,5.195,0.5769230769230769,http://www.group15_KD_tr_onto/260,De Bilt,260,52.1,5.18,30,162,63,39,220
48,http://www.group15_KD_tr_onto/CL,Culemborg railway station,CL,51.9472,5.22722,0.2980132450331126,http://www.group15_KD_tr_onto/260,De Bilt,260,52.1,5.18,30,162,63,39,220
49,http://www.group15_KD_tr_onto/DB,Driebergen-Zeist railway station,DB,52.065,5.26,0.15789473684210525,http://www.group15_KD_tr_onto/260,De Bilt,260,52.1,5.18,30,162,63,39,220
50,http://www.group15_KD_tr_onto/GDM,Geldermalsen railway station,GDM,51.8839,5.27083,0.3157894736842105,http://www.group15_KD_tr_onto/260,De Bilt,260,52.1,5.18,30,162,63,39,220
51,http://www.group15_KD_tr_onto/HTN,Houten railway station,HTN,52.0344,5.16778,0.287292817679558,http://www.group15_KD_tr_onto/260,De Bilt,260,52.1,5.18,30,162,63,39,220
52,http://www.group15_KD_tr_onto/LDM,Leerdam railway station,LDM,51.8947,5.09333,0.5512820512820513,http://www.group15_KD_tr_onto/260,De Bilt,260,52.1,5.18,30,162,63,39,220
53,http://www.group15_KD_tr_onto/MAS,Maarssen railway station,MAS,52.1358,5.03306,0.14285714285714285,http://www.group15_KD_tr_onto/260,De Bilt,260,52.1,5.18,30,162,63,39,220
54,http://www.group15_KD_tr_onto/UTLR,Utrecht Leidsche Rijn railway station,UTLR,52.0983,5.06917,0.22727272727272727,http://www.group15_KD_tr_onto/260,De Bilt,260,52.1,5.18,30,162,63,39,220
55,http://www.group15_KD_tr_onto/UTO,Utrecht Overvecht railway station,UTO,52.11,5.12528,0.23674911660777384,http://www.group15_KD_tr_onto/260,De Bilt,260,52.1,5.18,30,162,63,39,220
56,http://www.group15_KD_tr_onto/UTT,Utrecht Terwijde railway station,UTT,52.1008,5.04306,0.21212121212121213,http://www.group15_KD_tr_onto/260,De Bilt,260,52.1,5.18,30,162,63,39,220
57,http://www.group15_KD_tr_onto/UTVR,Utrecht Vaartsche Rijn railway station,UTVR,52.0786,5.1225,0.18181818181818182,http://www.group15_KD_tr_onto/260,De Bilt,260,52.1,5.18,30,162,63,39,220
58,http://www.group15_KD_tr_onto/UTZL,Utrecht Zuilen railway station,UTZL,52.1031,5.08917,0.11278195488721804,http://www.group15_KD_tr_onto/260,De Bilt,260,52.1,5.18,30,162,63,39,220
59,http://www.group15_KD_tr_onto/UT,Utrecht Centraal railway station,UT,52.0892,5.10972,0.3533834586466165,http://www.group15_KD_tr_onto/260,De Bilt,260,52.1,5.18,30,162,63,39,220
60,http://www.group15_KD_tr_onto/VTN,Vleuten railway station,VTN,52.1031,5.01194,0.2727272727272727,http://www.group15_KD_tr_onto/260,De Bilt,260,52.1,5.18,30,162,63,39,220
61,http://www.group15_KD_tr_onto/WD,Woerden railway station,WD,52.0847,4.89306,0.21033210332103322,http://www.group15_KD_tr_onto/260,De Bilt,260,52.1,5.18,30,162,63,39,220
62,http://www.group15_KD_tr_onto/ZBM,Zaltbommel railway station,ZBM,51.8069,5.26472,0.09210526315789473,http://www.group15_KD_tr_onto/260,De Bilt,260,52.1,5.18,30,162,63,39,220
63,http://www.group15_KD_tr_onto/BKF,Bovenkarspel Flora railway station,BKF,52.6958,5.25306,0.01282051282051282,http://www.group15_KD_tr_onto/267,Stavoren,267,52.898,5.384,70,174,17,64,221
64,http://www.group15_KD_tr_onto/BKG,Bovenkarspel-Grootebroek railway station,BKG,52.695,5.23611,0.02564102564102564,http://www.group15_KD_tr_onto/267,Stavoren,267,52.898,5.384,70,174,17,64,221
65,http://www.group15_KD_tr_onto/EKZ,Enkhuizen railway station,EKZ,52.6994,5.28778,0.0,http://www.group15_KD_tr_onto/267,Stavoren,267,52.898,5.384,70,174,17,64,221
66,http://www.group15_KD_tr_onto/HKS,Hoogkarspel railway station,HKS,52.6906,5.18389,0.0,http://www.group15_KD_tr_onto/267,Stavoren,267,52.898,5.384,70,174,17,64,221
67,http://www.group15_KD_tr_onto/HNP,Hindeloopen railway station,HNP,52.9461,5.42306,1.2608695652173914,http://www.group15_KD_tr_onto/267,Stavoren,267,52.898,5.384,70,174,17,64,221
68,http://www.group15_KD_tr_onto/HN,Hoorn railway station,HN,52.645,5.05472,0.3602150537634409,http://www.group15_KD_tr_onto/267,Stavoren,267,52.898,5.384,70,174,17,64,221
69,http://www.group15_KD_tr_onto/IJT,IJlst railway station,IJT,53.0147,5.61639,0.9565217391304348,http://www.group15_KD_tr_onto/267,Stavoren,267,52.898,5.384,70,174,17,64,221
70,http://www.group15_KD_tr_onto/KMW,Koudum-Molkwerum railway station,KMW,52.9022,5.41056,0.9130434782608695,http://www.group15_KD_tr_onto/267,Stavoren,267,52.898,5.384,70,174,17,64,221
71,http://www.group15_KD_tr_onto/STV,Stavoren railway station,STV,52.8867,5.35972,1.434782608695652,http://www.group15_KD_tr_onto/267,Stavoren,267,52.898,5.384,70,174,17,64,221
72,http://www.group15_KD_tr_onto/WK,Workum railway station,WK,52.9714,5.45583,1.326086956521739,http://www.group15_KD_tr_onto/267,Stavoren,267,52.898,5.384,70,174,17,64,221
73,http://www.group15_KD_tr_onto/WV,Wolvega railway station,WV,52.8797,6.00472,0.13432835820895522,http://www.group15_KD_tr_onto/267,Stavoren,267,52.898,5.384,70,174,17,64,221
74,http://www.group15_KD_tr_onto/ALMB,Almere Buiten railway station,ALMB,52.3942,5.27778,0.21674876847290642,http://www.group15_KD_tr_onto/269,Lelystad,269,52.458,5.52,60,165,27,61,225
75,http://www.group15_KD_tr_onto/ALMM,Almere Muziekwijk railway station,ALMM,52.3675,5.19028,0.27522935779816515,http://www.group15_KD_tr_onto/269,Lelystad,269,52.458,5.52,60,165,27,61,225
76,http://www.group15_KD_tr_onto/ALMO,Almere Oostvaarders railway station,ALMO,52.4028,5.3,0.2956521739130435,http://www.group15_KD_tr_onto/269,Lelystad,269,52.458,5.52,60,165,27,61,225
77,http://www.group15_KD_tr_onto/ALMP,Almere Parkwijk railway station,ALMP,52.3767,5.24444,0.21710526315789475,http://www.group15_KD_tr_onto/269,Lelystad,269,52.458,5.52,60,165,27,61,225
78,http://www.group15_KD_tr_onto/ALM,Almere Centrum railway station,ALM,52.375,5.21778,0.37175792507204614,http://www.group15_KD_tr_onto/269,Lelystad,269,52.458,5.52,60,165,27,61,225
79,http://www.group15_KD_tr_onto/DL,Dalfsen railway station,DL,52.4981,6.25861,0.5869565217391305,http://www.group15_KD_tr_onto/269,Lelystad,269,52.458,5.52,60,165,27,61,225
80,http://www.group15_KD_tr_onto/DRON,Dronten railway station,DRON,52.5339,5.72306,0.13333333333333333,http://www.group15_KD_tr_onto/269,Lelystad,269,52.458,5.52,60,165,27,61,225
81,http://www.group15_KD_tr_onto/EML,Ermelo railway station,EML,52.3011,5.61444,0.3013698630136986,http://www.group15_KD_tr_onto/269,Lelystad,269,52.458,5.52,60,165,27,61,225
82,http://www.group15_KD_tr_onto/HDE,'t Harde railway station,HDE,52.4089,5.89306,0.1780821917808219,http://www.group15_KD_tr_onto/269,Lelystad,269,52.458,5.52,60,165,27,61,225
83,http://www.group15_KD_tr_onto/HD,Harderwijk railway station,HD,52.3375,5.61972,0.2948717948717949,http://www.group15_KD_tr_onto/269,Lelystad,269,52.458,5.52,60,165,27,61,225
84,http://www.group15_KD_tr_onto/KPNZ,Kampen Zuid railway station,KPNZ,52.5342,5.91583,0.10666666666666667,http://www.group15_KD_tr_onto/269,Lelystad,269,52.458,5.52,60,165,27,61,225
85,http://www.group15_KD_tr_onto/KPN,Kampen railway station,KPN,52.5597,5.92111,0.3684210526315789,http://www.group15_KD_tr_onto/269,Lelystad,269,52.458,5.52,60,165,27,61,225
86,http://www.group15_KD_tr_onto/LLS,Lelystad Centrum railway station,LLS,52.5078,5.47333,0.23295454545454544,http://www.group15_KD_tr_onto/269,Lelystad,269,52.458,5.52,60,165,27,61,225
87,http://www.group15_KD_tr_onto/MP,Meppel railway station,MP,52.6914,6.1975,0.21634615384615385,http://www.group15_KD_tr_onto/269,Lelystad,269,52.458,5.52,60,165,27,61,225
88,http://www.group15_KD_tr_onto/NS,Nunspeet railway station,NS,52.3708,5.78472,0.273972602739726,http://www.group15_KD_tr_onto/269,Lelystad,269,52.458,5.52,60,165,27,61,225
89,http://www.group15_KD_tr_onto/OMN,Ommen railway station,OMN,52.5094,6.41694,1.3478260869565217,http://www.group15_KD_tr_onto/269,Lelystad,269,52.458,5.52,60,165,27,61,225
90,http://www.group15_KD_tr_onto/PT,Putten railway station,PT,52.2653,5.57611,0.1095890410958904,http://www.group15_KD_tr_onto/269,Lelystad,269,52.458,5.52,60,165,27,61,225
91,http://www.group15_KD_tr_onto/WZ,Wezep railway station,WZ,52.4536,6.00222,0.2191780821917808,http://www.group15_KD_tr_onto/269,Lelystad,269,52.458,5.52,60,165,27,61,225
92,http://www.group15_KD_tr_onto/ZLSH,Zwolle Stadshagen railway station,ZLSH,52.5279,6.05108,0.23684210526315788,http://www.group15_KD_tr_onto/269,Lelystad,269,52.458,5.52,60,165,27,61,225
93,http://www.group15_KD_tr_onto/ZL,Zwolle railway station,ZL,52.5053,6.09056,0.45916114790286977,http://www.group15_KD_tr_onto/269,Lelystad,269,52.458,5.52,60,165,27,61,225
94,http://www.group15_KD_tr_onto/AKM,Akkrum railway station,AKM,53.0472,5.84306,0.14925373134328357,http://www.group15_KD_tr_onto/270,Leeuwarden,270,53.224,5.752,30,166,249,58,182
95,http://www.group15_KD_tr_onto/DEI,Deinum railway station,DEI,53.1886,5.72778,0.17647058823529413,http://www.group15_KD_tr_onto/270,Leeuwarden,270,53.224,5.752,30,166,249,58,182
96,http://www.group15_KD_tr_onto/DRP,Dronryp railway station,DRP,53.1775,5.63472,0.07352941176470588,http://www.group15_KD_tr_onto/270,Leeuwarden,270,53.224,5.752,30,166,249,58,182
97,http://www.group15_KD_tr_onto/FN,Franeker railway station,FN,53.1822,5.54944,0.04411764705882353,http://www.group15_KD_tr_onto/270,Leeuwarden,270,53.224,5.752,30,166,249,58,182
98,http://www.group15_KD_tr_onto/GW,Grou-Jirnsum railway station,GW,53.0897,5.82222,0.1791044776119403,http://www.group15_KD_tr_onto/270,Leeuwarden,270,53.224,5.752,30,166,249,58,182
99,http://www.group15_KD_tr_onto/HDG,Hurdegaryp railway station,HDG,53.2186,5.93472,0.7352941176470589,http://www.group15_KD_tr_onto/270,Leeuwarden,270,53.224,5.752,30,166,249,58,182
100,http://www.group15_KD_tr_onto/HLG,Harlingen railway station,HLG,53.1703,5.42528,0.058823529411764705,http://www.group15_KD_tr_onto/270,Leeuwarden,270,53.224,5.752,30,166,249,58,182
101,http://www.group15_KD_tr_onto/HR,Heerenveen railway station,HR,52.9606,5.91528,0.18382352941176472,http://www.group15_KD_tr_onto/270,Leeuwarden,270,53.224,5.752,30,166,249,58,182
102,http://www.group15_KD_tr_onto/LW,Leeuwarden railway station,LW,53.1958,5.79111,0.27638190954773867,http://www.group15_KD_tr_onto/270,Leeuwarden,270,53.224,5.752,30,166,249,58,182
103,http://www.group15_KD_tr_onto/MG,Mantgum railway station,MG,53.1297,5.71333,0.4375,http://www.group15_KD_tr_onto/270,Leeuwarden,270,53.224,5.752,30,166,249,58,182
104,http://www.group15_KD_tr_onto/SK,Sneek railway station,SK,53.0322,5.65167,0.6545454545454545,http://www.group15_KD_tr_onto/270,Leeuwarden,270,53.224,5.752,30,166,249,58,182
105,http://www.group15_KD_tr_onto/AHPR,Arnhem Presikhaaf railway station,AHPR,51.9875,5.94306,0.34285714285714286,http://www.group15_KD_tr_onto/275,Deelen,275,52.056,5.873,50,158,39,32,235
106,http://www.group15_KD_tr_onto/AHZ,Arnhem Zuid railway station,AHZ,51.9542,5.85167,0.3383458646616541,http://www.group15_KD_tr_onto/275,Deelen,275,52.056,5.873,50,158,39,32,235
107,http://www.group15_KD_tr_onto/AML,Almelo railway station,AML,52.3572,6.655,0.6183206106870229,http://www.group15_KD_tr_onto/275,Deelen,275,52.056,5.873,50,158,39,32,235
108,http://www.group15_KD_tr_onto/APD,Apeldoorn railway station,APD,52.2092,5.96944,0.24725274725274726,http://www.group15_KD_tr_onto/275,Deelen,275,52.056,5.873,50,158,39,32,235
109,http://www.group15_KD_tr_onto/ATN,Aalten railway station,ATN,51.9211,6.57806,0.3918918918918919,http://www.group15_KD_tr_onto/275,Deelen,275,52.056,5.873,50,158,39,32,235
110,http://www.group15_KD_tr_onto/BMN,Brummen railway station,BMN,52.0908,6.14694,0.11428571428571428,http://www.group15_KD_tr_onto/275,Deelen,275,52.056,5.873,50,158,39,32,235
111,http://www.group15_KD_tr_onto/BN,Borne railway station,BN,52.2983,6.74833,0.3225806451612903,http://www.group15_KD_tr_onto/275,Deelen,275,52.056,5.873,50,158,39,32,235
112,http://www.group15_KD_tr_onto/CK,Cuijk railway station,CK,51.7264,5.87417,0.43037974683544306,http://www.group15_KD_tr_onto/275,Deelen,275,52.056,5.873,50,158,39,32,235
113,http://www.group15_KD_tr_onto/DA,Daarlerveen railway station,DA,52.4411,6.57583,0.6111111111111112,http://www.group15_KD_tr_onto/275,Deelen,275,52.056,5.873,50,158,39,32,235
114,http://www.group15_KD_tr_onto/DDN,Delden railway station,DDN,52.26,6.71444,0.9027777777777778,http://www.group15_KD_tr_onto/275,Deelen,275,52.056,5.873,50,158,39,32,235
115,http://www.group15_KD_tr_onto/DID,Didam railway station,DID,51.9333,6.13222,0.3178294573643411,http://www.group15_KD_tr_onto/275,Deelen,275,52.056,5.873,50,158,39,32,235
116,http://www.group15_KD_tr_onto/DR,Dieren railway station,DR,52.045,6.10333,0.3971631205673759,http://www.group15_KD_tr_onto/275,Deelen,275,52.056,5.873,50,158,39,32,235
117,http://www.group15_KD_tr_onto/DTC,Doetinchem railway station,DTC,51.9583,6.29528,0.47,http://www.group15_KD_tr_onto/275,Deelen,275,52.056,5.873,50,158,39,32,235
118,http://www.group15_KD_tr_onto/DVN,Duiven railway station,DVN,51.9433,6.01417,0.35658914728682173,http://www.group15_KD_tr_onto/275,Deelen,275,52.056,5.873,50,158,39,32,235
119,http://www.group15_KD_tr_onto/DV,Deventer railway station,DV,52.2572,6.16083,0.3551020408163265,http://www.group15_KD_tr_onto/275,Deelen,275,52.056,5.873,50,158,39,32,235
120,http://www.group15_KD_tr_onto/ED,Ede-Wageningen railway station,ED,52.0278,5.67194,0.18779342723004694,http://www.group15_KD_tr_onto/275,Deelen,275,52.056,5.873,50,158,39,32,235
121,http://www.group15_KD_tr_onto/EST,Elst railway station,EST,51.9167,5.855,0.4020618556701031,http://www.group15_KD_tr_onto/275,Deelen,275,52.056,5.873,50,158,39,32,235
122,http://www.group15_KD_tr_onto/ES,Enschede railway station,ES,52.2222,6.89,0.4122137404580153,http://www.group15_KD_tr_onto/275,Deelen,275,52.056,5.873,50,158,39,32,235
123,http://www.group15_KD_tr_onto/GBR,Glanerbrug railway station,GBR,52.2186,6.97389,0.0,http://www.group15_KD_tr_onto/275,Deelen,275,52.056,5.873,50,158,39,32,235
124,http://www.group15_KD_tr_onto/GDR,Gaanderen railway station,GDR,51.9308,6.34778,0.3918918918918919,http://www.group15_KD_tr_onto/275,Deelen,275,52.056,5.873,50,158,39,32,235
125,http://www.group15_KD_tr_onto/GO,Goor railway station,GO,52.2303,6.58444,0.7887323943661971,http://www.group15_KD_tr_onto/275,Deelen,275,52.056,5.873,50,158,39,32,235
126,http://www.group15_KD_tr_onto/HGL,Hengelo railway station,HGL,52.2619,6.79417,0.74,http://www.group15_KD_tr_onto/275,Deelen,275,52.056,5.873,50,158,39,32,235
127,http://www.group15_KD_tr_onto/HMN,Hemmen-Dodewaard railway station,HMN,51.9222,5.67333,0.421875,http://www.group15_KD_tr_onto/275,Deelen,275,52.056,5.873,50,158,39,32,235
128,http://www.group15_KD_tr_onto/HNO,Heino railway station,HNO,52.4269,6.22194,0.75,http://www.group15_KD_tr_onto/275,Deelen,275,52.056,5.873,50,158,39,32,235
129,http://www.group15_KD_tr_onto/HON,Holten railway station,HON,52.2839,6.42056,0.3888888888888889,http://www.group15_KD_tr_onto/275,Deelen,275,52.056,5.873,50,158,39,32,235
130,http://www.group15_KD_tr_onto/KLP,Veenendaal-De Klomp railway station,KLP,52.0458,5.57389,0.5769230769230769,http://www.group15_KD_tr_onto/275,Deelen,275,52.056,5.873,50,158,39,32,235
131,http://www.group15_KD_tr_onto/KTR,Kesteren railway station,KTR,51.9314,5.58361,0.40625,http://www.group15_KD_tr_onto/275,Deelen,275,52.056,5.873,50,158,39,32,235
132,http://www.group15_KD_tr_onto/LC,Lochem railway station,LC,52.1667,6.42583,0.5142857142857142,http://www.group15_KD_tr_onto/275,Deelen,275,52.056,5.873,50,158,39,32,235
133,http://www.group15_KD_tr_onto/LTV,Lichtenvoorde-Groenlo railway station,LTV,52.0117,6.59639,0.2318840579710145,http://www.group15_KD_tr_onto/275,Deelen,275,52.056,5.873,50,158,39,32,235
134,http://www.group15_KD_tr_onto/MMLH,Mook-Molenhoek railway station,MMLH,51.7647,5.8775,0.4567901234567901,http://www.group15_KD_tr_onto/275,Deelen,275,52.056,5.873,50,158,39,32,235
135,http://www.group15_KD_tr_onto/NM,Nijmegen railway station,NM,51.8433,5.8525,0.5394321766561514,http://www.group15_KD_tr_onto/275,Deelen,275,52.056,5.873,50,158,39,32,235
136,http://www.group15_KD_tr_onto/NVD,Nijverdal railway station,NVD,52.3656,6.47028,1.5294117647058822,http://www.group15_KD_tr_onto/275,Deelen,275,52.056,5.873,50,158,39,32,235
137,http://www.group15_KD_tr_onto/ODZ,Oldenzaal railway station,ODZ,52.3061,6.93361,0.4864864864864865,http://www.group15_KD_tr_onto/275,Deelen,275,52.056,5.873,50,158,39,32,235
138,http://www.group15_KD_tr_onto/OP,Opheusden railway station,OP,51.9261,5.63694,0.4375,http://www.group15_KD_tr_onto/275,Deelen,275,52.056,5.873,50,158,39,32,235
139,http://www.group15_KD_tr_onto/OST,Olst railway station,OST,52.335,6.11306,0.3698630136986301,http://www.group15_KD_tr_onto/275,Deelen,275,52.056,5.873,50,158,39,32,235
140,http://www.group15_KD_tr_onto/OTB,Oosterbeek railway station,OTB,51.9947,5.84,0.15151515151515152,http://www.group15_KD_tr_onto/275,Deelen,275,52.056,5.873,50,158,39,32,235
141,http://www.group15_KD_tr_onto/RAT,Raalte railway station,RAT,52.3908,6.27861,1.0392156862745099,http://www.group15_KD_tr_onto/275,Deelen,275,52.056,5.873,50,158,39,32,235
142,http://www.group15_KD_tr_onto/RHN,Rhenen railway station,RHN,51.9578,5.57833,0.05405405405405406,http://www.group15_KD_tr_onto/275,Deelen,275,52.056,5.873,50,158,39,32,235
143,http://www.group15_KD_tr_onto/RH,Rheden railway station,RH,52.0097,6.02972,0.15714285714285714,http://www.group15_KD_tr_onto/275,Deelen,275,52.056,5.873,50,158,39,32,235
144,http://www.group15_KD_tr_onto/RL,Ruurlo railway station,RL,52.0806,6.45,0.043478260869565216,http://www.group15_KD_tr_onto/275,Deelen,275,52.056,5.873,50,158,39,32,235
145,http://www.group15_KD_tr_onto/RSN,Rijssen railway station,RSN,52.3117,6.51917,0.2777777777777778,http://www.group15_KD_tr_onto/275,Deelen,275,52.056,5.873,50,158,39,32,235
146,http://www.group15_KD_tr_onto/RVS,Ravenstein railway station,RVS,51.7947,5.63722,0.5945945945945946,http://www.group15_KD_tr_onto/275,Deelen,275,52.056,5.873,50,158,39,32,235
147,http://www.group15_KD_tr_onto/TWL,Twello railway station,TWL,52.2381,6.1,0.12121212121212122,http://www.group15_KD_tr_onto/275,Deelen,275,52.056,5.873,50,158,39,32,235
148,http://www.group15_KD_tr_onto/VEM,Voorst-Empe railway station,VEM,52.1578,6.14278,0.0,http://www.group15_KD_tr_onto/275,Deelen,275,52.056,5.873,50,158,39,32,235
149,http://www.group15_KD_tr_onto/VHP,Vroomshoop railway station,VHP,52.4411,6.57583,0.4074074074074074,http://www.group15_KD_tr_onto/275,Deelen,275,52.056,5.873,50,158,39,32,235
150,http://www.group15_KD_tr_onto/VP,Arnhem Velperpoort railway station,VP,51.985,5.92,0.17142857142857143,http://www.group15_KD_tr_onto/275,Deelen,275,52.056,5.873,50,158,39,32,235
151,http://www.group15_KD_tr_onto/VSV,Varsseveld railway station,VSV,51.9369,6.45806,0.44594594594594594,http://www.group15_KD_tr_onto/275,Deelen,275,52.056,5.873,50,158,39,32,235
152,http://www.group15_KD_tr_onto/VZ,Vriezenveen railway station,VZ,52.4019,6.60028,0.5,http://www.group15_KD_tr_onto/275,Deelen,275,52.056,5.873,50,158,39,32,235
153,http://www.group15_KD_tr_onto/WC,Wijchen railway station,WC,51.8111,5.72944,0.4563106796116505,http://www.group15_KD_tr_onto/275,Deelen,275,52.056,5.873,50,158,39,32,235
154,http://www.group15_KD_tr_onto/WDN,Wierden railway station,WDN,52.3614,6.59111,0.3918918918918919,http://www.group15_KD_tr_onto/275,Deelen,275,52.056,5.873,50,158,39,32,235
155,http://www.group15_KD_tr_onto/WF,Wolfheze railway station,WF,52.0053,5.79361,0.06060606060606061,http://www.group15_KD_tr_onto/275,Deelen,275,52.056,5.873,50,158,39,32,235
156,http://www.group15_KD_tr_onto/WH,Wijhe railway station,WH,52.3936,6.14083,0.7534246575342466,http://www.group15_KD_tr_onto/275,Deelen,275,52.056,5.873,50,158,39,32,235
157,http://www.group15_KD_tr_onto/WL,Wehl railway station,WL,51.9567,6.2125,0.5348837209302325,http://www.group15_KD_tr_onto/275,Deelen,275,52.056,5.873,50,158,39,32,235
158,http://www.group15_KD_tr_onto/WWW,Winterswijk West railway station,WWW,51.9744,6.70361,0.043478260869565216,http://www.group15_KD_tr_onto/275,Deelen,275,52.056,5.873,50,158,39,32,235
159,http://www.group15_KD_tr_onto/WW,Winterswijk railway station,WW,51.9675,6.71556,0.5694444444444444,http://www.group15_KD_tr_onto/275,Deelen,275,52.056,5.873,50,158,39,32,235
160,http://www.group15_KD_tr_onto/ZA,Zetten-Andelst railway station,ZA,51.9194,5.72306,0.46875,http://www.group15_KD_tr_onto/275,Deelen,275,52.056,5.873,50,158,39,32,235
161,http://www.group15_KD_tr_onto/ZP,Zutphen railway station,ZP,52.1444,6.19389,0.419811320754717,http://www.group15_KD_tr_onto/275,Deelen,275,52.056,5.873,50,158,39,32,235
162,http://www.group15_KD_tr_onto/ZV,Zevenaar railway station,ZV,51.9231,6.07278,1.4181818181818182,http://www.group15_KD_tr_onto/275,Deelen,275,52.056,5.873,50,158,39,32,235
163,http://www.group15_KD_tr_onto/ASN,Assen railway station,ASN,52.9917,6.57056,0.3051948051948052,http://www.group15_KD_tr_onto/280,Eelde,280,53.125,6.585,40,160,64,1,192
164,http://www.group15_KD_tr_onto/BF,Baflo railway station,BF,53.3608,6.51833,0.4594594594594595,http://www.group15_KD_tr_onto/280,Eelde,280,53.125,6.585,40,160,64,1,192
165,http://www.group15_KD_tr_onto/BL,Beilen railway station,BL,52.8547,6.52083,0.33783783783783783,http://www.group15_KD_tr_onto/280,Eelde,280,53.125,6.585,40,160,64,1,192
166,http://www.group15_KD_tr_onto/DLN,Dalen railway station,DLN,52.6944,6.75806,0.3617021276595745,http://www.group15_KD_tr_onto/280,Eelde,280,53.125,6.585,40,160,64,1,192
167,http://www.group15_KD_tr_onto/EMNZ,Emmen Zuid railway station,EMNZ,52.7489,6.87472,0.34146341463414637,http://www.group15_KD_tr_onto/280,Eelde,280,53.125,6.585,40,160,64,1,192
168,http://www.group15_KD_tr_onto/EMN,Emmen railway station,EMN,52.7903,6.89917,0.6097560975609756,http://www.group15_KD_tr_onto/280,Eelde,280,53.125,6.585,40,160,64,1,192
169,http://www.group15_KD_tr_onto/GBG,Gramsbergen railway station,GBG,52.6094,6.67583,1.0,http://www.group15_KD_tr_onto/280,Eelde,280,53.125,6.585,40,160,64,1,192
170,http://www.group15_KD_tr_onto/GK,Grijpskerk railway station,GK,53.2556,6.31056,0.23529411764705882,http://www.group15_KD_tr_onto/280,Eelde,280,53.125,6.585,40,160,64,1,192
171,http://www.group15_KD_tr_onto/GN,Groningen railway station,GN,53.2106,6.56472,0.46534653465346537,http://www.group15_KD_tr_onto/280,Eelde,280,53.125,6.585,40,160,64,1,192
172,http://www.group15_KD_tr_onto/HDB,Hardenberg railway station,HDB,52.5722,6.62778,0.5932203389830508,http://www.group15_KD_tr_onto/280,Eelde,280,53.125,6.585,40,160,64,1,192
173,http://www.group15_KD_tr_onto/HGV,Hoogeveen railway station,HGV,52.7333,6.4725,0.13513513513513514,http://www.group15_KD_tr_onto/280,Eelde,280,53.125,6.585,40,160,64,1,192
174,http://www.group15_KD_tr_onto/HRN,Haren (NL) railway station,HRN,53.175,6.61778,0.3163265306122449,http://www.group15_KD_tr_onto/280,Eelde,280,53.125,6.585,40,160,64,1,192
175,http://www.group15_KD_tr_onto/KW,Kropswolde railway station,KW,53.1617,6.72139,0.7714285714285715,http://www.group15_KD_tr_onto/280,Eelde,280,53.125,6.585,40,160,64,1,192
176,http://www.group15_KD_tr_onto/NA,Nieuw Amsterdam railway station,NA,52.7186,6.84861,0.7368421052631579,http://www.group15_KD_tr_onto/280,Eelde,280,53.125,6.585,40,160,64,1,192
177,http://www.group15_KD_tr_onto/NSCH,Bad Nieuweschans railway station,NSCH,53.1842,7.19944,2.7435897435897436,http://www.group15_KD_tr_onto/280,Eelde,280,53.125,6.585,40,160,64,1,192
178,http://www.group15_KD_tr_onto/SWK,Steenwijk railway station,SWK,52.7908,6.11611,0.07352941176470588,http://www.group15_KD_tr_onto/280,Eelde,280,53.125,6.585,40,160,64,1,192
179,http://www.group15_KD_tr_onto/VDM,Veendam railway station,VDM,53.1036,6.88472,0.2571428571428571,http://www.group15_KD_tr_onto/280,Eelde,280,53.125,6.585,40,160,64,1,192
180,http://www.group15_KD_tr_onto/VD,Coevorden railway station,VD,52.6631,6.73556,0.3188405797101449,http://www.group15_KD_tr_onto/280,Eelde,280,53.125,6.585,40,160,64,1,192
181,http://www.group15_KD_tr_onto/BGN,Bergen op Zoom railway station,BGN,51.4947,4.29611,0.6909090909090909,http://www.group15_KD_tr_onto/340,Woensdrecht,340,51.449,4.342,70,161,71,59,250
182,http://www.group15_KD_tr_onto/KBD,Krabbendijke railway station,KBD,51.4333,4.11694,0.8607594936708861,http://www.group15_KD_tr_onto/340,Woensdrecht,340,51.449,4.342,70,161,71,59,250
183,http://www.group15_KD_tr_onto/KRG,Kruiningen-Yerseke railway station,KRG,51.4653,4.03694,0.620253164556962,http://www.group15_KD_tr_onto/340,Woensdrecht,340,51.449,4.342,70,161,71,59,250
184,http://www.group15_KD_tr_onto/ODB,Oudenbosch railway station,ODB,51.5881,4.53361,0.2753623188405797,http://www.group15_KD_tr_onto/340,Woensdrecht,340,51.449,4.342,70,161,71,59,250
185,http://www.group15_KD_tr_onto/RB,Rilland-Bath railway station,RB,51.4222,4.16111,0.7088607594936709,http://www.group15_KD_tr_onto/340,Woensdrecht,340,51.449,4.342,70,161,71,59,250
186,http://www.group15_KD_tr_onto/RSD,Roosendaal railway station,RSD,51.5403,4.45889,0.9234972677595629,http://www.group15_KD_tr_onto/340,Woensdrecht,340,51.449,4.342,70,161,71,59,250
187,http://www.group15_KD_tr_onto/BSKS,Boskoop Snijdelwijk railway station,BSKS,52.0676,4.6462,0.0,http://www.group15_KD_tr_onto/344,Rotterdam,344,51.962,4.447,50,169,111,59,224
188,http://www.group15_KD_tr_onto/CPS,Capelle Schollevaar railway station,CPS,51.9533,4.58417,0.23076923076923078,http://www.group15_KD_tr_onto/344,Rotterdam,344,51.962,4.447,50,169,111,59,224
189,http://www.group15_KD_tr_onto/DT,Rotterdam Delftsche Poort railway station,DT,51.9253,4.47361,0.912568306010929,http://www.group15_KD_tr_onto/344,Rotterdam,344,51.962,4.447,50,169,111,59,224
190,http://www.group15_KD_tr_onto/EC,Dordrecht railway station,EC,51.8075,4.66778,0.16216216216216217,http://www.group15_KD_tr_onto/344,Rotterdam,344,51.962,4.447,50,169,111,59,224
191,http://www.group15_KD_tr_onto/GD,Gouda railway station,GD,52.0175,4.70556,0.2449725776965265,http://www.group15_KD_tr_onto/344,Rotterdam,344,51.962,4.447,50,169,111,59,224
192,http://www.group15_KD_tr_onto/GVMW,Den Haag Moerwijk railway station,GVMW,52.0533,4.30861,0.5251798561151079,http://www.group15_KD_tr_onto/344,Rotterdam,344,51.962,4.447,50,169,111,59,224
193,http://www.group15_KD_tr_onto/NWK,Nieuwerkerk aan den IJssel railway station,NWK,51.9653,4.61694,0.19230769230769232,http://www.group15_KD_tr_onto/344,Rotterdam,344,51.962,4.447,50,169,111,59,224
194,http://www.group15_KD_tr_onto/RLB,Rotterdam Lombardijen railway station,RLB,51.8797,4.53111,0.4444444444444444,http://www.group15_KD_tr_onto/344,Rotterdam,344,51.962,4.447,50,169,111,59,224
195,http://www.group15_KD_tr_onto/RSW,Rijswijk railway station,RSW,52.0394,4.31972,0.4892086330935252,http://www.group15_KD_tr_onto/344,Rotterdam,344,51.962,4.447,50,169,111,59,224
196,http://www.group15_KD_tr_onto/RTA,Rotterdam Alexander station,RTA,51.9519,4.55278,0.40375586854460094,http://www.group15_KD_tr_onto/344,Rotterdam,344,51.962,4.447,50,169,111,59,224
197,http://www.group15_KD_tr_onto/RTB,Rotterdam Blaak station,RTB,51.92,4.48917,0.5239520958083832,http://www.group15_KD_tr_onto/344,Rotterdam,344,51.962,4.447,50,169,111,59,224
198,http://www.group15_KD_tr_onto/RTD,Rotterdam Centraal station,RTD,51.9244,4.46944,1.516329704510109,http://www.group15_KD_tr_onto/344,Rotterdam,344,51.962,4.447,50,169,111,59,224
199,http://www.group15_KD_tr_onto/RTN,Rotterdam Noord railway station,RTN,51.9422,4.48139,0.5384615384615384,http://www.group15_KD_tr_onto/344,Rotterdam,344,51.962,4.447,50,169,111,59,224
200,http://www.group15_KD_tr_onto/RTZ,Rotterdam Zuid railway station,RTZ,51.9094,4.50944,0.36507936507936506,http://www.group15_KD_tr_onto/344,Rotterdam,344,51.962,4.447,50,169,111,59,224
201,http://www.group15_KD_tr_onto/SDM,Schiedam Centrum station,SDM,51.9219,4.41,0.6923076923076923,http://www.group15_KD_tr_onto/344,Rotterdam,344,51.962,4.447,50,169,111,59,224
202,http://www.group15_KD_tr_onto/SDT,Sliedrecht Baanhoek railway station,SDT,51.8297,4.74333,0.48148148148148145,http://www.group15_KD_tr_onto/344,Rotterdam,344,51.962,4.447,50,169,111,59,224
203,http://www.group15_KD_tr_onto/YPB,Den Haag Ypenburg railway station,YPB,52.0592,4.38972,0.4074074074074074,http://www.group15_KD_tr_onto/344,Rotterdam,344,51.962,4.447,50,169,111,59,224
204,http://www.group15_KD_tr_onto/ZTM,Lansingerland-Zoetermeer railway station,ZTM,52.0394,4.52556,0.4148148148148148,http://www.group15_KD_tr_onto/344,Rotterdam,344,51.962,4.447,50,169,111,59,224
205,http://www.group15_KD_tr_onto/ZWD,Zwijndrecht railway station,ZWD,51.8147,4.64222,0.3915343915343915,http://www.group15_KD_tr_onto/344,Rotterdam,344,51.962,4.447,50,169,111,59,224
206,http://www.group15_KD_tr_onto/BD,Breda railway station,BD,51.595,4.78,1.4080267558528428,http://www.group15_KD_tr_onto/350,Gilze-Rijen,350,51.566,4.936,50,160,80,44,233
207,http://www.group15_KD_tr_onto/BHDV,Boven Hardinxveld railway station,BHDV,51.8319,4.87472,0.49382716049382713,http://www.group15_KD_tr_onto/350,Gilze-Rijen,350,51.566,4.936,50,160,80,44,233
208,http://www.group15_KD_tr_onto/ETN,Etten-Leur railway station,ETN,51.5753,4.63694,0.8666666666666667,http://www.group15_KD_tr_onto/350,Gilze-Rijen,350,51.566,4.936,50,160,80,44,233
209,http://www.group15_KD_tr_onto/GND,Hardinxveld-Giessendam railway station,GND,51.8303,4.83528,0.49382716049382713,http://www.group15_KD_tr_onto/350,Gilze-Rijen,350,51.566,4.936,50,160,80,44,233
210,http://www.group15_KD_tr_onto/GR,Gorinchem railway station,GR,51.8336,4.9675,0.5569620253164557,http://www.group15_KD_tr_onto/350,Gilze-Rijen,350,51.566,4.936,50,160,80,44,233
211,http://www.group15_KD_tr_onto/GZ,Gilze-Rijen railway station,GZ,51.5839,4.925,0.4358974358974359,http://www.group15_KD_tr_onto/350,Gilze-Rijen,350,51.566,4.936,50,160,80,44,233
212,http://www.group15_KD_tr_onto/OT,Oisterwijk railway station,OT,51.5822,5.19444,0.4057971014492754,http://www.group15_KD_tr_onto/350,Gilze-Rijen,350,51.566,4.936,50,160,80,44,233
213,http://www.group15_KD_tr_onto/TBR,Tilburg Reeshof railway station,TBR,51.5739,4.99278,0.47435897435897434,http://www.group15_KD_tr_onto/350,Gilze-Rijen,350,51.566,4.936,50,160,80,44,233
214,http://www.group15_KD_tr_onto/TBU,Tilburg Universiteit railway station,TBU,51.5653,5.05139,0.4732142857142857,http://www.group15_KD_tr_onto/350,Gilze-Rijen,350,51.566,4.936,50,160,80,44,233
215,http://www.group15_KD_tr_onto/TB,Tilburg railway station,TB,51.5606,5.08278,0.8239202657807309,http://www.group15_KD_tr_onto/350,Gilze-Rijen,350,51.566,4.936,50,160,80,44,233
216,http://www.group15_KD_tr_onto/ZLW,Lage Zwaluwe railway station,ZLW,51.6906,4.66333,0.43243243243243246,http://www.group15_KD_tr_onto/350,Gilze-Rijen,350,51.566,4.936,50,160,80,44,233
217,http://www.group15_KD_tr_onto/ZVB,Zevenbergen railway station,ZVB,51.6414,4.60972,0.6811594202898551,http://www.group15_KD_tr_onto/350,Gilze-Rijen,350,51.566,4.936,50,160,80,44,233
218,http://www.group15_KD_tr_onto/BET,Best railway station,BET,51.5097,5.38889,0.7046979865771812,http://www.group15_KD_tr_onto/370,Eindhoven,370,51.451,5.377,50,163,84,28,234
219,http://www.group15_KD_tr_onto/BMR,Boxmeer railway station,BMR,51.6444,5.93944,0.2597402597402597,http://www.group15_KD_tr_onto/370,Eindhoven,370,51.451,5.377,50,163,84,28,234
220,http://www.group15_KD_tr_onto/BR,Blerick railway station,BR,51.3725,6.155,0.6622516556291391,http://www.group15_KD_tr_onto/370,Eindhoven,370,51.451,5.377,50,163,84,28,234
221,http://www.group15_KD_tr_onto/BTL,Boxtel railway station,BTL,51.5844,5.31889,0.5290322580645161,http://www.group15_KD_tr_onto/370,Eindhoven,370,51.451,5.377,50,163,84,28,234
222,http://www.group15_KD_tr_onto/DN,Deurne railway station,DN,51.4558,5.78833,1.205607476635514,http://www.group15_KD_tr_onto/370,Eindhoven,370,51.451,5.377,50,163,84,28,234
223,http://www.group15_KD_tr_onto/EHS,Eindhoven Stadion railway station,EHS,51.443,5.46731,0.6577181208053692,http://www.group15_KD_tr_onto/370,Eindhoven,370,51.451,5.377,50,163,84,28,234
224,http://www.group15_KD_tr_onto/EHV,Eindhoven Centraal railway station,EHV,51.4428,5.48028,0.8837209302325582,http://www.group15_KD_tr_onto/370,Eindhoven,370,51.451,5.377,50,163,84,28,234
225,http://www.group15_KD_tr_onto/GP,Geldrop railway station,GP,51.42,5.55111,0.3283582089552239,http://www.group15_KD_tr_onto/370,Eindhoven,370,51.451,5.377,50,163,84,28,234
226,http://www.group15_KD_tr_onto/HMH,Helmond 't Hout railway station,HMH,51.4678,5.63083,0.6086956521739131,http://www.group15_KD_tr_onto/370,Eindhoven,370,51.451,5.377,50,163,84,28,234
227,http://www.group15_KD_tr_onto/HM,Helmond railway station,HM,51.4756,5.66167,0.9020979020979021,http://www.group15_KD_tr_onto/370,Eindhoven,370,51.451,5.377,50,163,84,28,234
228,http://www.group15_KD_tr_onto/HRT,Horst-Sevenum railway station,HRT,51.4267,6.04194,0.8378378378378378,http://www.group15_KD_tr_onto/370,Eindhoven,370,51.451,5.377,50,163,84,28,234
229,http://www.group15_KD_tr_onto/HT,'s-Hertogenbosch railway station,HT,51.69,5.29333,0.47785547785547783,http://www.group15_KD_tr_onto/370,Eindhoven,370,51.451,5.377,50,163,84,28,234
230,http://www.group15_KD_tr_onto/HZ,Heeze railway station,HZ,51.385,5.56944,1.4210526315789473,http://www.group15_KD_tr_onto/370,Eindhoven,370,51.451,5.377,50,163,84,28,234
231,http://www.group15_KD_tr_onto/MZ,Maarheeze railway station,MZ,51.3039,5.63028,0.14925373134328357,http://www.group15_KD_tr_onto/370,Eindhoven,370,51.451,5.377,50,163,84,28,234
232,http://www.group15_KD_tr_onto/OW,Oss West railway station,OW,51.7581,5.50611,0.3048780487804878,http://www.group15_KD_tr_onto/370,Eindhoven,370,51.451,5.377,50,163,84,28,234
233,http://www.group15_KD_tr_onto/O,Oss railway station,O,51.7653,5.53167,0.7806451612903226,http://www.group15_KD_tr_onto/370,Eindhoven,370,51.451,5.377,50,163,84,28,234
234,http://www.group15_KD_tr_onto/RS,Rosmalen railway station,RS,51.715,5.36889,0.3170731707317073,http://www.group15_KD_tr_onto/370,Eindhoven,370,51.451,5.377,50,163,84,28,234
235,http://www.group15_KD_tr_onto/TG,Tegelen railway station,TG,51.3411,6.14333,0.987012987012987,http://www.group15_KD_tr_onto/370,Eindhoven,370,51.451,5.377,50,163,84,28,234
236,http://www.group15_KD_tr_onto/VG,Vught railway station,VG,51.6547,5.29194,0.2375,http://www.group15_KD_tr_onto/370,Eindhoven,370,51.451,5.377,50,163,84,28,234
237,http://www.group15_KD_tr_onto/VLB,Vierlingsbeek railway station,VLB,51.5922,5.99667,0.6103896103896104,http://www.group15_KD_tr_onto/370,Eindhoven,370,51.451,5.377,50,163,84,28,234
238,http://www.group15_KD_tr_onto/VL,Venlo railway station,VL,51.3647,6.17139,0.5075757575757576,http://www.group15_KD_tr_onto/370,Eindhoven,370,51.451,5.377,50,163,84,28,234
239,http://www.group15_KD_tr_onto/VRY,Venray railway station,VRY,51.5264,6.01417,0.6493506493506493,http://www.group15_KD_tr_onto/370,Eindhoven,370,51.451,5.377,50,163,84,28,234
240,http://www.group15_KD_tr_onto/WT,Weert railway station,WT,51.2486,5.7025,0.5240963855421686,http://www.group15_KD_tr_onto/370,Eindhoven,370,51.451,5.377,50,163,84,28,234
241,http://www.group15_KD_tr_onto/CVM,Chevremont railway station,CVM,50.8758,6.05944,0.32894736842105265,http://www.group15_KD_tr_onto/380,Maastricht,380,50.906,5.762,40,164,23,61,226
242,http://www.group15_KD_tr_onto/EDN,Eijsden railway station,EDN,50.772,5.71004,2.2777777777777777,http://www.group15_KD_tr_onto/380,Maastricht,380,50.906,5.762,40,164,23,61,226
243,http://www.group15_KD_tr_onto/EGH,Eygelshoven railway station,EGH,50.8903,6.04556,0.13157894736842105,http://www.group15_KD_tr_onto/380,Maastricht,380,50.906,5.762,40,164,23,61,226
244,http://www.group15_KD_tr_onto/GLN,Geleen Oost railway station,GLN,50.9672,5.84306,0.3684210526315789,http://www.group15_KD_tr_onto/380,Maastricht,380,50.906,5.762,40,164,23,61,226
245,http://www.group15_KD_tr_onto/HB,Hoensbroek railway station,HB,50.9053,5.93111,0.6052631578947368,http://www.group15_KD_tr_onto/380,Maastricht,380,50.906,5.762,40,164,23,61,226
246,http://www.group15_KD_tr_onto/HRLW,Heerlen Woonboulevard railway station,HRLW,50.8961,5.95278,0.34615384615384615,http://www.group15_KD_tr_onto/380,Maastricht,380,50.906,5.762,40,164,23,61,226
247,http://www.group15_KD_tr_onto/HRL,Heerlen railway station,HRL,50.8908,5.97472,0.36180904522613067,http://www.group15_KD_tr_onto/380,Maastricht,380,50.906,5.762,40,164,23,61,226
248,http://www.group15_KD_tr_onto/KMR,Klimmen-Ransdaal railway station,KMR,50.8667,5.89056,0.34615384615384615,http://www.group15_KD_tr_onto/380,Maastricht,380,50.906,5.762,40,164,23,61,226
249,http://www.group15_KD_tr_onto/KRD,Kerkrade Centrum railway station,KRD,50.8614,6.0575,0.34210526315789475,http://www.group15_KD_tr_onto/380,Maastricht,380,50.906,5.762,40,164,23,61,226
250,http://www.group15_KD_tr_onto/LG,Landgraaf railway station,LG,50.8964,6.02,0.3508771929824561,http://www.group15_KD_tr_onto/380,Maastricht,380,50.906,5.762,40,164,23,61,226
251,http://www.group15_KD_tr_onto/MT,Maastricht railway station,MT,50.85,5.70528,0.6125,http://www.group15_KD_tr_onto/380,Maastricht,380,50.906,5.762,40,164,23,61,226
252,http://www.group15_KD_tr_onto/NH,Nuth railway station,NH,50.9197,5.8925,0.42105263157894735,http://www.group15_KD_tr_onto/380,Maastricht,380,50.906,5.762,40,164,23,61,226
253,http://www.group15_KD_tr_onto/RM,Roermond railway station,RM,51.1933,5.99472,0.5741626794258373,http://www.group15_KD_tr_onto/380,Maastricht,380,50.906,5.762,40,164,23,61,226
254,http://www.group15_KD_tr_onto/RV,Reuver railway station,RV,51.2831,6.07944,0.961038961038961,http://www.group15_KD_tr_onto/380,Maastricht,380,50.906,5.762,40,164,23,61,226
255,http://www.group15_KD_tr_onto/SBK,Spaubeek railway station,SBK,50.9431,5.84972,0.6052631578947368,http://www.group15_KD_tr_onto/380,Maastricht,380,50.906,5.762,40,164,23,61,226
256,http://www.group15_KD_tr_onto/SM,Swalmen railway station,SM,51.2358,6.0325,0.19480519480519481,http://www.group15_KD_tr_onto/380,Maastricht,380,50.906,5.762,40,164,23,61,226
257,http://www.group15_KD_tr_onto/SN,Schinnen railway station,SN,50.9386,5.87611,0.6447368421052632,http://www.group15_KD_tr_onto/380,Maastricht,380,50.906,5.762,40,164,23,61,226
258,http://www.group15_KD_tr_onto/SRN,Susteren railway station,SRN,51.0608,5.86278,0.16216216216216217,http://www.group15_KD_tr_onto/380,Maastricht,380,50.906,5.762,40,164,23,61,226
259,http://www.group15_KD_tr_onto/STD,Sittard railway station,STD,51.0011,5.85833,0.3,http://www.group15_KD_tr_onto/380,Maastricht,380,50.906,5.762,40,164,23,61,226
260,http://www.group15_KD_tr_onto/VDL,Voerendaal railway station,VDL,50.8867,5.92944,0.32051282051282054,http://www.group15_KD_tr_onto/380,Maastricht,380,50.906,5.762,40,164,23,61,226
