,station,station_name,station_code,ts_lat,ts_long,delay,ws,ws_name,ws_code,ws_lat,ws_long,windspeed,mean_temp,percipitation,visibility,wind_direction
0,http://www.group15_KD_tr_onto/AMR,Alkmaar railway station,AMR,52.6378,4.74056,0.96875,http://www.group15_KD_tr_onto/235,De Kooy,235,52.928,4.781,70,36,6,3,200
1,http://www.group15_KD_tr_onto/ANA,Anna Paulowna railway station,ANA,52.8669,4.81111,1.962962962962963,http://www.group15_KD_tr_onto/235,De Kooy,235,52.928,4.781,70,36,6,3,200
2,http://www.group15_KD_tr_onto/HDRZ,Den Helder Zuid railway station,HDRZ,52.9331,4.76389,1.728395061728395,http://www.group15_KD_tr_onto/235,De Kooy,235,52.928,4.781,70,36,6,3,200
3,http://www.group15_KD_tr_onto/HDR,Den Helder railway station,HDR,52.9564,4.76083,3.024390243902439,http://www.group15_KD_tr_onto/235,De Kooy,235,52.928,4.781,70,36,6,3,200
4,http://www.group15_KD_tr_onto/HWD,Heerhugowaard railway station,HWD,52.67,4.82361,0.9455782312925171,http://www.group15_KD_tr_onto/235,De Kooy,235,52.928,4.781,70,36,6,3,200
5,http://www.group15_KD_tr_onto/OBD,Obdam railway station,OBD,52.6781,4.90833,0.3181818181818182,http://www.group15_KD_tr_onto/235,De Kooy,235,52.928,4.781,70,36,6,3,200
6,http://www.group15_KD_tr_onto/SGN,Schagen railway station,SGN,52.7861,4.80528,1.7160493827160495,http://www.group15_KD_tr_onto/235,De Kooy,235,52.928,4.781,70,36,6,3,200
7,http://www.group15_KD_tr_onto/AC,Abcoude railway station,AC,52.2744,4.98222,0.8296296296296296,http://www.group15_KD_tr_onto/240,Schiphol,240,52.318,4.79,60,27,8,8,180
8,http://www.group15_KD_tr_onto/AMPO,Almere Poort railway station,AMPO,52.3428,5.15194,0.591743119266055,http://www.group15_KD_tr_onto/240,Schiphol,240,52.318,4.79,60,27,8,8,180
9,http://www.group15_KD_tr_onto/ASA,Amsterdam Amstel station,ASA,52.3464,4.91778,1.2670623145400592,http://www.group15_KD_tr_onto/240,Schiphol,240,52.318,4.79,60,27,8,8,180
10,http://www.group15_KD_tr_onto/ASB,Amsterdam Bijlmer ArenA station,ASB,52.3131,4.94611,0.49283667621776506,http://www.group15_KD_tr_onto/240,Schiphol,240,52.318,4.79,60,27,8,8,180
11,http://www.group15_KD_tr_onto/ASDL,Amsterdam Lelylaan station,ASDL,52.3572,4.83389,0.712,http://www.group15_KD_tr_onto/240,Schiphol,240,52.318,4.79,60,27,8,8,180
12,http://www.group15_KD_tr_onto/ASDM,Amsterdam Muiderpoort railway station,ASDM,52.3608,4.93111,1.0173010380622838,http://www.group15_KD_tr_onto/240,Schiphol,240,52.318,4.79,60,27,8,8,180
13,http://www.group15_KD_tr_onto/ASDZ,Amsterdam Zuid station,ASDZ,52.3389,4.87306,0.572992700729927,http://www.group15_KD_tr_onto/240,Schiphol,240,52.318,4.79,60,27,8,8,180
14,http://www.group15_KD_tr_onto/ASD,Amsterdam Centraal station,ASD,52.3783,4.9,1.4233576642335766,http://www.group15_KD_tr_onto/240,Schiphol,240,52.318,4.79,60,27,8,8,180
15,http://www.group15_KD_tr_onto/ASSP,Amsterdam Science Park railway station,ASSP,52.3525,4.94861,1.0324675324675325,http://www.group15_KD_tr_onto/240,Schiphol,240,52.318,4.79,60,27,8,8,180
16,http://www.group15_KD_tr_onto/ASS,Amsterdam Sloterdijk station,ASS,52.3892,4.83806,1.012443438914027,http://www.group15_KD_tr_onto/240,Schiphol,240,52.318,4.79,60,27,8,8,180
17,http://www.group15_KD_tr_onto/BLL,Bloemendaal railway station,BLL,52.4042,4.6275,0.5194805194805194,http://www.group15_KD_tr_onto/240,Schiphol,240,52.318,4.79,60,27,8,8,180
18,http://www.group15_KD_tr_onto/BV,Beverwijk railway station,BV,52.4783,4.65611,0.45535714285714285,http://www.group15_KD_tr_onto/240,Schiphol,240,52.318,4.79,60,27,8,8,180
19,http://www.group15_KD_tr_onto/CAS,Castricum railway station,CAS,52.5456,4.65889,0.9533898305084746,http://www.group15_KD_tr_onto/240,Schiphol,240,52.318,4.79,60,27,8,8,180
20,http://www.group15_KD_tr_onto/DMNZ,Diemen Zuid station,DMNZ,52.3303,4.95639,0.5968992248062015,http://www.group15_KD_tr_onto/240,Schiphol,240,52.318,4.79,60,27,8,8,180
21,http://www.group15_KD_tr_onto/DMN,Diemen railway station,DMN,52.3453,4.96694,0.9155844155844156,http://www.group15_KD_tr_onto/240,Schiphol,240,52.318,4.79,60,27,8,8,180
22,http://www.group15_KD_tr_onto/HAD,Heemstede-Aerdenhout railway station,HAD,52.3597,4.60694,1.1552511415525115,http://www.group15_KD_tr_onto/240,Schiphol,240,52.318,4.79,60,27,8,8,180
23,http://www.group15_KD_tr_onto/HFD,Hoofddorp railway station,HFD,52.2933,4.7,0.5543071161048689,http://www.group15_KD_tr_onto/240,Schiphol,240,52.318,4.79,60,27,8,8,180
24,http://www.group15_KD_tr_onto/HIL,Hillegom railway station,HIL,52.3028,4.56583,0.8481012658227848,http://www.group15_KD_tr_onto/240,Schiphol,240,52.318,4.79,60,27,8,8,180
25,http://www.group15_KD_tr_onto/HK,Heemskerk railway station,HK,52.4947,4.68611,0.22077922077922077,http://www.group15_KD_tr_onto/240,Schiphol,240,52.318,4.79,60,27,8,8,180
26,http://www.group15_KD_tr_onto/HLMS,Haarlem Spaarnwoude railway station,HLMS,52.3828,4.67111,0.6644736842105263,http://www.group15_KD_tr_onto/240,Schiphol,240,52.318,4.79,60,27,8,8,180
27,http://www.group15_KD_tr_onto/HLM,Haarlem railway station,HLM,52.3878,4.63889,0.9014084507042254,http://www.group15_KD_tr_onto/240,Schiphol,240,52.318,4.79,60,27,8,8,180
28,http://www.group15_KD_tr_onto/HLO,Heiloo railway station,HLO,52.6,4.70083,1.1189189189189188,http://www.group15_KD_tr_onto/240,Schiphol,240,52.318,4.79,60,27,8,8,180
29,http://www.group15_KD_tr_onto/HWZB,Halfweg-Zwanenburg railway station,HWZB,52.3847,4.75167,0.5394736842105263,http://www.group15_KD_tr_onto/240,Schiphol,240,52.318,4.79,60,27,8,8,180
30,http://www.group15_KD_tr_onto/NVP,Nieuw-Vennep railway station,NVP,52.2597,4.64556,0.5454545454545454,http://www.group15_KD_tr_onto/240,Schiphol,240,52.318,4.79,60,27,8,8,180
31,http://www.group15_KD_tr_onto/OVN,Overveen railway station,OVN,52.3908,4.60778,0.75,http://www.group15_KD_tr_onto/240,Schiphol,240,52.318,4.79,60,27,8,8,180
32,http://www.group15_KD_tr_onto/PMR,Purmerend railway station,PMR,52.5033,4.95417,0.6506024096385542,http://www.group15_KD_tr_onto/240,Schiphol,240,52.318,4.79,60,27,8,8,180
33,http://www.group15_KD_tr_onto/PMW,Purmerend Weidevenne railway station,PMW,52.4967,4.93667,0.6626506024096386,http://www.group15_KD_tr_onto/240,Schiphol,240,52.318,4.79,60,27,8,8,180
34,http://www.group15_KD_tr_onto/RAI,Amsterdam RAI station,RAI,52.3367,4.89056,0.4453125,http://www.group15_KD_tr_onto/240,Schiphol,240,52.318,4.79,60,27,8,8,180
35,http://www.group15_KD_tr_onto/SHL,Schiphol Airport railway station,SHL,52.3089,4.76167,0.8534090909090909,http://www.group15_KD_tr_onto/240,Schiphol,240,52.318,4.79,60,27,8,8,180
36,http://www.group15_KD_tr_onto/SPTN,Santpoort Noord railway station,SPTN,52.4428,4.63917,0.11688311688311688,http://www.group15_KD_tr_onto/240,Schiphol,240,52.318,4.79,60,27,8,8,180
37,http://www.group15_KD_tr_onto/SPTZ,Santpoort Zuid railway station,SPTZ,52.4194,4.63167,0.15584415584415584,http://www.group15_KD_tr_onto/240,Schiphol,240,52.318,4.79,60,27,8,8,180
38,http://www.group15_KD_tr_onto/UTG,Uitgeest railway station,UTG,52.5219,4.70278,0.4452054794520548,http://www.group15_KD_tr_onto/240,Schiphol,240,52.318,4.79,60,27,8,8,180
39,http://www.group15_KD_tr_onto/WM,Wormerveer railway station,WM,52.4892,4.79278,1.0441176470588236,http://www.group15_KD_tr_onto/240,Schiphol,240,52.318,4.79,60,27,8,8,180
40,http://www.group15_KD_tr_onto/WP,Weesp railway station,WP,52.3131,5.04361,0.7446808510638298,http://www.group15_KD_tr_onto/240,Schiphol,240,52.318,4.79,60,27,8,8,180
41,http://www.group15_KD_tr_onto/ZD,Zaandam railway station,ZD,52.4389,4.81472,0.729106628242075,http://www.group15_KD_tr_onto/240,Schiphol,240,52.318,4.79,60,27,8,8,180
42,http://www.group15_KD_tr_onto/ZVT,Zandvoort aan Zee railway station,ZVT,52.3758,4.53139,1.0263157894736843,http://www.group15_KD_tr_onto/240,Schiphol,240,52.318,4.79,60,27,8,8,180
43,http://www.group15_KD_tr_onto/AKL,Arkel railway station,AKL,51.8719,4.99278,0.17333333333333334,http://www.group15_KD_tr_onto/260,De Bilt,260,52.1,5.18,40,23,6,10,174
44,http://www.group15_KD_tr_onto/BHV,Bilthoven railway station,BHV,52.13,5.20528,0.37583892617449666,http://www.group15_KD_tr_onto/260,De Bilt,260,52.1,5.18,40,23,6,10,174
45,http://www.group15_KD_tr_onto/BKL,Breukelen railway station,BKL,52.17,4.99056,0.7687861271676301,http://www.group15_KD_tr_onto/260,De Bilt,260,52.1,5.18,40,23,6,10,174
46,http://www.group15_KD_tr_onto/BNK,Bunnik railway station,BNK,52.0631,5.19556,0.53125,http://www.group15_KD_tr_onto/260,De Bilt,260,52.1,5.18,40,23,6,10,174
47,http://www.group15_KD_tr_onto/BSD,Beesd railway station,BSD,51.8992,5.195,0.32,http://www.group15_KD_tr_onto/260,De Bilt,260,52.1,5.18,40,23,6,10,174
48,http://www.group15_KD_tr_onto/CL,Culemborg railway station,CL,51.9472,5.22722,0.7647058823529411,http://www.group15_KD_tr_onto/260,De Bilt,260,52.1,5.18,40,23,6,10,174
49,http://www.group15_KD_tr_onto/DB,Driebergen-Zeist railway station,DB,52.065,5.26,1.5628415300546448,http://www.group15_KD_tr_onto/260,De Bilt,260,52.1,5.18,40,23,6,10,174
50,http://www.group15_KD_tr_onto/GDM,Geldermalsen railway station,GDM,51.8839,5.27083,0.8167539267015707,http://www.group15_KD_tr_onto/260,De Bilt,260,52.1,5.18,40,23,6,10,174
51,http://www.group15_KD_tr_onto/HTN,Houten railway station,HTN,52.0344,5.16778,0.37254901960784315,http://www.group15_KD_tr_onto/260,De Bilt,260,52.1,5.18,40,23,6,10,174
52,http://www.group15_KD_tr_onto/LDM,Leerdam railway station,LDM,51.8947,5.09333,0.26666666666666666,http://www.group15_KD_tr_onto/260,De Bilt,260,52.1,5.18,40,23,6,10,174
53,http://www.group15_KD_tr_onto/MAS,Maarssen railway station,MAS,52.1358,5.03306,0.6323529411764706,http://www.group15_KD_tr_onto/260,De Bilt,260,52.1,5.18,40,23,6,10,174
54,http://www.group15_KD_tr_onto/UTLR,Utrecht Leidsche Rijn railway station,UTLR,52.0983,5.06917,0.2047244094488189,http://www.group15_KD_tr_onto/260,De Bilt,260,52.1,5.18,40,23,6,10,174
55,http://www.group15_KD_tr_onto/UTO,Utrecht Overvecht railway station,UTO,52.11,5.12528,0.5848375451263538,http://www.group15_KD_tr_onto/260,De Bilt,260,52.1,5.18,40,23,6,10,174
56,http://www.group15_KD_tr_onto/UTT,Utrecht Terwijde railway station,UTT,52.1008,5.04306,0.15748031496062992,http://www.group15_KD_tr_onto/260,De Bilt,260,52.1,5.18,40,23,6,10,174
57,http://www.group15_KD_tr_onto/UTVR,Utrecht Vaartsche Rijn railway station,UTVR,52.0786,5.1225,0.375886524822695,http://www.group15_KD_tr_onto/260,De Bilt,260,52.1,5.18,40,23,6,10,174
58,http://www.group15_KD_tr_onto/UTZL,Utrecht Zuilen railway station,UTZL,52.1031,5.08917,0.4552238805970149,http://www.group15_KD_tr_onto/260,De Bilt,260,52.1,5.18,40,23,6,10,174
59,http://www.group15_KD_tr_onto/UT,Utrecht Centraal railway station,UT,52.0892,5.10972,0.8039568345323741,http://www.group15_KD_tr_onto/260,De Bilt,260,52.1,5.18,40,23,6,10,174
60,http://www.group15_KD_tr_onto/VTN,Vleuten railway station,VTN,52.1031,5.01194,0.2440944881889764,http://www.group15_KD_tr_onto/260,De Bilt,260,52.1,5.18,40,23,6,10,174
61,http://www.group15_KD_tr_onto/WD,Woerden railway station,WD,52.0847,4.89306,0.48314606741573035,http://www.group15_KD_tr_onto/260,De Bilt,260,52.1,5.18,40,23,6,10,174
62,http://www.group15_KD_tr_onto/ZBM,Zaltbommel railway station,ZBM,51.8069,5.26472,0.4868421052631579,http://www.group15_KD_tr_onto/260,De Bilt,260,52.1,5.18,40,23,6,10,174
63,http://www.group15_KD_tr_onto/BKF,Bovenkarspel Flora railway station,BKF,52.6958,5.25306,0.025974025974025976,http://www.group15_KD_tr_onto/267,Stavoren,267,52.898,5.384,80,29,13,10,189
64,http://www.group15_KD_tr_onto/BKG,Bovenkarspel-Grootebroek railway station,BKG,52.695,5.23611,0.06493506493506493,http://www.group15_KD_tr_onto/267,Stavoren,267,52.898,5.384,80,29,13,10,189
65,http://www.group15_KD_tr_onto/EKZ,Enkhuizen railway station,EKZ,52.6994,5.28778,0.0,http://www.group15_KD_tr_onto/267,Stavoren,267,52.898,5.384,80,29,13,10,189
66,http://www.group15_KD_tr_onto/HKS,Hoogkarspel railway station,HKS,52.6906,5.18389,0.025974025974025976,http://www.group15_KD_tr_onto/267,Stavoren,267,52.898,5.384,80,29,13,10,189
67,http://www.group15_KD_tr_onto/HNP,Hindeloopen railway station,HNP,52.9461,5.42306,0.06521739130434782,http://www.group15_KD_tr_onto/267,Stavoren,267,52.898,5.384,80,29,13,10,189
68,http://www.group15_KD_tr_onto/HN,Hoorn railway station,HN,52.645,5.05472,0.34554973821989526,http://www.group15_KD_tr_onto/267,Stavoren,267,52.898,5.384,80,29,13,10,189
69,http://www.group15_KD_tr_onto/IJT,IJlst railway station,IJT,53.0147,5.61639,0.06521739130434782,http://www.group15_KD_tr_onto/267,Stavoren,267,52.898,5.384,80,29,13,10,189
70,http://www.group15_KD_tr_onto/KMW,Koudum-Molkwerum railway station,KMW,52.9022,5.41056,0.15217391304347827,http://www.group15_KD_tr_onto/267,Stavoren,267,52.898,5.384,80,29,13,10,189
71,http://www.group15_KD_tr_onto/STV,Stavoren railway station,STV,52.8867,5.35972,0.0,http://www.group15_KD_tr_onto/267,Stavoren,267,52.898,5.384,80,29,13,10,189
72,http://www.group15_KD_tr_onto/WK,Workum railway station,WK,52.9714,5.45583,0.2391304347826087,http://www.group15_KD_tr_onto/267,Stavoren,267,52.898,5.384,80,29,13,10,189
73,http://www.group15_KD_tr_onto/WV,Wolvega railway station,WV,52.8797,6.00472,0.2318840579710145,http://www.group15_KD_tr_onto/267,Stavoren,267,52.898,5.384,80,29,13,10,189
74,http://www.group15_KD_tr_onto/ALMB,Almere Buiten railway station,ALMB,52.3942,5.27778,0.5694444444444444,http://www.group15_KD_tr_onto/269,Lelystad,269,52.458,5.52,50,21,4,14,191
75,http://www.group15_KD_tr_onto/ALMM,Almere Muziekwijk railway station,ALMM,52.3675,5.19028,0.6238532110091743,http://www.group15_KD_tr_onto/269,Lelystad,269,52.458,5.52,50,21,4,14,191
76,http://www.group15_KD_tr_onto/ALMO,Almere Oostvaarders railway station,ALMO,52.4028,5.3,0.47413793103448276,http://www.group15_KD_tr_onto/269,Lelystad,269,52.458,5.52,50,21,4,14,191
77,http://www.group15_KD_tr_onto/ALMP,Almere Parkwijk railway station,ALMP,52.3767,5.24444,0.506578947368421,http://www.group15_KD_tr_onto/269,Lelystad,269,52.458,5.52,50,21,4,14,191
78,http://www.group15_KD_tr_onto/ALM,Almere Centrum railway station,ALM,52.375,5.21778,0.7307692307692307,http://www.group15_KD_tr_onto/269,Lelystad,269,52.458,5.52,50,21,4,14,191
79,http://www.group15_KD_tr_onto/DL,Dalfsen railway station,DL,52.4981,6.25861,0.2894736842105263,http://www.group15_KD_tr_onto/269,Lelystad,269,52.458,5.52,50,21,4,14,191
80,http://www.group15_KD_tr_onto/DRON,Dronten railway station,DRON,52.5339,5.72306,0.30666666666666664,http://www.group15_KD_tr_onto/269,Lelystad,269,52.458,5.52,50,21,4,14,191
81,http://www.group15_KD_tr_onto/EML,Ermelo railway station,EML,52.3011,5.61444,0.47297297297297297,http://www.group15_KD_tr_onto/269,Lelystad,269,52.458,5.52,50,21,4,14,191
82,http://www.group15_KD_tr_onto/HDE,'t Harde railway station,HDE,52.4089,5.89306,0.1506849315068493,http://www.group15_KD_tr_onto/269,Lelystad,269,52.458,5.52,50,21,4,14,191
83,http://www.group15_KD_tr_onto/HD,Harderwijk railway station,HD,52.3375,5.61972,0.44871794871794873,http://www.group15_KD_tr_onto/269,Lelystad,269,52.458,5.52,50,21,4,14,191
84,http://www.group15_KD_tr_onto/KPNZ,Kampen Zuid railway station,KPNZ,52.5342,5.91583,0.26666666666666666,http://www.group15_KD_tr_onto/269,Lelystad,269,52.458,5.52,50,21,4,14,191
85,http://www.group15_KD_tr_onto/KPN,Kampen railway station,KPN,52.5597,5.92111,0.18421052631578946,http://www.group15_KD_tr_onto/269,Lelystad,269,52.458,5.52,50,21,4,14,191
86,http://www.group15_KD_tr_onto/LLS,Lelystad Centrum railway station,LLS,52.5078,5.47333,0.7433155080213903,http://www.group15_KD_tr_onto/269,Lelystad,269,52.458,5.52,50,21,4,14,191
87,http://www.group15_KD_tr_onto/MP,Meppel railway station,MP,52.6914,6.1975,0.36018957345971564,http://www.group15_KD_tr_onto/269,Lelystad,269,52.458,5.52,50,21,4,14,191
88,http://www.group15_KD_tr_onto/NS,Nunspeet railway station,NS,52.3708,5.78472,0.2876712328767123,http://www.group15_KD_tr_onto/269,Lelystad,269,52.458,5.52,50,21,4,14,191
89,http://www.group15_KD_tr_onto/OMN,Ommen railway station,OMN,52.5094,6.41694,1.0657894736842106,http://www.group15_KD_tr_onto/269,Lelystad,269,52.458,5.52,50,21,4,14,191
90,http://www.group15_KD_tr_onto/PT,Putten railway station,PT,52.2653,5.57611,0.25675675675675674,http://www.group15_KD_tr_onto/269,Lelystad,269,52.458,5.52,50,21,4,14,191
91,http://www.group15_KD_tr_onto/WZ,Wezep railway station,WZ,52.4536,6.00222,0.1643835616438356,http://www.group15_KD_tr_onto/269,Lelystad,269,52.458,5.52,50,21,4,14,191
92,http://www.group15_KD_tr_onto/ZLSH,Zwolle Stadshagen railway station,ZLSH,52.5279,6.05108,0.09210526315789473,http://www.group15_KD_tr_onto/269,Lelystad,269,52.458,5.52,50,21,4,14,191
93,http://www.group15_KD_tr_onto/ZL,Zwolle railway station,ZL,52.5053,6.09056,0.44155844155844154,http://www.group15_KD_tr_onto/269,Lelystad,269,52.458,5.52,50,21,4,14,191
94,http://www.group15_KD_tr_onto/AKM,Akkrum railway station,AKM,53.0472,5.84306,0.21739130434782608,http://www.group15_KD_tr_onto/270,Leeuwarden,270,53.224,5.752,60,22,21,4,191
95,http://www.group15_KD_tr_onto/DEI,Deinum railway station,DEI,53.1886,5.72778,0.14705882352941177,http://www.group15_KD_tr_onto/270,Leeuwarden,270,53.224,5.752,60,22,21,4,191
96,http://www.group15_KD_tr_onto/DRP,Dronryp railway station,DRP,53.1775,5.63472,0.08823529411764706,http://www.group15_KD_tr_onto/270,Leeuwarden,270,53.224,5.752,60,22,21,4,191
97,http://www.group15_KD_tr_onto/FN,Franeker railway station,FN,53.1822,5.54944,0.058823529411764705,http://www.group15_KD_tr_onto/270,Leeuwarden,270,53.224,5.752,60,22,21,4,191
98,http://www.group15_KD_tr_onto/GW,Grou-Jirnsum railway station,GW,53.0897,5.82222,0.2318840579710145,http://www.group15_KD_tr_onto/270,Leeuwarden,270,53.224,5.752,60,22,21,4,191
99,http://www.group15_KD_tr_onto/HDG,Hurdegaryp railway station,HDG,53.2186,5.93472,1.3529411764705883,http://www.group15_KD_tr_onto/270,Leeuwarden,270,53.224,5.752,60,22,21,4,191
100,http://www.group15_KD_tr_onto/HLG,Harlingen railway station,HLG,53.1703,5.42528,0.058823529411764705,http://www.group15_KD_tr_onto/270,Leeuwarden,270,53.224,5.752,60,22,21,4,191
101,http://www.group15_KD_tr_onto/HR,Heerenveen railway station,HR,52.9606,5.91528,0.21014492753623187,http://www.group15_KD_tr_onto/270,Leeuwarden,270,53.224,5.752,60,22,21,4,191
102,http://www.group15_KD_tr_onto/LW,Leeuwarden railway station,LW,53.1958,5.79111,0.6124401913875598,http://www.group15_KD_tr_onto/270,Leeuwarden,270,53.224,5.752,60,22,21,4,191
103,http://www.group15_KD_tr_onto/MG,Mantgum railway station,MG,53.1297,5.71333,0.6323529411764706,http://www.group15_KD_tr_onto/270,Leeuwarden,270,53.224,5.752,60,22,21,4,191
104,http://www.group15_KD_tr_onto/SK,Sneek railway station,SK,53.0322,5.65167,0.4153846153846154,http://www.group15_KD_tr_onto/270,Leeuwarden,270,53.224,5.752,60,22,21,4,191
105,http://www.group15_KD_tr_onto/AHPR,Arnhem Presikhaaf railway station,AHPR,51.9875,5.94306,0.6527777777777778,http://www.group15_KD_tr_onto/275,Deelen,275,52.056,5.873,40,13,6,6,176
106,http://www.group15_KD_tr_onto/AHZ,Arnhem Zuid railway station,AHZ,51.9542,5.85167,0.6408450704225352,http://www.group15_KD_tr_onto/275,Deelen,275,52.056,5.873,40,13,6,6,176
107,http://www.group15_KD_tr_onto/AML,Almelo railway station,AML,52.3572,6.655,0.7576923076923077,http://www.group15_KD_tr_onto/275,Deelen,275,52.056,5.873,40,13,6,6,176
108,http://www.group15_KD_tr_onto/APD,Apeldoorn railway station,APD,52.2092,5.96944,0.3389830508474576,http://www.group15_KD_tr_onto/275,Deelen,275,52.056,5.873,40,13,6,6,176
109,http://www.group15_KD_tr_onto/ATN,Aalten railway station,ATN,51.9211,6.57806,0.10810810810810811,http://www.group15_KD_tr_onto/275,Deelen,275,52.056,5.873,40,13,6,6,176
110,http://www.group15_KD_tr_onto/BMN,Brummen railway station,BMN,52.0908,6.14694,0.375,http://www.group15_KD_tr_onto/275,Deelen,275,52.056,5.873,40,13,6,6,176
111,http://www.group15_KD_tr_onto/BN,Borne railway station,BN,52.2983,6.74833,0.16129032258064516,http://www.group15_KD_tr_onto/275,Deelen,275,52.056,5.873,40,13,6,6,176
112,http://www.group15_KD_tr_onto/CK,Cuijk railway station,CK,51.7264,5.87417,0.16071428571428573,http://www.group15_KD_tr_onto/275,Deelen,275,52.056,5.873,40,13,6,6,176
113,http://www.group15_KD_tr_onto/DA,Daarlerveen railway station,DA,52.4411,6.57583,0.25925925925925924,http://www.group15_KD_tr_onto/275,Deelen,275,52.056,5.873,40,13,6,6,176
114,http://www.group15_KD_tr_onto/DDN,Delden railway station,DDN,52.26,6.71444,0.7638888888888888,http://www.group15_KD_tr_onto/275,Deelen,275,52.056,5.873,40,13,6,6,176
115,http://www.group15_KD_tr_onto/DID,Didam railway station,DID,51.9333,6.13222,0.10852713178294573,http://www.group15_KD_tr_onto/275,Deelen,275,52.056,5.873,40,13,6,6,176
116,http://www.group15_KD_tr_onto/DR,Dieren railway station,DR,52.045,6.10333,0.6390532544378699,http://www.group15_KD_tr_onto/275,Deelen,275,52.056,5.873,40,13,6,6,176
117,http://www.group15_KD_tr_onto/DTC,Doetinchem railway station,DTC,51.9583,6.29528,0.22,http://www.group15_KD_tr_onto/275,Deelen,275,52.056,5.873,40,13,6,6,176
118,http://www.group15_KD_tr_onto/DVN,Duiven railway station,DVN,51.9433,6.01417,0.24806201550387597,http://www.group15_KD_tr_onto/275,Deelen,275,52.056,5.873,40,13,6,6,176
119,http://www.group15_KD_tr_onto/DV,Deventer railway station,DV,52.2572,6.16083,0.7715355805243446,http://www.group15_KD_tr_onto/275,Deelen,275,52.056,5.873,40,13,6,6,176
120,http://www.group15_KD_tr_onto/ED,Ede-Wageningen railway station,ED,52.0278,5.67194,0.9236363636363636,http://www.group15_KD_tr_onto/275,Deelen,275,52.056,5.873,40,13,6,6,176
121,http://www.group15_KD_tr_onto/EST,Elst railway station,EST,51.9167,5.855,0.6551724137931034,http://www.group15_KD_tr_onto/275,Deelen,275,52.056,5.873,40,13,6,6,176
122,http://www.group15_KD_tr_onto/ES,Enschede railway station,ES,52.2222,6.89,0.6030534351145038,http://www.group15_KD_tr_onto/275,Deelen,275,52.056,5.873,40,13,6,6,176
123,http://www.group15_KD_tr_onto/GBR,Glanerbrug railway station,GBR,52.2186,6.97389,0.0,http://www.group15_KD_tr_onto/275,Deelen,275,52.056,5.873,40,13,6,6,176
124,http://www.group15_KD_tr_onto/GDR,Gaanderen railway station,GDR,51.9308,6.34778,0.13513513513513514,http://www.group15_KD_tr_onto/275,Deelen,275,52.056,5.873,40,13,6,6,176
125,http://www.group15_KD_tr_onto/GO,Goor railway station,GO,52.2303,6.58444,0.5774647887323944,http://www.group15_KD_tr_onto/275,Deelen,275,52.056,5.873,40,13,6,6,176
126,http://www.group15_KD_tr_onto/HGL,Hengelo railway station,HGL,52.2619,6.79417,0.7980769230769231,http://www.group15_KD_tr_onto/275,Deelen,275,52.056,5.873,40,13,6,6,176
127,http://www.group15_KD_tr_onto/HMN,Hemmen-Dodewaard railway station,HMN,51.9222,5.67333,0.59375,http://www.group15_KD_tr_onto/275,Deelen,275,52.056,5.873,40,13,6,6,176
128,http://www.group15_KD_tr_onto/HNO,Heino railway station,HNO,52.4269,6.22194,0.039473684210526314,http://www.group15_KD_tr_onto/275,Deelen,275,52.056,5.873,40,13,6,6,176
129,http://www.group15_KD_tr_onto/HON,Holten railway station,HON,52.2839,6.42056,0.5138888888888888,http://www.group15_KD_tr_onto/275,Deelen,275,52.056,5.873,40,13,6,6,176
130,http://www.group15_KD_tr_onto/KBK,Klarenbeek railway station,KBK,52.1778,6.08417,0.046875,http://www.group15_KD_tr_onto/275,Deelen,275,52.056,5.873,40,13,6,6,176
131,http://www.group15_KD_tr_onto/KLP,Veenendaal-De Klomp railway station,KLP,52.0458,5.57389,0.5697674418604651,http://www.group15_KD_tr_onto/275,Deelen,275,52.056,5.873,40,13,6,6,176
132,http://www.group15_KD_tr_onto/KTR,Kesteren railway station,KTR,51.9314,5.58361,0.53125,http://www.group15_KD_tr_onto/275,Deelen,275,52.056,5.873,40,13,6,6,176
133,http://www.group15_KD_tr_onto/LC,Lochem railway station,LC,52.1667,6.42583,0.5428571428571428,http://www.group15_KD_tr_onto/275,Deelen,275,52.056,5.873,40,13,6,6,176
134,http://www.group15_KD_tr_onto/LTV,Lichtenvoorde-Groenlo railway station,LTV,52.0117,6.59639,0.15942028985507245,http://www.group15_KD_tr_onto/275,Deelen,275,52.056,5.873,40,13,6,6,176
135,http://www.group15_KD_tr_onto/MMLH,Mook-Molenhoek railway station,MMLH,51.7647,5.8775,0.3125,http://www.group15_KD_tr_onto/275,Deelen,275,52.056,5.873,40,13,6,6,176
136,http://www.group15_KD_tr_onto/NM,Nijmegen railway station,NM,51.8433,5.8525,1.0375335120643432,http://www.group15_KD_tr_onto/275,Deelen,275,52.056,5.873,40,13,6,6,176
137,http://www.group15_KD_tr_onto/NVD,Nijverdal railway station,NVD,52.3656,6.47028,0.2647058823529412,http://www.group15_KD_tr_onto/275,Deelen,275,52.056,5.873,40,13,6,6,176
138,http://www.group15_KD_tr_onto/ODZ,Oldenzaal railway station,ODZ,52.3061,6.93361,0.31,http://www.group15_KD_tr_onto/275,Deelen,275,52.056,5.873,40,13,6,6,176
139,http://www.group15_KD_tr_onto/OP,Opheusden railway station,OP,51.9261,5.63694,0.5625,http://www.group15_KD_tr_onto/275,Deelen,275,52.056,5.873,40,13,6,6,176
140,http://www.group15_KD_tr_onto/OST,Olst railway station,OST,52.335,6.11306,0.7373737373737373,http://www.group15_KD_tr_onto/275,Deelen,275,52.056,5.873,40,13,6,6,176
141,http://www.group15_KD_tr_onto/OTB,Oosterbeek railway station,OTB,51.9947,5.84,0.3939393939393939,http://www.group15_KD_tr_onto/275,Deelen,275,52.056,5.873,40,13,6,6,176
142,http://www.group15_KD_tr_onto/RAT,Raalte railway station,RAT,52.3908,6.27861,0.09803921568627451,http://www.group15_KD_tr_onto/275,Deelen,275,52.056,5.873,40,13,6,6,176
143,http://www.group15_KD_tr_onto/RHN,Rhenen railway station,RHN,51.9578,5.57833,0.7297297297297297,http://www.group15_KD_tr_onto/275,Deelen,275,52.056,5.873,40,13,6,6,176
144,http://www.group15_KD_tr_onto/RH,Rheden railway station,RH,52.0097,6.02972,0.4444444444444444,http://www.group15_KD_tr_onto/275,Deelen,275,52.056,5.873,40,13,6,6,176
145,http://www.group15_KD_tr_onto/RL,Ruurlo railway station,RL,52.0806,6.45,0.11594202898550725,http://www.group15_KD_tr_onto/275,Deelen,275,52.056,5.873,40,13,6,6,176
146,http://www.group15_KD_tr_onto/RSN,Rijssen railway station,RSN,52.3117,6.51917,0.18055555555555555,http://www.group15_KD_tr_onto/275,Deelen,275,52.056,5.873,40,13,6,6,176
147,http://www.group15_KD_tr_onto/RVS,Ravenstein railway station,RVS,51.7947,5.63722,0.6867469879518072,http://www.group15_KD_tr_onto/275,Deelen,275,52.056,5.873,40,13,6,6,176
148,http://www.group15_KD_tr_onto/TWL,Twello railway station,TWL,52.2381,6.1,0.10606060606060606,http://www.group15_KD_tr_onto/275,Deelen,275,52.056,5.873,40,13,6,6,176
149,http://www.group15_KD_tr_onto/VEM,Voorst-Empe railway station,VEM,52.1578,6.14278,0.125,http://www.group15_KD_tr_onto/275,Deelen,275,52.056,5.873,40,13,6,6,176
150,http://www.group15_KD_tr_onto/VHP,Vroomshoop railway station,VHP,52.4411,6.57583,0.2222222222222222,http://www.group15_KD_tr_onto/275,Deelen,275,52.056,5.873,40,13,6,6,176
151,http://www.group15_KD_tr_onto/VP,Arnhem Velperpoort railway station,VP,51.985,5.92,0.4166666666666667,http://www.group15_KD_tr_onto/275,Deelen,275,52.056,5.873,40,13,6,6,176
152,http://www.group15_KD_tr_onto/VSV,Varsseveld railway station,VSV,51.9369,6.45806,0.04054054054054054,http://www.group15_KD_tr_onto/275,Deelen,275,52.056,5.873,40,13,6,6,176
153,http://www.group15_KD_tr_onto/VZ,Vriezenveen railway station,VZ,52.4019,6.60028,0.2037037037037037,http://www.group15_KD_tr_onto/275,Deelen,275,52.056,5.873,40,13,6,6,176
154,http://www.group15_KD_tr_onto/WC,Wijchen railway station,WC,51.8111,5.72944,0.48214285714285715,http://www.group15_KD_tr_onto/275,Deelen,275,52.056,5.873,40,13,6,6,176
155,http://www.group15_KD_tr_onto/WDN,Wierden railway station,WDN,52.3614,6.59111,0.23648648648648649,http://www.group15_KD_tr_onto/275,Deelen,275,52.056,5.873,40,13,6,6,176
156,http://www.group15_KD_tr_onto/WF,Wolfheze railway station,WF,52.0053,5.79361,0.30303030303030304,http://www.group15_KD_tr_onto/275,Deelen,275,52.056,5.873,40,13,6,6,176
157,http://www.group15_KD_tr_onto/WH,Wijhe railway station,WH,52.3936,6.14083,1.0808080808080809,http://www.group15_KD_tr_onto/275,Deelen,275,52.056,5.873,40,13,6,6,176
158,http://www.group15_KD_tr_onto/WL,Wehl railway station,WL,51.9567,6.2125,0.34108527131782945,http://www.group15_KD_tr_onto/275,Deelen,275,52.056,5.873,40,13,6,6,176
159,http://www.group15_KD_tr_onto/WWW,Winterswijk West railway station,WWW,51.9744,6.70361,0.057971014492753624,http://www.group15_KD_tr_onto/275,Deelen,275,52.056,5.873,40,13,6,6,176
160,http://www.group15_KD_tr_onto/WW,Winterswijk railway station,WW,51.9675,6.71556,0.16666666666666666,http://www.group15_KD_tr_onto/275,Deelen,275,52.056,5.873,40,13,6,6,176
161,http://www.group15_KD_tr_onto/ZA,Zetten-Andelst railway station,ZA,51.9194,5.72306,0.65625,http://www.group15_KD_tr_onto/275,Deelen,275,52.056,5.873,40,13,6,6,176
162,http://www.group15_KD_tr_onto/ZP,Zutphen railway station,ZP,52.1444,6.19389,0.6260504201680672,http://www.group15_KD_tr_onto/275,Deelen,275,52.056,5.873,40,13,6,6,176
163,http://www.group15_KD_tr_onto/ZV,Zevenaar railway station,ZV,51.9231,6.07278,0.9879518072289156,http://www.group15_KD_tr_onto/275,Deelen,275,52.056,5.873,40,13,6,6,176
164,http://www.group15_KD_tr_onto/ASN,Assen railway station,ASN,52.9917,6.57056,0.3219178082191781,http://www.group15_KD_tr_onto/280,Eelde,280,53.125,6.585,40,14,3,2,194
165,http://www.group15_KD_tr_onto/BF,Baflo railway station,BF,53.3608,6.51833,1.144736842105263,http://www.group15_KD_tr_onto/280,Eelde,280,53.125,6.585,40,14,3,2,194
166,http://www.group15_KD_tr_onto/BL,Beilen railway station,BL,52.8547,6.52083,0.5466666666666666,http://www.group15_KD_tr_onto/280,Eelde,280,53.125,6.585,40,14,3,2,194
167,http://www.group15_KD_tr_onto/DLN,Dalen railway station,DLN,52.6944,6.75806,0.2765957446808511,http://www.group15_KD_tr_onto/280,Eelde,280,53.125,6.585,40,14,3,2,194
168,http://www.group15_KD_tr_onto/EMNZ,Emmen Zuid railway station,EMNZ,52.7489,6.87472,0.2236842105263158,http://www.group15_KD_tr_onto/280,Eelde,280,53.125,6.585,40,14,3,2,194
169,http://www.group15_KD_tr_onto/EMN,Emmen railway station,EMN,52.7903,6.89917,0.34210526315789475,http://www.group15_KD_tr_onto/280,Eelde,280,53.125,6.585,40,14,3,2,194
170,http://www.group15_KD_tr_onto/GBG,Gramsbergen railway station,GBG,52.6094,6.67583,0.851063829787234,http://www.group15_KD_tr_onto/280,Eelde,280,53.125,6.585,40,14,3,2,194
171,http://www.group15_KD_tr_onto/GK,Grijpskerk railway station,GK,53.2556,6.31056,0.5735294117647058,http://www.group15_KD_tr_onto/280,Eelde,280,53.125,6.585,40,14,3,2,194
172,http://www.group15_KD_tr_onto/GN,Groningen railway station,GN,53.2106,6.56472,0.4249201277955272,http://www.group15_KD_tr_onto/280,Eelde,280,53.125,6.585,40,14,3,2,194
173,http://www.group15_KD_tr_onto/HDB,Hardenberg railway station,HDB,52.5722,6.62778,0.3627450980392157,http://www.group15_KD_tr_onto/280,Eelde,280,53.125,6.585,40,14,3,2,194
174,http://www.group15_KD_tr_onto/HGV,Hoogeveen railway station,HGV,52.7333,6.4725,0.28,http://www.group15_KD_tr_onto/280,Eelde,280,53.125,6.585,40,14,3,2,194
175,http://www.group15_KD_tr_onto/HRN,Haren (NL) railway station,HRN,53.175,6.61778,0.2597402597402597,http://www.group15_KD_tr_onto/280,Eelde,280,53.125,6.585,40,14,3,2,194
176,http://www.group15_KD_tr_onto/KW,Kropswolde railway station,KW,53.1617,6.72139,0.4892086330935252,http://www.group15_KD_tr_onto/280,Eelde,280,53.125,6.585,40,14,3,2,194
177,http://www.group15_KD_tr_onto/NA,Nieuw Amsterdam railway station,NA,52.7186,6.84861,0.3157894736842105,http://www.group15_KD_tr_onto/280,Eelde,280,53.125,6.585,40,14,3,2,194
178,http://www.group15_KD_tr_onto/NSCH,Bad Nieuweschans railway station,NSCH,53.1842,7.19944,0.6153846153846154,http://www.group15_KD_tr_onto/280,Eelde,280,53.125,6.585,40,14,3,2,194
179,http://www.group15_KD_tr_onto/SWK,Steenwijk railway station,SWK,52.7908,6.11611,0.21739130434782608,http://www.group15_KD_tr_onto/280,Eelde,280,53.125,6.585,40,14,3,2,194
180,http://www.group15_KD_tr_onto/VDM,Veendam railway station,VDM,53.1036,6.88472,0.11764705882352941,http://www.group15_KD_tr_onto/280,Eelde,280,53.125,6.585,40,14,3,2,194
181,http://www.group15_KD_tr_onto/VD,Coevorden railway station,VD,52.6631,6.73556,0.34782608695652173,http://www.group15_KD_tr_onto/280,Eelde,280,53.125,6.585,40,14,3,2,194
182,http://www.group15_KD_tr_onto/BGN,Bergen op Zoom railway station,BGN,51.4947,4.29611,0.9385964912280702,http://www.group15_KD_tr_onto/340,Woensdrecht,340,51.449,4.342,30,28,-1,18,195
183,http://www.group15_KD_tr_onto/KBD,Krabbendijke railway station,KBD,51.4333,4.11694,0.8717948717948718,http://www.group15_KD_tr_onto/340,Woensdrecht,340,51.449,4.342,30,28,-1,18,195
184,http://www.group15_KD_tr_onto/KRG,Kruiningen-Yerseke railway station,KRG,51.4653,4.03694,0.6666666666666666,http://www.group15_KD_tr_onto/340,Woensdrecht,340,51.449,4.342,30,28,-1,18,195
185,http://www.group15_KD_tr_onto/ODB,Oudenbosch railway station,ODB,51.5881,4.53361,0.18840579710144928,http://www.group15_KD_tr_onto/340,Woensdrecht,340,51.449,4.342,30,28,-1,18,195
186,http://www.group15_KD_tr_onto/RB,Rilland-Bath railway station,RB,51.4222,4.16111,1.0,http://www.group15_KD_tr_onto/340,Woensdrecht,340,51.449,4.342,30,28,-1,18,195
187,http://www.group15_KD_tr_onto/RSD,Roosendaal railway station,RSD,51.5403,4.45889,0.8571428571428571,http://www.group15_KD_tr_onto/340,Woensdrecht,340,51.449,4.342,30,28,-1,18,195
188,http://www.group15_KD_tr_onto/BSKS,Boskoop Snijdelwijk railway station,BSKS,52.0676,4.6462,0.0,http://www.group15_KD_tr_onto/344,Rotterdam,344,51.962,4.447,50,30,5,12,182
189,http://www.group15_KD_tr_onto/CPS,Capelle Schollevaar railway station,CPS,51.9533,4.58417,0.6410256410256411,http://www.group15_KD_tr_onto/344,Rotterdam,344,51.962,4.447,50,30,5,12,182
190,http://www.group15_KD_tr_onto/DT,Rotterdam Delftsche Poort railway station,DT,51.9253,4.47361,1.3758241758241758,http://www.group15_KD_tr_onto/344,Rotterdam,344,51.962,4.447,50,30,5,12,182
191,http://www.group15_KD_tr_onto/EC,Dordrecht railway station,EC,51.8075,4.66778,0.35135135135135137,http://www.group15_KD_tr_onto/344,Rotterdam,344,51.962,4.447,50,30,5,12,182
192,http://www.group15_KD_tr_onto/GD,Gouda railway station,GD,52.0175,4.70556,0.24765478424015008,http://www.group15_KD_tr_onto/344,Rotterdam,344,51.962,4.447,50,30,5,12,182
193,http://www.group15_KD_tr_onto/GVMW,Den Haag Moerwijk railway station,GVMW,52.0533,4.30861,1.178082191780822,http://www.group15_KD_tr_onto/344,Rotterdam,344,51.962,4.447,50,30,5,12,182
194,http://www.group15_KD_tr_onto/NWK,Nieuwerkerk aan den IJssel railway station,NWK,51.9653,4.61694,0.6153846153846154,http://www.group15_KD_tr_onto/344,Rotterdam,344,51.962,4.447,50,30,5,12,182
195,http://www.group15_KD_tr_onto/RLB,Rotterdam Lombardijen railway station,RLB,51.8797,4.53111,0.8041237113402062,http://www.group15_KD_tr_onto/344,Rotterdam,344,51.962,4.447,50,30,5,12,182
196,http://www.group15_KD_tr_onto/RSW,Rijswijk railway station,RSW,52.0394,4.31972,1.2857142857142858,http://www.group15_KD_tr_onto/344,Rotterdam,344,51.962,4.447,50,30,5,12,182
197,http://www.group15_KD_tr_onto/RTA,Rotterdam Alexander station,RTA,51.9519,4.55278,0.4186046511627907,http://www.group15_KD_tr_onto/344,Rotterdam,344,51.962,4.447,50,30,5,12,182
198,http://www.group15_KD_tr_onto/RTB,Rotterdam Blaak station,RTB,51.92,4.48917,1.7108108108108109,http://www.group15_KD_tr_onto/344,Rotterdam,344,51.962,4.447,50,30,5,12,182
199,http://www.group15_KD_tr_onto/RTD,Rotterdam Centraal station,RTD,51.9244,4.46944,1.6221590909090908,http://www.group15_KD_tr_onto/344,Rotterdam,344,51.962,4.447,50,30,5,12,182
200,http://www.group15_KD_tr_onto/RTN,Rotterdam Noord railway station,RTN,51.9422,4.48139,0.9102564102564102,http://www.group15_KD_tr_onto/344,Rotterdam,344,51.962,4.447,50,30,5,12,182
201,http://www.group15_KD_tr_onto/RTZ,Rotterdam Zuid railway station,RTZ,51.9094,4.50944,1.3350515463917525,http://www.group15_KD_tr_onto/344,Rotterdam,344,51.962,4.447,50,30,5,12,182
202,http://www.group15_KD_tr_onto/SDM,Schiedam Centrum station,SDM,51.9219,4.41,1.2195121951219512,http://www.group15_KD_tr_onto/344,Rotterdam,344,51.962,4.447,50,30,5,12,182
203,http://www.group15_KD_tr_onto/SDT,Sliedrecht Baanhoek railway station,SDT,51.8297,4.74333,0.44029850746268656,http://www.group15_KD_tr_onto/344,Rotterdam,344,51.962,4.447,50,30,5,12,182
204,http://www.group15_KD_tr_onto/YPB,Den Haag Ypenburg railway station,YPB,52.0592,4.38972,0.3178294573643411,http://www.group15_KD_tr_onto/344,Rotterdam,344,51.962,4.447,50,30,5,12,182
205,http://www.group15_KD_tr_onto/ZTM,Lansingerland-Zoetermeer railway station,ZTM,52.0394,4.52556,0.2713178294573643,http://www.group15_KD_tr_onto/344,Rotterdam,344,51.962,4.447,50,30,5,12,182
206,http://www.group15_KD_tr_onto/ZWD,Zwijndrecht railway station,ZWD,51.8147,4.64222,0.634020618556701,http://www.group15_KD_tr_onto/344,Rotterdam,344,51.962,4.447,50,30,5,12,182
207,http://www.group15_KD_tr_onto/BD,Breda railway station,BD,51.595,4.78,1.3746312684365782,http://www.group15_KD_tr_onto/350,Gilze-Rijen,350,51.566,4.936,40,22,-1,16,181
208,http://www.group15_KD_tr_onto/BHDV,Boven Hardinxveld railway station,BHDV,51.8319,4.87472,0.24806201550387597,http://www.group15_KD_tr_onto/350,Gilze-Rijen,350,51.566,4.936,40,22,-1,16,181
209,http://www.group15_KD_tr_onto/ETN,Etten-Leur railway station,ETN,51.5753,4.63694,0.38235294117647056,http://www.group15_KD_tr_onto/350,Gilze-Rijen,350,51.566,4.936,40,22,-1,16,181
210,http://www.group15_KD_tr_onto/GND,Hardinxveld-Giessendam railway station,GND,51.8303,4.83528,0.5147058823529411,http://www.group15_KD_tr_onto/350,Gilze-Rijen,350,51.566,4.936,40,22,-1,16,181
211,http://www.group15_KD_tr_onto/GR,Gorinchem railway station,GR,51.8336,4.9675,0.33980582524271846,http://www.group15_KD_tr_onto/350,Gilze-Rijen,350,51.566,4.936,40,22,-1,16,181
212,http://www.group15_KD_tr_onto/GZ,Gilze-Rijen railway station,GZ,51.5839,4.925,0.5465116279069767,http://www.group15_KD_tr_onto/350,Gilze-Rijen,350,51.566,4.936,40,22,-1,16,181
213,http://www.group15_KD_tr_onto/OT,Oisterwijk railway station,OT,51.5822,5.19444,0.37142857142857144,http://www.group15_KD_tr_onto/350,Gilze-Rijen,350,51.566,4.936,40,22,-1,16,181
214,http://www.group15_KD_tr_onto/TBR,Tilburg Reeshof railway station,TBR,51.5739,4.99278,0.8255813953488372,http://www.group15_KD_tr_onto/350,Gilze-Rijen,350,51.566,4.936,40,22,-1,16,181
215,http://www.group15_KD_tr_onto/TBU,Tilburg Universiteit railway station,TBU,51.5653,5.05139,0.8099173553719008,http://www.group15_KD_tr_onto/350,Gilze-Rijen,350,51.566,4.936,40,22,-1,16,181
216,http://www.group15_KD_tr_onto/TB,Tilburg railway station,TB,51.5606,5.08278,1.6491228070175439,http://www.group15_KD_tr_onto/350,Gilze-Rijen,350,51.566,4.936,40,22,-1,16,181
217,http://www.group15_KD_tr_onto/ZLW,Lage Zwaluwe railway station,ZLW,51.6906,4.66333,0.3076923076923077,http://www.group15_KD_tr_onto/350,Gilze-Rijen,350,51.566,4.936,40,22,-1,16,181
218,http://www.group15_KD_tr_onto/ZVB,Zevenbergen railway station,ZVB,51.6414,4.60972,0.42028985507246375,http://www.group15_KD_tr_onto/350,Gilze-Rijen,350,51.566,4.936,40,22,-1,16,181
219,http://www.group15_KD_tr_onto/BET,Best railway station,BET,51.5097,5.38889,0.35135135135135137,http://www.group15_KD_tr_onto/370,Eindhoven,370,51.451,5.377,40,17,0,9,166
220,http://www.group15_KD_tr_onto/BMR,Boxmeer railway station,BMR,51.6444,5.93944,0.10714285714285714,http://www.group15_KD_tr_onto/370,Eindhoven,370,51.451,5.377,40,17,0,9,166
221,http://www.group15_KD_tr_onto/BR,Blerick railway station,BR,51.3725,6.155,0.8666666666666667,http://www.group15_KD_tr_onto/370,Eindhoven,370,51.451,5.377,40,17,0,9,166
222,http://www.group15_KD_tr_onto/BTL,Boxtel railway station,BTL,51.5844,5.31889,0.40131578947368424,http://www.group15_KD_tr_onto/370,Eindhoven,370,51.451,5.377,40,17,0,9,166
223,http://www.group15_KD_tr_onto/DN,Deurne railway station,DN,51.4558,5.78833,1.1101694915254237,http://www.group15_KD_tr_onto/370,Eindhoven,370,51.451,5.377,40,17,0,9,166
224,http://www.group15_KD_tr_onto/EHS,Eindhoven Stadion railway station,EHS,51.443,5.46731,0.3716216216216216,http://www.group15_KD_tr_onto/370,Eindhoven,370,51.451,5.377,40,17,0,9,166
225,http://www.group15_KD_tr_onto/EHV,Eindhoven Centraal railway station,EHV,51.4428,5.48028,1.0936708860759494,http://www.group15_KD_tr_onto/370,Eindhoven,370,51.451,5.377,40,17,0,9,166
226,http://www.group15_KD_tr_onto/GP,Geldrop railway station,GP,51.42,5.55111,0.35294117647058826,http://www.group15_KD_tr_onto/370,Eindhoven,370,51.451,5.377,40,17,0,9,166
227,http://www.group15_KD_tr_onto/HMH,Helmond 't Hout railway station,HMH,51.4678,5.63083,1.088235294117647,http://www.group15_KD_tr_onto/370,Eindhoven,370,51.451,5.377,40,17,0,9,166
228,http://www.group15_KD_tr_onto/HM,Helmond railway station,HM,51.4756,5.66167,1.0588235294117647,http://www.group15_KD_tr_onto/370,Eindhoven,370,51.451,5.377,40,17,0,9,166
229,http://www.group15_KD_tr_onto/HRT,Horst-Sevenum railway station,HRT,51.4267,6.04194,1.1411764705882352,http://www.group15_KD_tr_onto/370,Eindhoven,370,51.451,5.377,40,17,0,9,166
230,http://www.group15_KD_tr_onto/HT,'s-Hertogenbosch railway station,HT,51.69,5.29333,0.643312101910828,http://www.group15_KD_tr_onto/370,Eindhoven,370,51.451,5.377,40,17,0,9,166
231,http://www.group15_KD_tr_onto/HZ,Heeze railway station,HZ,51.385,5.56944,0.575,http://www.group15_KD_tr_onto/370,Eindhoven,370,51.451,5.377,40,17,0,9,166
232,http://www.group15_KD_tr_onto/MZ,Maarheeze railway station,MZ,51.3039,5.63028,0.27941176470588236,http://www.group15_KD_tr_onto/370,Eindhoven,370,51.451,5.377,40,17,0,9,166
233,http://www.group15_KD_tr_onto/OW,Oss West railway station,OW,51.7581,5.50611,0.6813186813186813,http://www.group15_KD_tr_onto/370,Eindhoven,370,51.451,5.377,40,17,0,9,166
234,http://www.group15_KD_tr_onto/O,Oss railway station,O,51.7653,5.53167,0.9105263157894737,http://www.group15_KD_tr_onto/370,Eindhoven,370,51.451,5.377,40,17,0,9,166
235,http://www.group15_KD_tr_onto/RS,Rosmalen railway station,RS,51.715,5.36889,0.7362637362637363,http://www.group15_KD_tr_onto/370,Eindhoven,370,51.451,5.377,40,17,0,9,166
236,http://www.group15_KD_tr_onto/TG,Tegelen railway station,TG,51.3411,6.14333,1.144736842105263,http://www.group15_KD_tr_onto/370,Eindhoven,370,51.451,5.377,40,17,0,9,166
237,http://www.group15_KD_tr_onto/VG,Vught railway station,VG,51.6547,5.29194,0.32051282051282054,http://www.group15_KD_tr_onto/370,Eindhoven,370,51.451,5.377,40,17,0,9,166
238,http://www.group15_KD_tr_onto/VLB,Vierlingsbeek railway station,VLB,51.5922,5.99667,0.38392857142857145,http://www.group15_KD_tr_onto/370,Eindhoven,370,51.451,5.377,40,17,0,9,166
239,http://www.group15_KD_tr_onto/VL,Venlo railway station,VL,51.3647,6.17139,1.0145985401459854,http://www.group15_KD_tr_onto/370,Eindhoven,370,51.451,5.377,40,17,0,9,166
240,http://www.group15_KD_tr_onto/VRY,Venray railway station,VRY,51.5264,6.01417,0.5154639175257731,http://www.group15_KD_tr_onto/370,Eindhoven,370,51.451,5.377,40,17,0,9,166
241,http://www.group15_KD_tr_onto/WT,Weert railway station,WT,51.2486,5.7025,0.3860759493670886,http://www.group15_KD_tr_onto/370,Eindhoven,370,51.451,5.377,40,17,0,9,166
242,http://www.group15_KD_tr_onto/CVM,Chevremont railway station,CVM,50.8758,6.05944,0.34210526315789475,http://www.group15_KD_tr_onto/380,Maastricht,380,50.906,5.762,30,3,0,0,190
243,http://www.group15_KD_tr_onto/EDN,Eijsden railway station,EDN,50.772,5.71004,0.8055555555555556,http://www.group15_KD_tr_onto/380,Maastricht,380,50.906,5.762,30,3,0,0,190
244,http://www.group15_KD_tr_onto/EGH,Eygelshoven railway station,EGH,50.8903,6.04556,0.09210526315789473,http://www.group15_KD_tr_onto/380,Maastricht,380,50.906,5.762,30,3,0,0,190
245,http://www.group15_KD_tr_onto/GLN,Geleen Oost railway station,GLN,50.9672,5.84306,0.6447368421052632,http://www.group15_KD_tr_onto/380,Maastricht,380,50.906,5.762,30,3,0,0,190
246,http://www.group15_KD_tr_onto/HB,Hoensbroek railway station,HB,50.9053,5.93111,0.868421052631579,http://www.group15_KD_tr_onto/380,Maastricht,380,50.906,5.762,30,3,0,0,190
247,http://www.group15_KD_tr_onto/HRLW,Heerlen Woonboulevard railway station,HRLW,50.8961,5.95278,0.358974358974359,http://www.group15_KD_tr_onto/380,Maastricht,380,50.906,5.762,30,3,0,0,190
248,http://www.group15_KD_tr_onto/HRL,Heerlen railway station,HRL,50.8908,5.97472,0.785,http://www.group15_KD_tr_onto/380,Maastricht,380,50.906,5.762,30,3,0,0,190
249,http://www.group15_KD_tr_onto/KMR,Klimmen-Ransdaal railway station,KMR,50.8667,5.89056,0.41025641025641024,http://www.group15_KD_tr_onto/380,Maastricht,380,50.906,5.762,30,3,0,0,190
250,http://www.group15_KD_tr_onto/KRD,Kerkrade Centrum railway station,KRD,50.8614,6.0575,0.21052631578947367,http://www.group15_KD_tr_onto/380,Maastricht,380,50.906,5.762,30,3,0,0,190
251,http://www.group15_KD_tr_onto/LG,Landgraaf railway station,LG,50.8964,6.02,0.3103448275862069,http://www.group15_KD_tr_onto/380,Maastricht,380,50.906,5.762,30,3,0,0,190
252,http://www.group15_KD_tr_onto/MT,Maastricht railway station,MT,50.85,5.70528,0.4462809917355372,http://www.group15_KD_tr_onto/380,Maastricht,380,50.906,5.762,30,3,0,0,190
253,http://www.group15_KD_tr_onto/NH,Nuth railway station,NH,50.9197,5.8925,0.6973684210526315,http://www.group15_KD_tr_onto/380,Maastricht,380,50.906,5.762,30,3,0,0,190
254,http://www.group15_KD_tr_onto/RM,Roermond railway station,RM,51.1933,5.99472,0.42,http://www.group15_KD_tr_onto/380,Maastricht,380,50.906,5.762,30,3,0,0,190
255,http://www.group15_KD_tr_onto/RV,Reuver railway station,RV,51.2831,6.07944,1.0263157894736843,http://www.group15_KD_tr_onto/380,Maastricht,380,50.906,5.762,30,3,0,0,190
256,http://www.group15_KD_tr_onto/SBK,Spaubeek railway station,SBK,50.9431,5.84972,0.8421052631578947,http://www.group15_KD_tr_onto/380,Maastricht,380,50.906,5.762,30,3,0,0,190
257,http://www.group15_KD_tr_onto/SM,Swalmen railway station,SM,51.2358,6.0325,0.25,http://www.group15_KD_tr_onto/380,Maastricht,380,50.906,5.762,30,3,0,0,190
258,http://www.group15_KD_tr_onto/SN,Schinnen railway station,SN,50.9386,5.87611,0.9868421052631579,http://www.group15_KD_tr_onto/380,Maastricht,380,50.906,5.762,30,3,0,0,190
259,http://www.group15_KD_tr_onto/SRN,Susteren railway station,SRN,51.0608,5.86278,0.35135135135135137,http://www.group15_KD_tr_onto/380,Maastricht,380,50.906,5.762,30,3,0,0,190
260,http://www.group15_KD_tr_onto/STD,Sittard railway station,STD,51.0011,5.85833,0.46530612244897956,http://www.group15_KD_tr_onto/380,Maastricht,380,50.906,5.762,30,3,0,0,190
261,http://www.group15_KD_tr_onto/VDL,Voerendaal railway station,VDL,50.8867,5.92944,0.34615384615384615,http://www.group15_KD_tr_onto/380,Maastricht,380,50.906,5.762,30,3,0,0,190
