,station,station_name,station_code,ts_lat,ts_long,delay,ws,ws_name,ws_code,ws_lat,ws_long,windspeed,mean_temp,percipitation,visibility,wind_direction
0,http://www.group15_KD_tr_onto/AMR,Alkmaar railway station,AMR,52.6378,4.74056,0.7563451776649747,http://www.group15_KD_tr_onto/235,De Kooy,235,52.928,4.781,50,213,-1,65,62
1,http://www.group15_KD_tr_onto/ANA,Anna Paulowna railway station,ANA,52.8669,4.81111,0.4875,http://www.group15_KD_tr_onto/235,De Kooy,235,52.928,4.781,50,213,-1,65,62
2,http://www.group15_KD_tr_onto/HDRZ,Den Helder Zuid railway station,HDRZ,52.9331,4.76389,0.375,http://www.group15_KD_tr_onto/235,De Kooy,235,52.928,4.781,50,213,-1,65,62
3,http://www.group15_KD_tr_onto/HDR,Den Helder railway station,HDR,52.9564,4.76083,0.5609756097560976,http://www.group15_KD_tr_onto/235,De Kooy,235,52.928,4.781,50,213,-1,65,62
4,http://www.group15_KD_tr_onto/HWD,Heerhugowaard railway station,HWD,52.67,4.82361,0.21428571428571427,http://www.group15_KD_tr_onto/235,De Kooy,235,52.928,4.781,50,213,-1,65,62
5,http://www.group15_KD_tr_onto/OBD,Obdam railway station,OBD,52.6781,4.90833,0.39705882352941174,http://www.group15_KD_tr_onto/235,De Kooy,235,52.928,4.781,50,213,-1,65,62
6,http://www.group15_KD_tr_onto/SGN,Schagen railway station,SGN,52.7861,4.80528,0.3170731707317073,http://www.group15_KD_tr_onto/235,De Kooy,235,52.928,4.781,50,213,-1,65,62
7,http://www.group15_KD_tr_onto/AC,Abcoude railway station,AC,52.2744,4.98222,0.2,http://www.group15_KD_tr_onto/240,Schiphol,240,52.318,4.79,50,227,-1,70,105
8,http://www.group15_KD_tr_onto/AMPO,Almere Poort railway station,AMPO,52.3428,5.15194,0.511520737327189,http://www.group15_KD_tr_onto/240,Schiphol,240,52.318,4.79,50,227,-1,70,105
9,http://www.group15_KD_tr_onto/ASA,Amsterdam Amstel station,ASA,52.3464,4.91778,0.5151515151515151,http://www.group15_KD_tr_onto/240,Schiphol,240,52.318,4.79,50,227,-1,70,105
10,http://www.group15_KD_tr_onto/ASB,Amsterdam Bijlmer ArenA station,ASB,52.3131,4.94611,0.28923076923076924,http://www.group15_KD_tr_onto/240,Schiphol,240,52.318,4.79,50,227,-1,70,105
11,http://www.group15_KD_tr_onto/ASDL,Amsterdam Lelylaan station,ASDL,52.3572,4.83389,0.6336206896551724,http://www.group15_KD_tr_onto/240,Schiphol,240,52.318,4.79,50,227,-1,70,105
12,http://www.group15_KD_tr_onto/ASDM,Amsterdam Muiderpoort railway station,ASDM,52.3608,4.93111,0.7104477611940299,http://www.group15_KD_tr_onto/240,Schiphol,240,52.318,4.79,50,227,-1,70,105
13,http://www.group15_KD_tr_onto/ASDZ,Amsterdam Zuid station,ASDZ,52.3389,4.87306,0.8509316770186336,http://www.group15_KD_tr_onto/240,Schiphol,240,52.318,4.79,50,227,-1,70,105
14,http://www.group15_KD_tr_onto/ASD,Amsterdam Centraal station,ASD,52.3783,4.9,1.604004449388209,http://www.group15_KD_tr_onto/240,Schiphol,240,52.318,4.79,50,227,-1,70,105
15,http://www.group15_KD_tr_onto/ASSP,Amsterdam Science Park railway station,ASSP,52.3525,4.94861,1.2662337662337662,http://www.group15_KD_tr_onto/240,Schiphol,240,52.318,4.79,50,227,-1,70,105
16,http://www.group15_KD_tr_onto/ASS,Amsterdam Sloterdijk station,ASS,52.3892,4.83806,0.7322751322751323,http://www.group15_KD_tr_onto/240,Schiphol,240,52.318,4.79,50,227,-1,70,105
17,http://www.group15_KD_tr_onto/BLL,Bloemendaal railway station,BLL,52.4042,4.6275,1.325,http://www.group15_KD_tr_onto/240,Schiphol,240,52.318,4.79,50,227,-1,70,105
18,http://www.group15_KD_tr_onto/BV,Beverwijk railway station,BV,52.4783,4.65611,0.7403846153846154,http://www.group15_KD_tr_onto/240,Schiphol,240,52.318,4.79,50,227,-1,70,105
19,http://www.group15_KD_tr_onto/CAS,Castricum railway station,CAS,52.5456,4.65889,0.6041666666666666,http://www.group15_KD_tr_onto/240,Schiphol,240,52.318,4.79,50,227,-1,70,105
20,http://www.group15_KD_tr_onto/DMNZ,Diemen Zuid station,DMNZ,52.3303,4.95639,0.9104477611940298,http://www.group15_KD_tr_onto/240,Schiphol,240,52.318,4.79,50,227,-1,70,105
21,http://www.group15_KD_tr_onto/DMN,Diemen railway station,DMN,52.3453,4.96694,1.2012987012987013,http://www.group15_KD_tr_onto/240,Schiphol,240,52.318,4.79,50,227,-1,70,105
22,http://www.group15_KD_tr_onto/HAD,Heemstede-Aerdenhout railway station,HAD,52.3597,4.60694,0.7854077253218884,http://www.group15_KD_tr_onto/240,Schiphol,240,52.318,4.79,50,227,-1,70,105
23,http://www.group15_KD_tr_onto/HFD,Hoofddorp railway station,HFD,52.2933,4.7,0.7649402390438247,http://www.group15_KD_tr_onto/240,Schiphol,240,52.318,4.79,50,227,-1,70,105
24,http://www.group15_KD_tr_onto/HIL,Hillegom railway station,HIL,52.3028,4.56583,0.620253164556962,http://www.group15_KD_tr_onto/240,Schiphol,240,52.318,4.79,50,227,-1,70,105
25,http://www.group15_KD_tr_onto/HK,Heemskerk railway station,HK,52.4947,4.68611,0.65,http://www.group15_KD_tr_onto/240,Schiphol,240,52.318,4.79,50,227,-1,70,105
26,http://www.group15_KD_tr_onto/HLMS,Haarlem Spaarnwoude railway station,HLMS,52.3828,4.67111,0.967741935483871,http://www.group15_KD_tr_onto/240,Schiphol,240,52.318,4.79,50,227,-1,70,105
27,http://www.group15_KD_tr_onto/HLM,Haarlem railway station,HLM,52.3878,4.63889,0.551980198019802,http://www.group15_KD_tr_onto/240,Schiphol,240,52.318,4.79,50,227,-1,70,105
28,http://www.group15_KD_tr_onto/HLO,Heiloo railway station,HLO,52.6,4.70083,0.56353591160221,http://www.group15_KD_tr_onto/240,Schiphol,240,52.318,4.79,50,227,-1,70,105
29,http://www.group15_KD_tr_onto/HWZB,Halfweg-Zwanenburg railway station,HWZB,52.3847,4.75167,0.9032258064516129,http://www.group15_KD_tr_onto/240,Schiphol,240,52.318,4.79,50,227,-1,70,105
30,http://www.group15_KD_tr_onto/NVP,Nieuw-Vennep railway station,NVP,52.2597,4.64556,0.8,http://www.group15_KD_tr_onto/240,Schiphol,240,52.318,4.79,50,227,-1,70,105
31,http://www.group15_KD_tr_onto/OVN,Overveen railway station,OVN,52.3908,4.60778,0.59375,http://www.group15_KD_tr_onto/240,Schiphol,240,52.318,4.79,50,227,-1,70,105
32,http://www.group15_KD_tr_onto/PMR,Purmerend railway station,PMR,52.5033,4.95417,0.6233766233766234,http://www.group15_KD_tr_onto/240,Schiphol,240,52.318,4.79,50,227,-1,70,105
33,http://www.group15_KD_tr_onto/PMW,Purmerend Weidevenne railway station,PMW,52.4967,4.93667,0.6883116883116883,http://www.group15_KD_tr_onto/240,Schiphol,240,52.318,4.79,50,227,-1,70,105
34,http://www.group15_KD_tr_onto/RAI,Amsterdam RAI station,RAI,52.3367,4.89056,0.7985074626865671,http://www.group15_KD_tr_onto/240,Schiphol,240,52.318,4.79,50,227,-1,70,105
35,http://www.group15_KD_tr_onto/SHL,Schiphol Airport railway station,SHL,52.3089,4.76167,1.5899632802937576,http://www.group15_KD_tr_onto/240,Schiphol,240,52.318,4.79,50,227,-1,70,105
36,http://www.group15_KD_tr_onto/SPTN,Santpoort Noord railway station,SPTN,52.4428,4.63917,0.9125,http://www.group15_KD_tr_onto/240,Schiphol,240,52.318,4.79,50,227,-1,70,105
37,http://www.group15_KD_tr_onto/SPTZ,Santpoort Zuid railway station,SPTZ,52.4194,4.63167,0.9625,http://www.group15_KD_tr_onto/240,Schiphol,240,52.318,4.79,50,227,-1,70,105
38,http://www.group15_KD_tr_onto/UTG,Uitgeest railway station,UTG,52.5219,4.70278,0.6411764705882353,http://www.group15_KD_tr_onto/240,Schiphol,240,52.318,4.79,50,227,-1,70,105
39,http://www.group15_KD_tr_onto/WM,Wormerveer railway station,WM,52.4892,4.79278,1.011111111111111,http://www.group15_KD_tr_onto/240,Schiphol,240,52.318,4.79,50,227,-1,70,105
40,http://www.group15_KD_tr_onto/WP,Weesp railway station,WP,52.3131,5.04361,0.8611111111111112,http://www.group15_KD_tr_onto/240,Schiphol,240,52.318,4.79,50,227,-1,70,105
41,http://www.group15_KD_tr_onto/ZD,Zaandam railway station,ZD,52.4389,4.81472,0.6282051282051282,http://www.group15_KD_tr_onto/240,Schiphol,240,52.318,4.79,50,227,-1,70,105
42,http://www.group15_KD_tr_onto/ZVT,Zandvoort aan Zee railway station,ZVT,52.3758,4.53139,0.7349397590361446,http://www.group15_KD_tr_onto/240,Schiphol,240,52.318,4.79,50,227,-1,70,105
43,http://www.group15_KD_tr_onto/AKL,Arkel railway station,AKL,51.8719,4.99278,0.4105263157894737,http://www.group15_KD_tr_onto/260,De Bilt,260,52.1,5.18,50,228,-1,62,124
44,http://www.group15_KD_tr_onto/BHV,Bilthoven railway station,BHV,52.13,5.20528,0.9932885906040269,http://www.group15_KD_tr_onto/260,De Bilt,260,52.1,5.18,50,228,-1,62,124
45,http://www.group15_KD_tr_onto/BKL,Breukelen railway station,BKL,52.17,4.99056,0.3073394495412844,http://www.group15_KD_tr_onto/260,De Bilt,260,52.1,5.18,50,228,-1,62,124
46,http://www.group15_KD_tr_onto/BNK,Bunnik railway station,BNK,52.0631,5.19556,0.19117647058823528,http://www.group15_KD_tr_onto/260,De Bilt,260,52.1,5.18,50,228,-1,62,124
47,http://www.group15_KD_tr_onto/BSD,Beesd railway station,BSD,51.8992,5.195,0.29473684210526313,http://www.group15_KD_tr_onto/260,De Bilt,260,52.1,5.18,50,228,-1,62,124
48,http://www.group15_KD_tr_onto/CL,Culemborg railway station,CL,51.9472,5.22722,1.0121951219512195,http://www.group15_KD_tr_onto/260,De Bilt,260,52.1,5.18,50,228,-1,62,124
49,http://www.group15_KD_tr_onto/DB,Driebergen-Zeist railway station,DB,52.065,5.26,0.4263959390862944,http://www.group15_KD_tr_onto/260,De Bilt,260,52.1,5.18,50,228,-1,62,124
50,http://www.group15_KD_tr_onto/GDM,Geldermalsen railway station,GDM,51.8839,5.27083,1.04739336492891,http://www.group15_KD_tr_onto/260,De Bilt,260,52.1,5.18,50,228,-1,62,124
51,http://www.group15_KD_tr_onto/HTN,Houten railway station,HTN,52.0344,5.16778,1.4484536082474226,http://www.group15_KD_tr_onto/260,De Bilt,260,52.1,5.18,50,228,-1,62,124
52,http://www.group15_KD_tr_onto/LDM,Leerdam railway station,LDM,51.8947,5.09333,0.3894736842105263,http://www.group15_KD_tr_onto/260,De Bilt,260,52.1,5.18,50,228,-1,62,124
53,http://www.group15_KD_tr_onto/MAS,Maarssen railway station,MAS,52.1358,5.03306,0.15172413793103448,http://www.group15_KD_tr_onto/260,De Bilt,260,52.1,5.18,50,228,-1,62,124
54,http://www.group15_KD_tr_onto/UTLR,Utrecht Leidsche Rijn railway station,UTLR,52.0983,5.06917,0.696551724137931,http://www.group15_KD_tr_onto/260,De Bilt,260,52.1,5.18,50,228,-1,62,124
55,http://www.group15_KD_tr_onto/UTO,Utrecht Overvecht railway station,UTO,52.11,5.12528,0.6749116607773852,http://www.group15_KD_tr_onto/260,De Bilt,260,52.1,5.18,50,228,-1,62,124
56,http://www.group15_KD_tr_onto/UTT,Utrecht Terwijde railway station,UTT,52.1008,5.04306,0.6689655172413793,http://www.group15_KD_tr_onto/260,De Bilt,260,52.1,5.18,50,228,-1,62,124
57,http://www.group15_KD_tr_onto/UTVR,Utrecht Vaartsche Rijn railway station,UTVR,52.0786,5.1225,0.896969696969697,http://www.group15_KD_tr_onto/260,De Bilt,260,52.1,5.18,50,228,-1,62,124
58,http://www.group15_KD_tr_onto/UTZL,Utrecht Zuilen railway station,UTZL,52.1031,5.08917,0.10416666666666667,http://www.group15_KD_tr_onto/260,De Bilt,260,52.1,5.18,50,228,-1,62,124
59,http://www.group15_KD_tr_onto/UT,Utrecht Centraal railway station,UT,52.0892,5.10972,1.2019315188762072,http://www.group15_KD_tr_onto/260,De Bilt,260,52.1,5.18,50,228,-1,62,124
60,http://www.group15_KD_tr_onto/VTN,Vleuten railway station,VTN,52.1031,5.01194,0.7241379310344828,http://www.group15_KD_tr_onto/260,De Bilt,260,52.1,5.18,50,228,-1,62,124
61,http://www.group15_KD_tr_onto/WD,Woerden railway station,WD,52.0847,4.89306,0.5186335403726708,http://www.group15_KD_tr_onto/260,De Bilt,260,52.1,5.18,50,228,-1,62,124
62,http://www.group15_KD_tr_onto/ZBM,Zaltbommel railway station,ZBM,51.8069,5.26472,1.1948051948051948,http://www.group15_KD_tr_onto/260,De Bilt,260,52.1,5.18,50,228,-1,62,124
63,http://www.group15_KD_tr_onto/BKF,Bovenkarspel Flora railway station,BKF,52.6958,5.25306,0.18681318681318682,http://www.group15_KD_tr_onto/267,Stavoren,267,52.898,5.384,50,218,17,59,81
64,http://www.group15_KD_tr_onto/BKG,Bovenkarspel-Grootebroek railway station,BKG,52.695,5.23611,0.24175824175824176,http://www.group15_KD_tr_onto/267,Stavoren,267,52.898,5.384,50,218,17,59,81
65,http://www.group15_KD_tr_onto/EKZ,Enkhuizen railway station,EKZ,52.6994,5.28778,0.3409090909090909,http://www.group15_KD_tr_onto/267,Stavoren,267,52.898,5.384,50,218,17,59,81
66,http://www.group15_KD_tr_onto/HKS,Hoogkarspel railway station,HKS,52.6906,5.18389,0.3516483516483517,http://www.group15_KD_tr_onto/267,Stavoren,267,52.898,5.384,50,218,17,59,81
67,http://www.group15_KD_tr_onto/HNP,Hindeloopen railway station,HNP,52.9461,5.42306,0.8260869565217391,http://www.group15_KD_tr_onto/267,Stavoren,267,52.898,5.384,50,218,17,59,81
68,http://www.group15_KD_tr_onto/HN,Hoorn railway station,HN,52.645,5.05472,0.405,http://www.group15_KD_tr_onto/267,Stavoren,267,52.898,5.384,50,218,17,59,81
69,http://www.group15_KD_tr_onto/IJT,IJlst railway station,IJT,53.0147,5.61639,0.5652173913043478,http://www.group15_KD_tr_onto/267,Stavoren,267,52.898,5.384,50,218,17,59,81
70,http://www.group15_KD_tr_onto/KMW,Koudum-Molkwerum railway station,KMW,52.9022,5.41056,0.5434782608695652,http://www.group15_KD_tr_onto/267,Stavoren,267,52.898,5.384,50,218,17,59,81
71,http://www.group15_KD_tr_onto/STV,Stavoren railway station,STV,52.8867,5.35972,1.2173913043478262,http://www.group15_KD_tr_onto/267,Stavoren,267,52.898,5.384,50,218,17,59,81
72,http://www.group15_KD_tr_onto/WK,Workum railway station,WK,52.9714,5.45583,0.9347826086956522,http://www.group15_KD_tr_onto/267,Stavoren,267,52.898,5.384,50,218,17,59,81
73,http://www.group15_KD_tr_onto/WV,Wolvega railway station,WV,52.8797,6.00472,0.44776119402985076,http://www.group15_KD_tr_onto/267,Stavoren,267,52.898,5.384,50,218,17,59,81
74,http://www.group15_KD_tr_onto/ALMB,Almere Buiten railway station,ALMB,52.3942,5.27778,0.4306930693069307,http://www.group15_KD_tr_onto/269,Lelystad,269,52.458,5.52,50,228,54,58,121
75,http://www.group15_KD_tr_onto/ALMM,Almere Muziekwijk railway station,ALMM,52.3675,5.19028,0.511520737327189,http://www.group15_KD_tr_onto/269,Lelystad,269,52.458,5.52,50,228,54,58,121
76,http://www.group15_KD_tr_onto/ALMO,Almere Oostvaarders railway station,ALMO,52.4028,5.3,0.49122807017543857,http://www.group15_KD_tr_onto/269,Lelystad,269,52.458,5.52,50,228,54,58,121
77,http://www.group15_KD_tr_onto/ALMP,Almere Parkwijk railway station,ALMP,52.3767,5.24444,0.4900662251655629,http://www.group15_KD_tr_onto/269,Lelystad,269,52.458,5.52,50,228,54,58,121
78,http://www.group15_KD_tr_onto/ALM,Almere Centrum railway station,ALM,52.375,5.21778,0.8,http://www.group15_KD_tr_onto/269,Lelystad,269,52.458,5.52,50,228,54,58,121
79,http://www.group15_KD_tr_onto/DL,Dalfsen railway station,DL,52.4981,6.25861,0.25,http://www.group15_KD_tr_onto/269,Lelystad,269,52.458,5.52,50,228,54,58,121
80,http://www.group15_KD_tr_onto/DRON,Dronten railway station,DRON,52.5339,5.72306,0.5066666666666667,http://www.group15_KD_tr_onto/269,Lelystad,269,52.458,5.52,50,228,54,58,121
81,http://www.group15_KD_tr_onto/EML,Ermelo railway station,EML,52.3011,5.61444,1.9863013698630136,http://www.group15_KD_tr_onto/269,Lelystad,269,52.458,5.52,50,228,54,58,121
82,http://www.group15_KD_tr_onto/HDE,'t Harde railway station,HDE,52.4089,5.89306,1.5616438356164384,http://www.group15_KD_tr_onto/269,Lelystad,269,52.458,5.52,50,228,54,58,121
83,http://www.group15_KD_tr_onto/HD,Harderwijk railway station,HD,52.3375,5.61972,1.9615384615384615,http://www.group15_KD_tr_onto/269,Lelystad,269,52.458,5.52,50,228,54,58,121
84,http://www.group15_KD_tr_onto/KPNZ,Kampen Zuid railway station,KPNZ,52.5342,5.91583,0.4533333333333333,http://www.group15_KD_tr_onto/269,Lelystad,269,52.458,5.52,50,228,54,58,121
85,http://www.group15_KD_tr_onto/KPN,Kampen railway station,KPN,52.5597,5.92111,0.3157894736842105,http://www.group15_KD_tr_onto/269,Lelystad,269,52.458,5.52,50,228,54,58,121
86,http://www.group15_KD_tr_onto/LLS,Lelystad Centrum railway station,LLS,52.5078,5.47333,1.0391061452513966,http://www.group15_KD_tr_onto/269,Lelystad,269,52.458,5.52,50,228,54,58,121
87,http://www.group15_KD_tr_onto/MP,Meppel railway station,MP,52.6914,6.1975,0.954337899543379,http://www.group15_KD_tr_onto/269,Lelystad,269,52.458,5.52,50,228,54,58,121
88,http://www.group15_KD_tr_onto/NS,Nunspeet railway station,NS,52.3708,5.78472,1.904109589041096,http://www.group15_KD_tr_onto/269,Lelystad,269,52.458,5.52,50,228,54,58,121
89,http://www.group15_KD_tr_onto/OMN,Ommen railway station,OMN,52.5094,6.41694,0.7717391304347826,http://www.group15_KD_tr_onto/269,Lelystad,269,52.458,5.52,50,228,54,58,121
90,http://www.group15_KD_tr_onto/PT,Putten railway station,PT,52.2653,5.57611,1.6986301369863013,http://www.group15_KD_tr_onto/269,Lelystad,269,52.458,5.52,50,228,54,58,121
91,http://www.group15_KD_tr_onto/WZ,Wezep railway station,WZ,52.4536,6.00222,1.5342465753424657,http://www.group15_KD_tr_onto/269,Lelystad,269,52.458,5.52,50,228,54,58,121
92,http://www.group15_KD_tr_onto/ZLSH,Zwolle Stadshagen railway station,ZLSH,52.5279,6.05108,0.3684210526315789,http://www.group15_KD_tr_onto/269,Lelystad,269,52.458,5.52,50,228,54,58,121
93,http://www.group15_KD_tr_onto/ZL,Zwolle railway station,ZL,52.5053,6.09056,1.2584493041749503,http://www.group15_KD_tr_onto/269,Lelystad,269,52.458,5.52,50,228,54,58,121
94,http://www.group15_KD_tr_onto/AKM,Akkrum railway station,AKM,53.0472,5.84306,0.5074626865671642,http://www.group15_KD_tr_onto/270,Leeuwarden,270,53.224,5.752,50,221,0,59,102
95,http://www.group15_KD_tr_onto/DEI,Deinum railway station,DEI,53.1886,5.72778,0.27941176470588236,http://www.group15_KD_tr_onto/270,Leeuwarden,270,53.224,5.752,50,221,0,59,102
96,http://www.group15_KD_tr_onto/DRP,Dronryp railway station,DRP,53.1775,5.63472,0.23529411764705882,http://www.group15_KD_tr_onto/270,Leeuwarden,270,53.224,5.752,50,221,0,59,102
97,http://www.group15_KD_tr_onto/FN,Franeker railway station,FN,53.1822,5.54944,0.1323529411764706,http://www.group15_KD_tr_onto/270,Leeuwarden,270,53.224,5.752,50,221,0,59,102
98,http://www.group15_KD_tr_onto/GW,Grou-Jirnsum railway station,GW,53.0897,5.82222,0.44776119402985076,http://www.group15_KD_tr_onto/270,Leeuwarden,270,53.224,5.752,50,221,0,59,102
99,http://www.group15_KD_tr_onto/HDG,Hurdegaryp railway station,HDG,53.2186,5.93472,1.6142857142857143,http://www.group15_KD_tr_onto/270,Leeuwarden,270,53.224,5.752,50,221,0,59,102
100,http://www.group15_KD_tr_onto/HLG,Harlingen railway station,HLG,53.1703,5.42528,0.04411764705882353,http://www.group15_KD_tr_onto/270,Leeuwarden,270,53.224,5.752,50,221,0,59,102
101,http://www.group15_KD_tr_onto/HR,Heerenveen railway station,HR,52.9606,5.91528,0.6413793103448275,http://www.group15_KD_tr_onto/270,Leeuwarden,270,53.224,5.752,50,221,0,59,102
102,http://www.group15_KD_tr_onto/LW,Leeuwarden railway station,LW,53.1958,5.79111,0.6926829268292682,http://www.group15_KD_tr_onto/270,Leeuwarden,270,53.224,5.752,50,221,0,59,102
103,http://www.group15_KD_tr_onto/MG,Mantgum railway station,MG,53.1297,5.71333,0.390625,http://www.group15_KD_tr_onto/270,Leeuwarden,270,53.224,5.752,50,221,0,59,102
104,http://www.group15_KD_tr_onto/SK,Sneek railway station,SK,53.0322,5.65167,0.509090909090909,http://www.group15_KD_tr_onto/270,Leeuwarden,270,53.224,5.752,50,221,0,59,102
105,http://www.group15_KD_tr_onto/AHPR,Arnhem Presikhaaf railway station,AHPR,51.9875,5.94306,0.6944444444444444,http://www.group15_KD_tr_onto/275,Deelen,275,52.056,5.873,50,226,64,57,139
106,http://www.group15_KD_tr_onto/AHZ,Arnhem Zuid railway station,AHZ,51.9542,5.85167,0.6376811594202898,http://www.group15_KD_tr_onto/275,Deelen,275,52.056,5.873,50,226,64,57,139
107,http://www.group15_KD_tr_onto/AML,Almelo railway station,AML,52.3572,6.655,1.4224422442244224,http://www.group15_KD_tr_onto/275,Deelen,275,52.056,5.873,50,226,64,57,139
108,http://www.group15_KD_tr_onto/APD,Apeldoorn railway station,APD,52.2092,5.96944,1.5326633165829147,http://www.group15_KD_tr_onto/275,Deelen,275,52.056,5.873,50,226,64,57,139
109,http://www.group15_KD_tr_onto/ATN,Aalten railway station,ATN,51.9211,6.57806,0.13513513513513514,http://www.group15_KD_tr_onto/275,Deelen,275,52.056,5.873,50,226,64,57,139
110,http://www.group15_KD_tr_onto/BMN,Brummen railway station,BMN,52.0908,6.14694,0.5,http://www.group15_KD_tr_onto/275,Deelen,275,52.056,5.873,50,226,64,57,139
111,http://www.group15_KD_tr_onto/BN,Borne railway station,BN,52.2983,6.74833,0.3333333333333333,http://www.group15_KD_tr_onto/275,Deelen,275,52.056,5.873,50,226,64,57,139
112,http://www.group15_KD_tr_onto/CK,Cuijk railway station,CK,51.7264,5.87417,0.40217391304347827,http://www.group15_KD_tr_onto/275,Deelen,275,52.056,5.873,50,226,64,57,139
113,http://www.group15_KD_tr_onto/DA,Daarlerveen railway station,DA,52.4411,6.57583,0.7407407407407407,http://www.group15_KD_tr_onto/275,Deelen,275,52.056,5.873,50,226,64,57,139
114,http://www.group15_KD_tr_onto/DDN,Delden railway station,DDN,52.26,6.71444,1.1388888888888888,http://www.group15_KD_tr_onto/275,Deelen,275,52.056,5.873,50,226,64,57,139
115,http://www.group15_KD_tr_onto/DID,Didam railway station,DID,51.9333,6.13222,0.11627906976744186,http://www.group15_KD_tr_onto/275,Deelen,275,52.056,5.873,50,226,64,57,139
116,http://www.group15_KD_tr_onto/DR,Dieren railway station,DR,52.045,6.10333,1.1685393258426966,http://www.group15_KD_tr_onto/275,Deelen,275,52.056,5.873,50,226,64,57,139
117,http://www.group15_KD_tr_onto/DTC,Doetinchem railway station,DTC,51.9583,6.29528,0.25,http://www.group15_KD_tr_onto/275,Deelen,275,52.056,5.873,50,226,64,57,139
118,http://www.group15_KD_tr_onto/DVN,Duiven railway station,DVN,51.9433,6.01417,0.20930232558139536,http://www.group15_KD_tr_onto/275,Deelen,275,52.056,5.873,50,226,64,57,139
119,http://www.group15_KD_tr_onto/DV,Deventer railway station,DV,52.2572,6.16083,2.0604026845637584,http://www.group15_KD_tr_onto/275,Deelen,275,52.056,5.873,50,226,64,57,139
120,http://www.group15_KD_tr_onto/ED,Ede-Wageningen railway station,ED,52.0278,5.67194,0.2803738317757009,http://www.group15_KD_tr_onto/275,Deelen,275,52.056,5.873,50,226,64,57,139
121,http://www.group15_KD_tr_onto/EST,Elst railway station,EST,51.9167,5.855,0.47738693467336685,http://www.group15_KD_tr_onto/275,Deelen,275,52.056,5.873,50,226,64,57,139
122,http://www.group15_KD_tr_onto/ES,Enschede railway station,ES,52.2222,6.89,1.0392156862745099,http://www.group15_KD_tr_onto/275,Deelen,275,52.056,5.873,50,226,64,57,139
123,http://www.group15_KD_tr_onto/GBR,Glanerbrug railway station,GBR,52.2186,6.97389,0.0,http://www.group15_KD_tr_onto/275,Deelen,275,52.056,5.873,50,226,64,57,139
124,http://www.group15_KD_tr_onto/GDR,Gaanderen railway station,GDR,51.9308,6.34778,0.12162162162162163,http://www.group15_KD_tr_onto/275,Deelen,275,52.056,5.873,50,226,64,57,139
125,http://www.group15_KD_tr_onto/GO,Goor railway station,GO,52.2303,6.58444,0.9577464788732394,http://www.group15_KD_tr_onto/275,Deelen,275,52.056,5.873,50,226,64,57,139
126,http://www.group15_KD_tr_onto/HGL,Hengelo railway station,HGL,52.2619,6.79417,1.043859649122807,http://www.group15_KD_tr_onto/275,Deelen,275,52.056,5.873,50,226,64,57,139
127,http://www.group15_KD_tr_onto/HMN,Hemmen-Dodewaard railway station,HMN,51.9222,5.67333,0.0625,http://www.group15_KD_tr_onto/275,Deelen,275,52.056,5.873,50,226,64,57,139
128,http://www.group15_KD_tr_onto/HNO,Heino railway station,HNO,52.4269,6.22194,0.020202020202020204,http://www.group15_KD_tr_onto/275,Deelen,275,52.056,5.873,50,226,64,57,139
129,http://www.group15_KD_tr_onto/HON,Holten railway station,HON,52.2839,6.42056,2.891891891891892,http://www.group15_KD_tr_onto/275,Deelen,275,52.056,5.873,50,226,64,57,139
130,http://www.group15_KD_tr_onto/KBK,Klarenbeek railway station,KBK,52.1778,6.08417,0.046875,http://www.group15_KD_tr_onto/275,Deelen,275,52.056,5.873,50,226,64,57,139
131,http://www.group15_KD_tr_onto/KLP,Veenendaal-De Klomp railway station,KLP,52.0458,5.57389,0.3333333333333333,http://www.group15_KD_tr_onto/275,Deelen,275,52.056,5.873,50,226,64,57,139
132,http://www.group15_KD_tr_onto/KTR,Kesteren railway station,KTR,51.9314,5.58361,0.03125,http://www.group15_KD_tr_onto/275,Deelen,275,52.056,5.873,50,226,64,57,139
133,http://www.group15_KD_tr_onto/LC,Lochem railway station,LC,52.1667,6.42583,0.6714285714285714,http://www.group15_KD_tr_onto/275,Deelen,275,52.056,5.873,50,226,64,57,139
134,http://www.group15_KD_tr_onto/LTV,Lichtenvoorde-Groenlo railway station,LTV,52.0117,6.59639,0.17391304347826086,http://www.group15_KD_tr_onto/275,Deelen,275,52.056,5.873,50,226,64,57,139
135,http://www.group15_KD_tr_onto/MMLH,Mook-Molenhoek railway station,MMLH,51.7647,5.8775,0.46808510638297873,http://www.group15_KD_tr_onto/275,Deelen,275,52.056,5.873,50,226,64,57,139
136,http://www.group15_KD_tr_onto/NM,Nijmegen railway station,NM,51.8433,5.8525,1.12707182320442,http://www.group15_KD_tr_onto/275,Deelen,275,52.056,5.873,50,226,64,57,139
137,http://www.group15_KD_tr_onto/NVD,Nijverdal railway station,NVD,52.3656,6.47028,0.32,http://www.group15_KD_tr_onto/275,Deelen,275,52.056,5.873,50,226,64,57,139
138,http://www.group15_KD_tr_onto/ODZ,Oldenzaal railway station,ODZ,52.3061,6.93361,0.35526315789473684,http://www.group15_KD_tr_onto/275,Deelen,275,52.056,5.873,50,226,64,57,139
139,http://www.group15_KD_tr_onto/OP,Opheusden railway station,OP,51.9261,5.63694,0.0625,http://www.group15_KD_tr_onto/275,Deelen,275,52.056,5.873,50,226,64,57,139
140,http://www.group15_KD_tr_onto/OST,Olst railway station,OST,52.335,6.11306,0.36792452830188677,http://www.group15_KD_tr_onto/275,Deelen,275,52.056,5.873,50,226,64,57,139
141,http://www.group15_KD_tr_onto/OTB,Oosterbeek railway station,OTB,51.9947,5.84,0.16666666666666666,http://www.group15_KD_tr_onto/275,Deelen,275,52.056,5.873,50,226,64,57,139
142,http://www.group15_KD_tr_onto/RAT,Raalte railway station,RAT,52.3908,6.27861,0.056,http://www.group15_KD_tr_onto/275,Deelen,275,52.056,5.873,50,226,64,57,139
143,http://www.group15_KD_tr_onto/RHN,Rhenen railway station,RHN,51.9578,5.57833,0.43243243243243246,http://www.group15_KD_tr_onto/275,Deelen,275,52.056,5.873,50,226,64,57,139
144,http://www.group15_KD_tr_onto/RH,Rheden railway station,RH,52.0097,6.02972,0.5555555555555556,http://www.group15_KD_tr_onto/275,Deelen,275,52.056,5.873,50,226,64,57,139
145,http://www.group15_KD_tr_onto/RL,Ruurlo railway station,RL,52.0806,6.45,0.13043478260869565,http://www.group15_KD_tr_onto/275,Deelen,275,52.056,5.873,50,226,64,57,139
146,http://www.group15_KD_tr_onto/RSN,Rijssen railway station,RSN,52.3117,6.51917,2.608108108108108,http://www.group15_KD_tr_onto/275,Deelen,275,52.056,5.873,50,226,64,57,139
147,http://www.group15_KD_tr_onto/RVS,Ravenstein railway station,RVS,51.7947,5.63722,1.1538461538461537,http://www.group15_KD_tr_onto/275,Deelen,275,52.056,5.873,50,226,64,57,139
148,http://www.group15_KD_tr_onto/TWL,Twello railway station,TWL,52.2381,6.1,1.3181818181818181,http://www.group15_KD_tr_onto/275,Deelen,275,52.056,5.873,50,226,64,57,139
149,http://www.group15_KD_tr_onto/VEM,Voorst-Empe railway station,VEM,52.1578,6.14278,0.125,http://www.group15_KD_tr_onto/275,Deelen,275,52.056,5.873,50,226,64,57,139
150,http://www.group15_KD_tr_onto/VHP,Vroomshoop railway station,VHP,52.4411,6.57583,0.46296296296296297,http://www.group15_KD_tr_onto/275,Deelen,275,52.056,5.873,50,226,64,57,139
151,http://www.group15_KD_tr_onto/VP,Arnhem Velperpoort railway station,VP,51.985,5.92,0.5277777777777778,http://www.group15_KD_tr_onto/275,Deelen,275,52.056,5.873,50,226,64,57,139
152,http://www.group15_KD_tr_onto/VSV,Varsseveld railway station,VSV,51.9369,6.45806,0.06756756756756757,http://www.group15_KD_tr_onto/275,Deelen,275,52.056,5.873,50,226,64,57,139
153,http://www.group15_KD_tr_onto/VZ,Vriezenveen railway station,VZ,52.4019,6.60028,0.7777777777777778,http://www.group15_KD_tr_onto/275,Deelen,275,52.056,5.873,50,226,64,57,139
154,http://www.group15_KD_tr_onto/WC,Wijchen railway station,WC,51.8111,5.72944,1.0833333333333333,http://www.group15_KD_tr_onto/275,Deelen,275,52.056,5.873,50,226,64,57,139
155,http://www.group15_KD_tr_onto/WDN,Wierden railway station,WDN,52.3614,6.59111,1.127906976744186,http://www.group15_KD_tr_onto/275,Deelen,275,52.056,5.873,50,226,64,57,139
156,http://www.group15_KD_tr_onto/WF,Wolfheze railway station,WF,52.0053,5.79361,0.09090909090909091,http://www.group15_KD_tr_onto/275,Deelen,275,52.056,5.873,50,226,64,57,139
157,http://www.group15_KD_tr_onto/WH,Wijhe railway station,WH,52.3936,6.14083,0.6792452830188679,http://www.group15_KD_tr_onto/275,Deelen,275,52.056,5.873,50,226,64,57,139
158,http://www.group15_KD_tr_onto/WL,Wehl railway station,WL,51.9567,6.2125,0.2713178294573643,http://www.group15_KD_tr_onto/275,Deelen,275,52.056,5.873,50,226,64,57,139
159,http://www.group15_KD_tr_onto/WWW,Winterswijk West railway station,WWW,51.9744,6.70361,0.07246376811594203,http://www.group15_KD_tr_onto/275,Deelen,275,52.056,5.873,50,226,64,57,139
160,http://www.group15_KD_tr_onto/WW,Winterswijk railway station,WW,51.9675,6.71556,0.3472222222222222,http://www.group15_KD_tr_onto/275,Deelen,275,52.056,5.873,50,226,64,57,139
161,http://www.group15_KD_tr_onto/ZA,Zetten-Andelst railway station,ZA,51.9194,5.72306,0.09375,http://www.group15_KD_tr_onto/275,Deelen,275,52.056,5.873,50,226,64,57,139
162,http://www.group15_KD_tr_onto/ZP,Zutphen railway station,ZP,52.1444,6.19389,0.8744939271255061,http://www.group15_KD_tr_onto/275,Deelen,275,52.056,5.873,50,226,64,57,139
163,http://www.group15_KD_tr_onto/ZV,Zevenaar railway station,ZV,51.9231,6.07278,1.2121212121212122,http://www.group15_KD_tr_onto/275,Deelen,275,52.056,5.873,50,226,64,57,139
164,http://www.group15_KD_tr_onto/ASN,Assen railway station,ASN,52.9917,6.57056,1.5421686746987953,http://www.group15_KD_tr_onto/280,Eelde,280,53.125,6.585,40,223,0,58,95
165,http://www.group15_KD_tr_onto/BF,Baflo railway station,BF,53.3608,6.51833,0.48,http://www.group15_KD_tr_onto/280,Eelde,280,53.125,6.585,40,223,0,58,95
166,http://www.group15_KD_tr_onto/BL,Beilen railway station,BL,52.8547,6.52083,1.263157894736842,http://www.group15_KD_tr_onto/280,Eelde,280,53.125,6.585,40,223,0,58,95
167,http://www.group15_KD_tr_onto/DLN,Dalen railway station,DLN,52.6944,6.75806,0.02127659574468085,http://www.group15_KD_tr_onto/280,Eelde,280,53.125,6.585,40,223,0,58,95
168,http://www.group15_KD_tr_onto/EMNZ,Emmen Zuid railway station,EMNZ,52.7489,6.87472,0.04878048780487805,http://www.group15_KD_tr_onto/280,Eelde,280,53.125,6.585,40,223,0,58,95
169,http://www.group15_KD_tr_onto/EMN,Emmen railway station,EMN,52.7903,6.89917,0.04878048780487805,http://www.group15_KD_tr_onto/280,Eelde,280,53.125,6.585,40,223,0,58,95
170,http://www.group15_KD_tr_onto/GBG,Gramsbergen railway station,GBG,52.6094,6.67583,0.5531914893617021,http://www.group15_KD_tr_onto/280,Eelde,280,53.125,6.585,40,223,0,58,95
171,http://www.group15_KD_tr_onto/GK,Grijpskerk railway station,GK,53.2556,6.31056,1.0289855072463767,http://www.group15_KD_tr_onto/280,Eelde,280,53.125,6.585,40,223,0,58,95
172,http://www.group15_KD_tr_onto/GN,Groningen railway station,GN,53.2106,6.56472,1.4368932038834952,http://www.group15_KD_tr_onto/280,Eelde,280,53.125,6.585,40,223,0,58,95
173,http://www.group15_KD_tr_onto/HDB,Hardenberg railway station,HDB,52.5722,6.62778,0.2288135593220339,http://www.group15_KD_tr_onto/280,Eelde,280,53.125,6.585,40,223,0,58,95
174,http://www.group15_KD_tr_onto/HGV,Hoogeveen railway station,HGV,52.7333,6.4725,0.8421052631578947,http://www.group15_KD_tr_onto/280,Eelde,280,53.125,6.585,40,223,0,58,95
175,http://www.group15_KD_tr_onto/HRN,Haren (NL) railway station,HRN,53.175,6.61778,0.98989898989899,http://www.group15_KD_tr_onto/280,Eelde,280,53.125,6.585,40,223,0,58,95
176,http://www.group15_KD_tr_onto/KW,Kropswolde railway station,KW,53.1617,6.72139,1.2571428571428571,http://www.group15_KD_tr_onto/280,Eelde,280,53.125,6.585,40,223,0,58,95
177,http://www.group15_KD_tr_onto/NA,Nieuw Amsterdam railway station,NA,52.7186,6.84861,0.13157894736842105,http://www.group15_KD_tr_onto/280,Eelde,280,53.125,6.585,40,223,0,58,95
178,http://www.group15_KD_tr_onto/NSCH,Bad Nieuweschans railway station,NSCH,53.1842,7.19944,1.3333333333333333,http://www.group15_KD_tr_onto/280,Eelde,280,53.125,6.585,40,223,0,58,95
179,http://www.group15_KD_tr_onto/SWK,Steenwijk railway station,SWK,52.7908,6.11611,0.6827586206896552,http://www.group15_KD_tr_onto/280,Eelde,280,53.125,6.585,40,223,0,58,95
180,http://www.group15_KD_tr_onto/VDM,Veendam railway station,VDM,53.1036,6.88472,1.1714285714285715,http://www.group15_KD_tr_onto/280,Eelde,280,53.125,6.585,40,223,0,58,95
181,http://www.group15_KD_tr_onto/VD,Coevorden railway station,VD,52.6631,6.73556,0.34782608695652173,http://www.group15_KD_tr_onto/280,Eelde,280,53.125,6.585,40,223,0,58,95
182,http://www.group15_KD_tr_onto/BGN,Bergen op Zoom railway station,BGN,51.4947,4.29611,1.4298245614035088,http://www.group15_KD_tr_onto/340,Woensdrecht,340,51.449,4.342,50,231,12,57,146
183,http://www.group15_KD_tr_onto/KBD,Krabbendijke railway station,KBD,51.4333,4.11694,1.1625,http://www.group15_KD_tr_onto/340,Woensdrecht,340,51.449,4.342,50,231,12,57,146
184,http://www.group15_KD_tr_onto/KRG,Kruiningen-Yerseke railway station,KRG,51.4653,4.03694,0.925,http://www.group15_KD_tr_onto/340,Woensdrecht,340,51.449,4.342,50,231,12,57,146
185,http://www.group15_KD_tr_onto/ODB,Oudenbosch railway station,ODB,51.5881,4.53361,1.8985507246376812,http://www.group15_KD_tr_onto/340,Woensdrecht,340,51.449,4.342,50,231,12,57,146
186,http://www.group15_KD_tr_onto/RB,Rilland-Bath railway station,RB,51.4222,4.16111,1.2375,http://www.group15_KD_tr_onto/340,Woensdrecht,340,51.449,4.342,50,231,12,57,146
187,http://www.group15_KD_tr_onto/RSD,Roosendaal railway station,RSD,51.5403,4.45889,2.3316831683168315,http://www.group15_KD_tr_onto/340,Woensdrecht,340,51.449,4.342,50,231,12,57,146
188,http://www.group15_KD_tr_onto/BSKS,Boskoop Snijdelwijk railway station,BSKS,52.0676,4.6462,0.038461538461538464,http://www.group15_KD_tr_onto/344,Rotterdam,344,51.962,4.447,50,226,0,65,136
189,http://www.group15_KD_tr_onto/CPS,Capelle Schollevaar railway station,CPS,51.9533,4.58417,0.323943661971831,http://www.group15_KD_tr_onto/344,Rotterdam,344,51.962,4.447,50,226,0,65,136
190,http://www.group15_KD_tr_onto/DT,Rotterdam Delftsche Poort railway station,DT,51.9253,4.47361,0.7074468085106383,http://www.group15_KD_tr_onto/344,Rotterdam,344,51.962,4.447,50,226,0,65,136
191,http://www.group15_KD_tr_onto/EC,Dordrecht railway station,EC,51.8075,4.66778,0.5135135135135135,http://www.group15_KD_tr_onto/344,Rotterdam,344,51.962,4.447,50,226,0,65,136
192,http://www.group15_KD_tr_onto/GD,Gouda railway station,GD,52.0175,4.70556,0.8180428134556575,http://www.group15_KD_tr_onto/344,Rotterdam,344,51.962,4.447,50,226,0,65,136
193,http://www.group15_KD_tr_onto/GVMW,Den Haag Moerwijk railway station,GVMW,52.0533,4.30861,0.4244604316546763,http://www.group15_KD_tr_onto/344,Rotterdam,344,51.962,4.447,50,226,0,65,136
194,http://www.group15_KD_tr_onto/NWK,Nieuwerkerk aan den IJssel railway station,NWK,51.9653,4.61694,0.36619718309859156,http://www.group15_KD_tr_onto/344,Rotterdam,344,51.962,4.447,50,226,0,65,136
195,http://www.group15_KD_tr_onto/RLB,Rotterdam Lombardijen railway station,RLB,51.8797,4.53111,0.32275132275132273,http://www.group15_KD_tr_onto/344,Rotterdam,344,51.962,4.447,50,226,0,65,136
196,http://www.group15_KD_tr_onto/RSW,Rijswijk railway station,RSW,52.0394,4.31972,0.39568345323741005,http://www.group15_KD_tr_onto/344,Rotterdam,344,51.962,4.447,50,226,0,65,136
197,http://www.group15_KD_tr_onto/RTA,Rotterdam Alexander station,RTA,51.9519,4.55278,0.9385665529010239,http://www.group15_KD_tr_onto/344,Rotterdam,344,51.962,4.447,50,226,0,65,136
198,http://www.group15_KD_tr_onto/RTB,Rotterdam Blaak station,RTB,51.92,4.48917,0.6422287390029325,http://www.group15_KD_tr_onto/344,Rotterdam,344,51.962,4.447,50,226,0,65,136
199,http://www.group15_KD_tr_onto/RTD,Rotterdam Centraal station,RTD,51.9244,4.46944,1.5654008438818565,http://www.group15_KD_tr_onto/344,Rotterdam,344,51.962,4.447,50,226,0,65,136
200,http://www.group15_KD_tr_onto/RTN,Rotterdam Noord railway station,RTN,51.9422,4.48139,0.4647887323943662,http://www.group15_KD_tr_onto/344,Rotterdam,344,51.962,4.447,50,226,0,65,136
201,http://www.group15_KD_tr_onto/RTZ,Rotterdam Zuid railway station,RTZ,51.9094,4.50944,0.3544973544973545,http://www.group15_KD_tr_onto/344,Rotterdam,344,51.962,4.447,50,226,0,65,136
202,http://www.group15_KD_tr_onto/SDM,Schiedam Centrum station,SDM,51.9219,4.41,0.5068493150684932,http://www.group15_KD_tr_onto/344,Rotterdam,344,51.962,4.447,50,226,0,65,136
203,http://www.group15_KD_tr_onto/SDT,Sliedrecht Baanhoek railway station,SDT,51.8297,4.74333,0.6233766233766234,http://www.group15_KD_tr_onto/344,Rotterdam,344,51.962,4.447,50,226,0,65,136
204,http://www.group15_KD_tr_onto/YPB,Den Haag Ypenburg railway station,YPB,52.0592,4.38972,0.47297297297297297,http://www.group15_KD_tr_onto/344,Rotterdam,344,51.962,4.447,50,226,0,65,136
205,http://www.group15_KD_tr_onto/ZTM,Lansingerland-Zoetermeer railway station,ZTM,52.0394,4.52556,0.47297297297297297,http://www.group15_KD_tr_onto/344,Rotterdam,344,51.962,4.447,50,226,0,65,136
206,http://www.group15_KD_tr_onto/ZWD,Zwijndrecht railway station,ZWD,51.8147,4.64222,0.32275132275132273,http://www.group15_KD_tr_onto/344,Rotterdam,344,51.962,4.447,50,226,0,65,136
207,http://www.group15_KD_tr_onto/BD,Breda railway station,BD,51.595,4.78,2.038805970149254,http://www.group15_KD_tr_onto/350,Gilze-Rijen,350,51.566,4.936,50,237,16,57,160
208,http://www.group15_KD_tr_onto/BHDV,Boven Hardinxveld railway station,BHDV,51.8319,4.87472,0.2987012987012987,http://www.group15_KD_tr_onto/350,Gilze-Rijen,350,51.566,4.936,50,237,16,57,160
209,http://www.group15_KD_tr_onto/ETN,Etten-Leur railway station,ETN,51.5753,4.63694,0.9904761904761905,http://www.group15_KD_tr_onto/350,Gilze-Rijen,350,51.566,4.936,50,237,16,57,160
210,http://www.group15_KD_tr_onto/GND,Hardinxveld-Giessendam railway station,GND,51.8303,4.83528,0.38961038961038963,http://www.group15_KD_tr_onto/350,Gilze-Rijen,350,51.566,4.936,50,237,16,57,160
211,http://www.group15_KD_tr_onto/GR,Gorinchem railway station,GR,51.8336,4.9675,0.27419354838709675,http://www.group15_KD_tr_onto/350,Gilze-Rijen,350,51.566,4.936,50,237,16,57,160
212,http://www.group15_KD_tr_onto/GZ,Gilze-Rijen railway station,GZ,51.5839,4.925,1.4096385542168675,http://www.group15_KD_tr_onto/350,Gilze-Rijen,350,51.566,4.936,50,237,16,57,160
213,http://www.group15_KD_tr_onto/OT,Oisterwijk railway station,OT,51.5822,5.19444,0.24285714285714285,http://www.group15_KD_tr_onto/350,Gilze-Rijen,350,51.566,4.936,50,237,16,57,160
214,http://www.group15_KD_tr_onto/TBR,Tilburg Reeshof railway station,TBR,51.5739,4.99278,1.5060240963855422,http://www.group15_KD_tr_onto/350,Gilze-Rijen,350,51.566,4.936,50,237,16,57,160
215,http://www.group15_KD_tr_onto/TBU,Tilburg Universiteit railway station,TBU,51.5653,5.05139,0.9661016949152542,http://www.group15_KD_tr_onto/350,Gilze-Rijen,350,51.566,4.936,50,237,16,57,160
216,http://www.group15_KD_tr_onto/TB,Tilburg railway station,TB,51.5606,5.08278,1.3106508875739644,http://www.group15_KD_tr_onto/350,Gilze-Rijen,350,51.566,4.936,50,237,16,57,160
217,http://www.group15_KD_tr_onto/ZLW,Lage Zwaluwe railway station,ZLW,51.6906,4.66333,1.5855263157894737,http://www.group15_KD_tr_onto/350,Gilze-Rijen,350,51.566,4.936,50,237,16,57,160
218,http://www.group15_KD_tr_onto/ZVB,Zevenbergen railway station,ZVB,51.6414,4.60972,1.8405797101449275,http://www.group15_KD_tr_onto/350,Gilze-Rijen,350,51.566,4.936,50,237,16,57,160
219,http://www.group15_KD_tr_onto/BET,Best railway station,BET,51.5097,5.38889,0.5878378378378378,http://www.group15_KD_tr_onto/370,Eindhoven,370,51.451,5.377,40,239,65,39,139
220,http://www.group15_KD_tr_onto/BMR,Boxmeer railway station,BMR,51.6444,5.93944,0.28888888888888886,http://www.group15_KD_tr_onto/370,Eindhoven,370,51.451,5.377,40,239,65,39,139
221,http://www.group15_KD_tr_onto/BR,Blerick railway station,BR,51.3725,6.155,0.9050632911392406,http://www.group15_KD_tr_onto/370,Eindhoven,370,51.451,5.377,40,239,65,39,139
222,http://www.group15_KD_tr_onto/BTL,Boxtel railway station,BTL,51.5844,5.31889,0.6274509803921569,http://www.group15_KD_tr_onto/370,Eindhoven,370,51.451,5.377,40,239,65,39,139
223,http://www.group15_KD_tr_onto/DN,Deurne railway station,DN,51.4558,5.78833,1.3925233644859814,http://www.group15_KD_tr_onto/370,Eindhoven,370,51.451,5.377,40,239,65,39,139
224,http://www.group15_KD_tr_onto/EHS,Eindhoven Stadion railway station,EHS,51.443,5.46731,0.527027027027027,http://www.group15_KD_tr_onto/370,Eindhoven,370,51.451,5.377,40,239,65,39,139
225,http://www.group15_KD_tr_onto/EHV,Eindhoven Centraal railway station,EHV,51.4428,5.48028,1.0049627791563276,http://www.group15_KD_tr_onto/370,Eindhoven,370,51.451,5.377,40,239,65,39,139
226,http://www.group15_KD_tr_onto/GP,Geldrop railway station,GP,51.42,5.55111,0.4411764705882353,http://www.group15_KD_tr_onto/370,Eindhoven,370,51.451,5.377,40,239,65,39,139
227,http://www.group15_KD_tr_onto/HMH,Helmond 't Hout railway station,HMH,51.4678,5.63083,0.5522388059701493,http://www.group15_KD_tr_onto/370,Eindhoven,370,51.451,5.377,40,239,65,39,139
228,http://www.group15_KD_tr_onto/HM,Helmond railway station,HM,51.4756,5.66167,0.9858156028368794,http://www.group15_KD_tr_onto/370,Eindhoven,370,51.451,5.377,40,239,65,39,139
229,http://www.group15_KD_tr_onto/HRT,Horst-Sevenum railway station,HRT,51.4267,6.04194,0.972972972972973,http://www.group15_KD_tr_onto/370,Eindhoven,370,51.451,5.377,40,239,65,39,139
230,http://www.group15_KD_tr_onto/HT,'s-Hertogenbosch railway station,HT,51.69,5.29333,1.4439918533604887,http://www.group15_KD_tr_onto/370,Eindhoven,370,51.451,5.377,40,239,65,39,139
231,http://www.group15_KD_tr_onto/HZ,Heeze railway station,HZ,51.385,5.56944,2.8947368421052633,http://www.group15_KD_tr_onto/370,Eindhoven,370,51.451,5.377,40,239,65,39,139
232,http://www.group15_KD_tr_onto/MZ,Maarheeze railway station,MZ,51.3039,5.63028,0.4411764705882353,http://www.group15_KD_tr_onto/370,Eindhoven,370,51.451,5.377,40,239,65,39,139
233,http://www.group15_KD_tr_onto/OW,Oss West railway station,OW,51.7581,5.50611,0.8488372093023255,http://www.group15_KD_tr_onto/370,Eindhoven,370,51.451,5.377,40,239,65,39,139
234,http://www.group15_KD_tr_onto/O,Oss railway station,O,51.7653,5.53167,1.4947368421052631,http://www.group15_KD_tr_onto/370,Eindhoven,370,51.451,5.377,40,239,65,39,139
235,http://www.group15_KD_tr_onto/RS,Rosmalen railway station,RS,51.715,5.36889,0.8953488372093024,http://www.group15_KD_tr_onto/370,Eindhoven,370,51.451,5.377,40,239,65,39,139
236,http://www.group15_KD_tr_onto/TG,Tegelen railway station,TG,51.3411,6.14333,1.4,http://www.group15_KD_tr_onto/370,Eindhoven,370,51.451,5.377,40,239,65,39,139
237,http://www.group15_KD_tr_onto/VG,Vught railway station,VG,51.6547,5.29194,0.7692307692307693,http://www.group15_KD_tr_onto/370,Eindhoven,370,51.451,5.377,40,239,65,39,139
238,http://www.group15_KD_tr_onto/VLB,Vierlingsbeek railway station,VLB,51.5922,5.99667,0.6444444444444445,http://www.group15_KD_tr_onto/370,Eindhoven,370,51.451,5.377,40,239,65,39,139
239,http://www.group15_KD_tr_onto/VL,Venlo railway station,VL,51.3647,6.17139,1.5034013605442176,http://www.group15_KD_tr_onto/370,Eindhoven,370,51.451,5.377,40,239,65,39,139
240,http://www.group15_KD_tr_onto/VRY,Venray railway station,VRY,51.5264,6.01417,0.8555555555555555,http://www.group15_KD_tr_onto/370,Eindhoven,370,51.451,5.377,40,239,65,39,139
241,http://www.group15_KD_tr_onto/WT,Weert railway station,WT,51.2486,5.7025,0.5846994535519126,http://www.group15_KD_tr_onto/370,Eindhoven,370,51.451,5.377,40,239,65,39,139
242,http://www.group15_KD_tr_onto/CVM,Chevremont railway station,CVM,50.8758,6.05944,0.3684210526315789,http://www.group15_KD_tr_onto/380,Maastricht,380,50.906,5.762,50,237,88,42,185
243,http://www.group15_KD_tr_onto/EDN,Eijsden railway station,EDN,50.772,5.71004,1.0555555555555556,http://www.group15_KD_tr_onto/380,Maastricht,380,50.906,5.762,50,237,88,42,185
244,http://www.group15_KD_tr_onto/EGH,Eygelshoven railway station,EGH,50.8903,6.04556,0.23684210526315788,http://www.group15_KD_tr_onto/380,Maastricht,380,50.906,5.762,50,237,88,42,185
245,http://www.group15_KD_tr_onto/GLN,Geleen Oost railway station,GLN,50.9672,5.84306,0.5789473684210527,http://www.group15_KD_tr_onto/380,Maastricht,380,50.906,5.762,50,237,88,42,185
246,http://www.group15_KD_tr_onto/HB,Hoensbroek railway station,HB,50.9053,5.93111,0.7236842105263158,http://www.group15_KD_tr_onto/380,Maastricht,380,50.906,5.762,50,237,88,42,185
247,http://www.group15_KD_tr_onto/HRLW,Heerlen Woonboulevard railway station,HRLW,50.8961,5.95278,0.16666666666666666,http://www.group15_KD_tr_onto/380,Maastricht,380,50.906,5.762,50,237,88,42,185
248,http://www.group15_KD_tr_onto/HRL,Heerlen railway station,HRL,50.8908,5.97472,0.6945812807881774,http://www.group15_KD_tr_onto/380,Maastricht,380,50.906,5.762,50,237,88,42,185
249,http://www.group15_KD_tr_onto/KMR,Klimmen-Ransdaal railway station,KMR,50.8667,5.89056,0.15384615384615385,http://www.group15_KD_tr_onto/380,Maastricht,380,50.906,5.762,50,237,88,42,185
250,http://www.group15_KD_tr_onto/KRD,Kerkrade Centrum railway station,KRD,50.8614,6.0575,0.42105263157894735,http://www.group15_KD_tr_onto/380,Maastricht,380,50.906,5.762,50,237,88,42,185
251,http://www.group15_KD_tr_onto/LG,Landgraaf railway station,LG,50.8964,6.02,0.9824561403508771,http://www.group15_KD_tr_onto/380,Maastricht,380,50.906,5.762,50,237,88,42,185
252,http://www.group15_KD_tr_onto/MT,Maastricht railway station,MT,50.85,5.70528,0.46938775510204084,http://www.group15_KD_tr_onto/380,Maastricht,380,50.906,5.762,50,237,88,42,185
253,http://www.group15_KD_tr_onto/NH,Nuth railway station,NH,50.9197,5.8925,0.618421052631579,http://www.group15_KD_tr_onto/380,Maastricht,380,50.906,5.762,50,237,88,42,185
254,http://www.group15_KD_tr_onto/RM,Roermond railway station,RM,51.1933,5.99472,0.5541125541125541,http://www.group15_KD_tr_onto/380,Maastricht,380,50.906,5.762,50,237,88,42,185
255,http://www.group15_KD_tr_onto/RV,Reuver railway station,RV,51.2831,6.07944,1.1666666666666667,http://www.group15_KD_tr_onto/380,Maastricht,380,50.906,5.762,50,237,88,42,185
256,http://www.group15_KD_tr_onto/SBK,Spaubeek railway station,SBK,50.9431,5.84972,0.7368421052631579,http://www.group15_KD_tr_onto/380,Maastricht,380,50.906,5.762,50,237,88,42,185
257,http://www.group15_KD_tr_onto/SM,Swalmen railway station,SM,51.2358,6.0325,0.3888888888888889,http://www.group15_KD_tr_onto/380,Maastricht,380,50.906,5.762,50,237,88,42,185
258,http://www.group15_KD_tr_onto/SN,Schinnen railway station,SN,50.9386,5.87611,0.881578947368421,http://www.group15_KD_tr_onto/380,Maastricht,380,50.906,5.762,50,237,88,42,185
259,http://www.group15_KD_tr_onto/SRN,Susteren railway station,SRN,51.0608,5.86278,0.47297297297297297,http://www.group15_KD_tr_onto/380,Maastricht,380,50.906,5.762,50,237,88,42,185
260,http://www.group15_KD_tr_onto/STD,Sittard railway station,STD,51.0011,5.85833,0.39473684210526316,http://www.group15_KD_tr_onto/380,Maastricht,380,50.906,5.762,50,237,88,42,185
261,http://www.group15_KD_tr_onto/VDL,Voerendaal railway station,VDL,50.8867,5.92944,0.15384615384615385,http://www.group15_KD_tr_onto/380,Maastricht,380,50.906,5.762,50,237,88,42,185
