,station,station_name,station_code,ts_lat,ts_long,delay,ws,ws_name,ws_code,ws_lat,ws_long,windspeed,mean_temp,percipitation,visibility,wind_direction
0,http://www.group15_KD_tr_onto/AMR,Alkmaar railway station,AMR,52.6378,4.74056,0.5297297297297298,http://www.group15_KD_tr_onto/235,De Kooy,235,52.928,4.781,50,164,-1,75,9
1,http://www.group15_KD_tr_onto/ANA,Anna Paulowna railway station,ANA,52.8669,4.81111,0.5131578947368421,http://www.group15_KD_tr_onto/235,De Kooy,235,52.928,4.781,50,164,-1,75,9
2,http://www.group15_KD_tr_onto/HDRZ,Den Helder Zuid railway station,HDRZ,52.9331,4.76389,0.5526315789473685,http://www.group15_KD_tr_onto/235,De Kooy,235,52.928,4.781,50,164,-1,75,9
3,http://www.group15_KD_tr_onto/HDR,Den Helder railway station,HDR,52.9564,4.76083,0.5641025641025641,http://www.group15_KD_tr_onto/235,De Kooy,235,52.928,4.781,50,164,-1,75,9
4,http://www.group15_KD_tr_onto/HWD,Heerhugowaard railway station,HWD,52.67,4.82361,0.30985915492957744,http://www.group15_KD_tr_onto/235,De Kooy,235,52.928,4.781,50,164,-1,75,9
5,http://www.group15_KD_tr_onto/OBD,Obdam railway station,OBD,52.6781,4.90833,0.4090909090909091,http://www.group15_KD_tr_onto/235,De Kooy,235,52.928,4.781,50,164,-1,75,9
6,http://www.group15_KD_tr_onto/SGN,Schagen railway station,SGN,52.7861,4.80528,0.4473684210526316,http://www.group15_KD_tr_onto/235,De Kooy,235,52.928,4.781,50,164,-1,75,9
7,http://www.group15_KD_tr_onto/AC,Abcoude railway station,AC,52.2744,4.98222,0.21212121212121213,http://www.group15_KD_tr_onto/240,Schiphol,240,52.318,4.79,50,163,2,70,12
8,http://www.group15_KD_tr_onto/AMPO,Almere Poort railway station,AMPO,52.3428,5.15194,0.26851851851851855,http://www.group15_KD_tr_onto/240,Schiphol,240,52.318,4.79,50,163,2,70,12
9,http://www.group15_KD_tr_onto/ASA,Amsterdam Amstel station,ASA,52.3464,4.91778,0.4028776978417266,http://www.group15_KD_tr_onto/240,Schiphol,240,52.318,4.79,50,163,2,70,12
10,http://www.group15_KD_tr_onto/ASB,Amsterdam Bijlmer ArenA station,ASB,52.3131,4.94611,0.3678571428571429,http://www.group15_KD_tr_onto/240,Schiphol,240,52.318,4.79,50,163,2,70,12
11,http://www.group15_KD_tr_onto/ASDL,Amsterdam Lelylaan station,ASDL,52.3572,4.83389,0.39655172413793105,http://www.group15_KD_tr_onto/240,Schiphol,240,52.318,4.79,50,163,2,70,12
12,http://www.group15_KD_tr_onto/ASDM,Amsterdam Muiderpoort railway station,ASDM,52.3608,4.93111,0.3881118881118881,http://www.group15_KD_tr_onto/240,Schiphol,240,52.318,4.79,50,163,2,70,12
13,http://www.group15_KD_tr_onto/ASDZ,Amsterdam Zuid station,ASDZ,52.3389,4.87306,0.3258426966292135,http://www.group15_KD_tr_onto/240,Schiphol,240,52.318,4.79,50,163,2,70,12
14,http://www.group15_KD_tr_onto/ASD,Amsterdam Centraal station,ASD,52.3783,4.9,0.8469135802469135,http://www.group15_KD_tr_onto/240,Schiphol,240,52.318,4.79,50,163,2,70,12
15,http://www.group15_KD_tr_onto/ASSP,Amsterdam Science Park railway station,ASSP,52.3525,4.94861,0.5584415584415584,http://www.group15_KD_tr_onto/240,Schiphol,240,52.318,4.79,50,163,2,70,12
16,http://www.group15_KD_tr_onto/ASS,Amsterdam Sloterdijk station,ASS,52.3892,4.83806,0.3830034924330617,http://www.group15_KD_tr_onto/240,Schiphol,240,52.318,4.79,50,163,2,70,12
17,http://www.group15_KD_tr_onto/BLL,Bloemendaal railway station,BLL,52.4042,4.6275,0.5384615384615384,http://www.group15_KD_tr_onto/240,Schiphol,240,52.318,4.79,50,163,2,70,12
18,http://www.group15_KD_tr_onto/BV,Beverwijk railway station,BV,52.4783,4.65611,0.13725490196078433,http://www.group15_KD_tr_onto/240,Schiphol,240,52.318,4.79,50,163,2,70,12
19,http://www.group15_KD_tr_onto/CAS,Castricum railway station,CAS,52.5456,4.65889,0.3815789473684211,http://www.group15_KD_tr_onto/240,Schiphol,240,52.318,4.79,50,163,2,70,12
20,http://www.group15_KD_tr_onto/DMNZ,Diemen Zuid station,DMNZ,52.3303,4.95639,0.3972602739726027,http://www.group15_KD_tr_onto/240,Schiphol,240,52.318,4.79,50,163,2,70,12
21,http://www.group15_KD_tr_onto/DMN,Diemen railway station,DMN,52.3453,4.96694,0.525974025974026,http://www.group15_KD_tr_onto/240,Schiphol,240,52.318,4.79,50,163,2,70,12
22,http://www.group15_KD_tr_onto/HAD,Heemstede-Aerdenhout railway station,HAD,52.3597,4.60694,0.2,http://www.group15_KD_tr_onto/240,Schiphol,240,52.318,4.79,50,163,2,70,12
23,http://www.group15_KD_tr_onto/HFD,Hoofddorp railway station,HFD,52.2933,4.7,0.24347826086956523,http://www.group15_KD_tr_onto/240,Schiphol,240,52.318,4.79,50,163,2,70,12
24,http://www.group15_KD_tr_onto/HIL,Hillegom railway station,HIL,52.3028,4.56583,0.21518987341772153,http://www.group15_KD_tr_onto/240,Schiphol,240,52.318,4.79,50,163,2,70,12
25,http://www.group15_KD_tr_onto/HK,Heemskerk railway station,HK,52.4947,4.68611,0.15384615384615385,http://www.group15_KD_tr_onto/240,Schiphol,240,52.318,4.79,50,163,2,70,12
26,http://www.group15_KD_tr_onto/HLMS,Haarlem Spaarnwoude railway station,HLMS,52.3828,4.67111,0.625,http://www.group15_KD_tr_onto/240,Schiphol,240,52.318,4.79,50,163,2,70,12
27,http://www.group15_KD_tr_onto/HLM,Haarlem railway station,HLM,52.3878,4.63889,0.22,http://www.group15_KD_tr_onto/240,Schiphol,240,52.318,4.79,50,163,2,70,12
28,http://www.group15_KD_tr_onto/HLO,Heiloo railway station,HLO,52.6,4.70083,0.36312849162011174,http://www.group15_KD_tr_onto/240,Schiphol,240,52.318,4.79,50,163,2,70,12
29,http://www.group15_KD_tr_onto/HWZB,Halfweg-Zwanenburg railway station,HWZB,52.3847,4.75167,0.5328947368421053,http://www.group15_KD_tr_onto/240,Schiphol,240,52.318,4.79,50,163,2,70,12
30,http://www.group15_KD_tr_onto/NVP,Nieuw-Vennep railway station,NVP,52.2597,4.64556,0.1794871794871795,http://www.group15_KD_tr_onto/240,Schiphol,240,52.318,4.79,50,163,2,70,12
31,http://www.group15_KD_tr_onto/OVN,Overveen railway station,OVN,52.3908,4.60778,0.40789473684210525,http://www.group15_KD_tr_onto/240,Schiphol,240,52.318,4.79,50,163,2,70,12
32,http://www.group15_KD_tr_onto/PMR,Purmerend railway station,PMR,52.5033,4.95417,0.2597402597402597,http://www.group15_KD_tr_onto/240,Schiphol,240,52.318,4.79,50,163,2,70,12
33,http://www.group15_KD_tr_onto/PMW,Purmerend Weidevenne railway station,PMW,52.4967,4.93667,0.24675324675324675,http://www.group15_KD_tr_onto/240,Schiphol,240,52.318,4.79,50,163,2,70,12
34,http://www.group15_KD_tr_onto/RAI,Amsterdam RAI station,RAI,52.3367,4.89056,0.3698630136986301,http://www.group15_KD_tr_onto/240,Schiphol,240,52.318,4.79,50,163,2,70,12
35,http://www.group15_KD_tr_onto/SHL,Schiphol Airport railway station,SHL,52.3089,4.76167,0.575,http://www.group15_KD_tr_onto/240,Schiphol,240,52.318,4.79,50,163,2,70,12
36,http://www.group15_KD_tr_onto/SPTN,Santpoort Noord railway station,SPTN,52.4428,4.63917,0.14102564102564102,http://www.group15_KD_tr_onto/240,Schiphol,240,52.318,4.79,50,163,2,70,12
37,http://www.group15_KD_tr_onto/SPTZ,Santpoort Zuid railway station,SPTZ,52.4194,4.63167,0.1794871794871795,http://www.group15_KD_tr_onto/240,Schiphol,240,52.318,4.79,50,163,2,70,12
38,http://www.group15_KD_tr_onto/UTG,Uitgeest railway station,UTG,52.5219,4.70278,0.2847222222222222,http://www.group15_KD_tr_onto/240,Schiphol,240,52.318,4.79,50,163,2,70,12
39,http://www.group15_KD_tr_onto/WM,Wormerveer railway station,WM,52.4892,4.79278,0.48091603053435117,http://www.group15_KD_tr_onto/240,Schiphol,240,52.318,4.79,50,163,2,70,12
40,http://www.group15_KD_tr_onto/WP,Weesp railway station,WP,52.3131,5.04361,0.43333333333333335,http://www.group15_KD_tr_onto/240,Schiphol,240,52.318,4.79,50,163,2,70,12
41,http://www.group15_KD_tr_onto/ZD,Zaandam railway station,ZD,52.4389,4.81472,0.2628398791540785,http://www.group15_KD_tr_onto/240,Schiphol,240,52.318,4.79,50,163,2,70,12
42,http://www.group15_KD_tr_onto/ZVT,Zandvoort aan Zee railway station,ZVT,52.3758,4.53139,0.7105263157894737,http://www.group15_KD_tr_onto/240,Schiphol,240,52.318,4.79,50,163,2,70,12
43,http://www.group15_KD_tr_onto/AKL,Arkel railway station,AKL,51.8719,4.99278,0.14102564102564102,http://www.group15_KD_tr_onto/260,De Bilt,260,52.1,5.18,40,158,0,14,10
44,http://www.group15_KD_tr_onto/BHV,Bilthoven railway station,BHV,52.13,5.20528,0.0,http://www.group15_KD_tr_onto/260,De Bilt,260,52.1,5.18,40,158,0,14,10
45,http://www.group15_KD_tr_onto/BKL,Breukelen railway station,BKL,52.17,4.99056,0.3668639053254438,http://www.group15_KD_tr_onto/260,De Bilt,260,52.1,5.18,40,158,0,14,10
46,http://www.group15_KD_tr_onto/BNK,Bunnik railway station,BNK,52.0631,5.19556,0.248,http://www.group15_KD_tr_onto/260,De Bilt,260,52.1,5.18,40,158,0,14,10
47,http://www.group15_KD_tr_onto/BSD,Beesd railway station,BSD,51.8992,5.195,0.3076923076923077,http://www.group15_KD_tr_onto/260,De Bilt,260,52.1,5.18,40,158,0,14,10
48,http://www.group15_KD_tr_onto/CL,Culemborg railway station,CL,51.9472,5.22722,0.0,http://www.group15_KD_tr_onto/260,De Bilt,260,52.1,5.18,40,158,0,14,10
49,http://www.group15_KD_tr_onto/DB,Driebergen-Zeist railway station,DB,52.065,5.26,0.23163841807909605,http://www.group15_KD_tr_onto/260,De Bilt,260,52.1,5.18,40,158,0,14,10
50,http://www.group15_KD_tr_onto/GDM,Geldermalsen railway station,GDM,51.8839,5.27083,0.3743455497382199,http://www.group15_KD_tr_onto/260,De Bilt,260,52.1,5.18,40,158,0,14,10
51,http://www.group15_KD_tr_onto/HTN,Houten railway station,HTN,52.0344,5.16778,0.3791469194312796,http://www.group15_KD_tr_onto/260,De Bilt,260,52.1,5.18,40,158,0,14,10
52,http://www.group15_KD_tr_onto/LDM,Leerdam railway station,LDM,51.8947,5.09333,0.23076923076923078,http://www.group15_KD_tr_onto/260,De Bilt,260,52.1,5.18,40,158,0,14,10
53,http://www.group15_KD_tr_onto/MAS,Maarssen railway station,MAS,52.1358,5.03306,0.25190839694656486,http://www.group15_KD_tr_onto/260,De Bilt,260,52.1,5.18,40,158,0,14,10
54,http://www.group15_KD_tr_onto/UTLR,Utrecht Leidsche Rijn railway station,UTLR,52.0983,5.06917,0.04477611940298507,http://www.group15_KD_tr_onto/260,De Bilt,260,52.1,5.18,40,158,0,14,10
55,http://www.group15_KD_tr_onto/UTO,Utrecht Overvecht railway station,UTO,52.11,5.12528,0.17040358744394618,http://www.group15_KD_tr_onto/260,De Bilt,260,52.1,5.18,40,158,0,14,10
56,http://www.group15_KD_tr_onto/UTT,Utrecht Terwijde railway station,UTT,52.1008,5.04306,0.014925373134328358,http://www.group15_KD_tr_onto/260,De Bilt,260,52.1,5.18,40,158,0,14,10
57,http://www.group15_KD_tr_onto/UTVR,Utrecht Vaartsche Rijn railway station,UTVR,52.0786,5.1225,0.4676258992805755,http://www.group15_KD_tr_onto/260,De Bilt,260,52.1,5.18,40,158,0,14,10
58,http://www.group15_KD_tr_onto/UTZL,Utrecht Zuilen railway station,UTZL,52.1031,5.08917,0.3,http://www.group15_KD_tr_onto/260,De Bilt,260,52.1,5.18,40,158,0,14,10
59,http://www.group15_KD_tr_onto/UT,Utrecht Centraal railway station,UT,52.0892,5.10972,0.38039673278879815,http://www.group15_KD_tr_onto/260,De Bilt,260,52.1,5.18,40,158,0,14,10
60,http://www.group15_KD_tr_onto/VTN,Vleuten railway station,VTN,52.1031,5.01194,0.08208955223880597,http://www.group15_KD_tr_onto/260,De Bilt,260,52.1,5.18,40,158,0,14,10
61,http://www.group15_KD_tr_onto/WD,Woerden railway station,WD,52.0847,4.89306,0.13818181818181818,http://www.group15_KD_tr_onto/260,De Bilt,260,52.1,5.18,40,158,0,14,10
62,http://www.group15_KD_tr_onto/ZBM,Zaltbommel railway station,ZBM,51.8069,5.26472,0.6103896103896104,http://www.group15_KD_tr_onto/260,De Bilt,260,52.1,5.18,40,158,0,14,10
63,http://www.group15_KD_tr_onto/BKF,Bovenkarspel Flora railway station,BKF,52.6958,5.25306,0.14666666666666667,http://www.group15_KD_tr_onto/267,Stavoren,267,52.898,5.384,70,156,-1,65,350
64,http://www.group15_KD_tr_onto/BKG,Bovenkarspel-Grootebroek railway station,BKG,52.695,5.23611,0.13333333333333333,http://www.group15_KD_tr_onto/267,Stavoren,267,52.898,5.384,70,156,-1,65,350
65,http://www.group15_KD_tr_onto/EKZ,Enkhuizen railway station,EKZ,52.6994,5.28778,0.027777777777777776,http://www.group15_KD_tr_onto/267,Stavoren,267,52.898,5.384,70,156,-1,65,350
66,http://www.group15_KD_tr_onto/HKS,Hoogkarspel railway station,HKS,52.6906,5.18389,0.13333333333333333,http://www.group15_KD_tr_onto/267,Stavoren,267,52.898,5.384,70,156,-1,65,350
67,http://www.group15_KD_tr_onto/HNP,Hindeloopen railway station,HNP,52.9461,5.42306,0.9782608695652174,http://www.group15_KD_tr_onto/267,Stavoren,267,52.898,5.384,70,156,-1,65,350
68,http://www.group15_KD_tr_onto/HN,Hoorn railway station,HN,52.645,5.05472,0.3005464480874317,http://www.group15_KD_tr_onto/267,Stavoren,267,52.898,5.384,70,156,-1,65,350
69,http://www.group15_KD_tr_onto/IJT,IJlst railway station,IJT,53.0147,5.61639,0.5217391304347826,http://www.group15_KD_tr_onto/267,Stavoren,267,52.898,5.384,70,156,-1,65,350
70,http://www.group15_KD_tr_onto/KMW,Koudum-Molkwerum railway station,KMW,52.9022,5.41056,0.9130434782608695,http://www.group15_KD_tr_onto/267,Stavoren,267,52.898,5.384,70,156,-1,65,350
71,http://www.group15_KD_tr_onto/STV,Stavoren railway station,STV,52.8867,5.35972,1.0869565217391304,http://www.group15_KD_tr_onto/267,Stavoren,267,52.898,5.384,70,156,-1,65,350
72,http://www.group15_KD_tr_onto/WK,Workum railway station,WK,52.9714,5.45583,1.0217391304347827,http://www.group15_KD_tr_onto/267,Stavoren,267,52.898,5.384,70,156,-1,65,350
73,http://www.group15_KD_tr_onto/WV,Wolvega railway station,WV,52.8797,6.00472,1.25,http://www.group15_KD_tr_onto/267,Stavoren,267,52.898,5.384,70,156,-1,65,350
74,http://www.group15_KD_tr_onto/ALMB,Almere Buiten railway station,ALMB,52.3942,5.27778,0.17218543046357615,http://www.group15_KD_tr_onto/269,Lelystad,269,52.458,5.52,60,160,-1,65,10
75,http://www.group15_KD_tr_onto/ALMM,Almere Muziekwijk railway station,ALMM,52.3675,5.19028,0.2962962962962963,http://www.group15_KD_tr_onto/269,Lelystad,269,52.458,5.52,60,160,-1,65,10
76,http://www.group15_KD_tr_onto/ALMO,Almere Oostvaarders railway station,ALMO,52.4028,5.3,0.13380281690140844,http://www.group15_KD_tr_onto/269,Lelystad,269,52.458,5.52,60,160,-1,65,10
77,http://www.group15_KD_tr_onto/ALMP,Almere Parkwijk railway station,ALMP,52.3767,5.24444,0.1456953642384106,http://www.group15_KD_tr_onto/269,Lelystad,269,52.458,5.52,60,160,-1,65,10
78,http://www.group15_KD_tr_onto/ALM,Almere Centrum railway station,ALM,52.375,5.21778,0.4807692307692308,http://www.group15_KD_tr_onto/269,Lelystad,269,52.458,5.52,60,160,-1,65,10
79,http://www.group15_KD_tr_onto/DL,Dalfsen railway station,DL,52.4981,6.25861,0.11842105263157894,http://www.group15_KD_tr_onto/269,Lelystad,269,52.458,5.52,60,160,-1,65,10
80,http://www.group15_KD_tr_onto/DRON,Dronten railway station,DRON,52.5339,5.72306,0.05263157894736842,http://www.group15_KD_tr_onto/269,Lelystad,269,52.458,5.52,60,160,-1,65,10
81,http://www.group15_KD_tr_onto/EML,Ermelo railway station,EML,52.3011,5.61444,0.7397260273972602,http://www.group15_KD_tr_onto/269,Lelystad,269,52.458,5.52,60,160,-1,65,10
82,http://www.group15_KD_tr_onto/HDE,'t Harde railway station,HDE,52.4089,5.89306,0.5205479452054794,http://www.group15_KD_tr_onto/269,Lelystad,269,52.458,5.52,60,160,-1,65,10
83,http://www.group15_KD_tr_onto/HD,Harderwijk railway station,HD,52.3375,5.61972,0.6756756756756757,http://www.group15_KD_tr_onto/269,Lelystad,269,52.458,5.52,60,160,-1,65,10
84,http://www.group15_KD_tr_onto/KPNZ,Kampen Zuid railway station,KPNZ,52.5342,5.91583,0.05263157894736842,http://www.group15_KD_tr_onto/269,Lelystad,269,52.458,5.52,60,160,-1,65,10
85,http://www.group15_KD_tr_onto/KPN,Kampen railway station,KPN,52.5597,5.92111,0.0,http://www.group15_KD_tr_onto/269,Lelystad,269,52.458,5.52,60,160,-1,65,10
86,http://www.group15_KD_tr_onto/LLS,Lelystad Centrum railway station,LLS,52.5078,5.47333,0.327683615819209,http://www.group15_KD_tr_onto/269,Lelystad,269,52.458,5.52,60,160,-1,65,10
87,http://www.group15_KD_tr_onto/MP,Meppel railway station,MP,52.6914,6.1975,0.7674418604651163,http://www.group15_KD_tr_onto/269,Lelystad,269,52.458,5.52,60,160,-1,65,10
88,http://www.group15_KD_tr_onto/NS,Nunspeet railway station,NS,52.3708,5.78472,0.7534246575342466,http://www.group15_KD_tr_onto/269,Lelystad,269,52.458,5.52,60,160,-1,65,10
89,http://www.group15_KD_tr_onto/OMN,Ommen railway station,OMN,52.5094,6.41694,0.6578947368421053,http://www.group15_KD_tr_onto/269,Lelystad,269,52.458,5.52,60,160,-1,65,10
90,http://www.group15_KD_tr_onto/PT,Putten railway station,PT,52.2653,5.57611,0.726027397260274,http://www.group15_KD_tr_onto/269,Lelystad,269,52.458,5.52,60,160,-1,65,10
91,http://www.group15_KD_tr_onto/WZ,Wezep railway station,WZ,52.4536,6.00222,0.3013698630136986,http://www.group15_KD_tr_onto/269,Lelystad,269,52.458,5.52,60,160,-1,65,10
92,http://www.group15_KD_tr_onto/ZLSH,Zwolle Stadshagen railway station,ZLSH,52.5279,6.05108,0.02631578947368421,http://www.group15_KD_tr_onto/269,Lelystad,269,52.458,5.52,60,160,-1,65,10
93,http://www.group15_KD_tr_onto/ZL,Zwolle railway station,ZL,52.5053,6.09056,0.6452328159645233,http://www.group15_KD_tr_onto/269,Lelystad,269,52.458,5.52,60,160,-1,65,10
94,http://www.group15_KD_tr_onto/AKM,Akkrum railway station,AKM,53.0472,5.84306,1.4444444444444444,http://www.group15_KD_tr_onto/270,Leeuwarden,270,53.224,5.752,60,145,-1,65,346
95,http://www.group15_KD_tr_onto/DEI,Deinum railway station,DEI,53.1886,5.72778,0.5294117647058824,http://www.group15_KD_tr_onto/270,Leeuwarden,270,53.224,5.752,60,145,-1,65,346
96,http://www.group15_KD_tr_onto/DRP,Dronryp railway station,DRP,53.1775,5.63472,0.4117647058823529,http://www.group15_KD_tr_onto/270,Leeuwarden,270,53.224,5.752,60,145,-1,65,346
97,http://www.group15_KD_tr_onto/FN,Franeker railway station,FN,53.1822,5.54944,0.36764705882352944,http://www.group15_KD_tr_onto/270,Leeuwarden,270,53.224,5.752,60,145,-1,65,346
98,http://www.group15_KD_tr_onto/GW,Grou-Jirnsum railway station,GW,53.0897,5.82222,1.3333333333333333,http://www.group15_KD_tr_onto/270,Leeuwarden,270,53.224,5.752,60,145,-1,65,346
99,http://www.group15_KD_tr_onto/HDG,Hurdegaryp railway station,HDG,53.2186,5.93472,0.5294117647058824,http://www.group15_KD_tr_onto/270,Leeuwarden,270,53.224,5.752,60,145,-1,65,346
100,http://www.group15_KD_tr_onto/HLG,Harlingen railway station,HLG,53.1703,5.42528,0.10294117647058823,http://www.group15_KD_tr_onto/270,Leeuwarden,270,53.224,5.752,60,145,-1,65,346
101,http://www.group15_KD_tr_onto/HR,Heerenveen railway station,HR,52.9606,5.91528,1.0769230769230769,http://www.group15_KD_tr_onto/270,Leeuwarden,270,53.224,5.752,60,145,-1,65,346
102,http://www.group15_KD_tr_onto/LW,Leeuwarden railway station,LW,53.1958,5.79111,0.8774509803921569,http://www.group15_KD_tr_onto/270,Leeuwarden,270,53.224,5.752,60,145,-1,65,346
103,http://www.group15_KD_tr_onto/MG,Mantgum railway station,MG,53.1297,5.71333,0.375,http://www.group15_KD_tr_onto/270,Leeuwarden,270,53.224,5.752,60,145,-1,65,346
104,http://www.group15_KD_tr_onto/SK,Sneek railway station,SK,53.0322,5.65167,0.5272727272727272,http://www.group15_KD_tr_onto/270,Leeuwarden,270,53.224,5.752,60,145,-1,65,346
105,http://www.group15_KD_tr_onto/AHPR,Arnhem Presikhaaf railway station,AHPR,51.9875,5.94306,0.34285714285714286,http://www.group15_KD_tr_onto/275,Deelen,275,52.056,5.873,50,152,-1,64,13
106,http://www.group15_KD_tr_onto/AHZ,Arnhem Zuid railway station,AHZ,51.9542,5.85167,0.12213740458015267,http://www.group15_KD_tr_onto/275,Deelen,275,52.056,5.873,50,152,-1,64,13
107,http://www.group15_KD_tr_onto/AML,Almelo railway station,AML,52.3572,6.655,0.3486590038314176,http://www.group15_KD_tr_onto/275,Deelen,275,52.056,5.873,50,152,-1,64,13
108,http://www.group15_KD_tr_onto/APD,Apeldoorn railway station,APD,52.2092,5.96944,0.6174496644295302,http://www.group15_KD_tr_onto/275,Deelen,275,52.056,5.873,50,152,-1,64,13
109,http://www.group15_KD_tr_onto/ATN,Aalten railway station,ATN,51.9211,6.57806,0.04054054054054054,http://www.group15_KD_tr_onto/275,Deelen,275,52.056,5.873,50,152,-1,64,13
110,http://www.group15_KD_tr_onto/BMN,Brummen railway station,BMN,52.0908,6.14694,0.34285714285714286,http://www.group15_KD_tr_onto/275,Deelen,275,52.056,5.873,50,152,-1,64,13
111,http://www.group15_KD_tr_onto/BN,Borne railway station,BN,52.2983,6.74833,0.03225806451612903,http://www.group15_KD_tr_onto/275,Deelen,275,52.056,5.873,50,152,-1,64,13
112,http://www.group15_KD_tr_onto/CK,Cuijk railway station,CK,51.7264,5.87417,0.09210526315789473,http://www.group15_KD_tr_onto/275,Deelen,275,52.056,5.873,50,152,-1,64,13
113,http://www.group15_KD_tr_onto/DA,Daarlerveen railway station,DA,52.4411,6.57583,0.2037037037037037,http://www.group15_KD_tr_onto/275,Deelen,275,52.056,5.873,50,152,-1,64,13
114,http://www.group15_KD_tr_onto/DDN,Delden railway station,DDN,52.26,6.71444,0.2916666666666667,http://www.group15_KD_tr_onto/275,Deelen,275,52.056,5.873,50,152,-1,64,13
115,http://www.group15_KD_tr_onto/DID,Didam railway station,DID,51.9333,6.13222,0.11627906976744186,http://www.group15_KD_tr_onto/275,Deelen,275,52.056,5.873,50,152,-1,64,13
116,http://www.group15_KD_tr_onto/DR,Dieren railway station,DR,52.045,6.10333,0.34265734265734266,http://www.group15_KD_tr_onto/275,Deelen,275,52.056,5.873,50,152,-1,64,13
117,http://www.group15_KD_tr_onto/DTC,Doetinchem railway station,DTC,51.9583,6.29528,0.17,http://www.group15_KD_tr_onto/275,Deelen,275,52.056,5.873,50,152,-1,64,13
118,http://www.group15_KD_tr_onto/DVN,Duiven railway station,DVN,51.9433,6.01417,0.14728682170542637,http://www.group15_KD_tr_onto/275,Deelen,275,52.056,5.873,50,152,-1,64,13
119,http://www.group15_KD_tr_onto/DV,Deventer railway station,DV,52.2572,6.16083,0.6351931330472103,http://www.group15_KD_tr_onto/275,Deelen,275,52.056,5.873,50,152,-1,64,13
120,http://www.group15_KD_tr_onto/ED,Ede-Wageningen railway station,ED,52.0278,5.67194,0.35348837209302325,http://www.group15_KD_tr_onto/275,Deelen,275,52.056,5.873,50,152,-1,64,13
121,http://www.group15_KD_tr_onto/EST,Elst railway station,EST,51.9167,5.855,0.09895833333333333,http://www.group15_KD_tr_onto/275,Deelen,275,52.056,5.873,50,152,-1,64,13
122,http://www.group15_KD_tr_onto/ES,Enschede railway station,ES,52.2222,6.89,0.07633587786259542,http://www.group15_KD_tr_onto/275,Deelen,275,52.056,5.873,50,152,-1,64,13
123,http://www.group15_KD_tr_onto/GBR,Glanerbrug railway station,GBR,52.2186,6.97389,0.0,http://www.group15_KD_tr_onto/275,Deelen,275,52.056,5.873,50,152,-1,64,13
124,http://www.group15_KD_tr_onto/GDR,Gaanderen railway station,GDR,51.9308,6.34778,0.10810810810810811,http://www.group15_KD_tr_onto/275,Deelen,275,52.056,5.873,50,152,-1,64,13
125,http://www.group15_KD_tr_onto/GO,Goor railway station,GO,52.2303,6.58444,0.15492957746478872,http://www.group15_KD_tr_onto/275,Deelen,275,52.056,5.873,50,152,-1,64,13
126,http://www.group15_KD_tr_onto/HGL,Hengelo railway station,HGL,52.2619,6.79417,0.15719063545150502,http://www.group15_KD_tr_onto/275,Deelen,275,52.056,5.873,50,152,-1,64,13
127,http://www.group15_KD_tr_onto/HMN,Hemmen-Dodewaard railway station,HMN,51.9222,5.67333,0.015625,http://www.group15_KD_tr_onto/275,Deelen,275,52.056,5.873,50,152,-1,64,13
128,http://www.group15_KD_tr_onto/HNO,Heino railway station,HNO,52.4269,6.22194,0.0,http://www.group15_KD_tr_onto/275,Deelen,275,52.056,5.873,50,152,-1,64,13
129,http://www.group15_KD_tr_onto/HON,Holten railway station,HON,52.2839,6.42056,0.9027777777777778,http://www.group15_KD_tr_onto/275,Deelen,275,52.056,5.873,50,152,-1,64,13
130,http://www.group15_KD_tr_onto/KBK,Klarenbeek railway station,KBK,52.1778,6.08417,0.046875,http://www.group15_KD_tr_onto/275,Deelen,275,52.056,5.873,50,152,-1,64,13
131,http://www.group15_KD_tr_onto/KLP,Veenendaal-De Klomp railway station,KLP,52.0458,5.57389,0.5,http://www.group15_KD_tr_onto/275,Deelen,275,52.056,5.873,50,152,-1,64,13
132,http://www.group15_KD_tr_onto/KTR,Kesteren railway station,KTR,51.9314,5.58361,0.0,http://www.group15_KD_tr_onto/275,Deelen,275,52.056,5.873,50,152,-1,64,13
133,http://www.group15_KD_tr_onto/LC,Lochem railway station,LC,52.1667,6.42583,0.04285714285714286,http://www.group15_KD_tr_onto/275,Deelen,275,52.056,5.873,50,152,-1,64,13
134,http://www.group15_KD_tr_onto/LTV,Lichtenvoorde-Groenlo railway station,LTV,52.0117,6.59639,0.057971014492753624,http://www.group15_KD_tr_onto/275,Deelen,275,52.056,5.873,50,152,-1,64,13
135,http://www.group15_KD_tr_onto/MMLH,Mook-Molenhoek railway station,MMLH,51.7647,5.8775,0.19736842105263158,http://www.group15_KD_tr_onto/275,Deelen,275,52.056,5.873,50,152,-1,64,13
136,http://www.group15_KD_tr_onto/NM,Nijmegen railway station,NM,51.8433,5.8525,0.28115015974440893,http://www.group15_KD_tr_onto/275,Deelen,275,52.056,5.873,50,152,-1,64,13
137,http://www.group15_KD_tr_onto/NVD,Nijverdal railway station,NVD,52.3656,6.47028,0.09803921568627451,http://www.group15_KD_tr_onto/275,Deelen,275,52.056,5.873,50,152,-1,64,13
138,http://www.group15_KD_tr_onto/ODZ,Oldenzaal railway station,ODZ,52.3061,6.93361,0.14864864864864866,http://www.group15_KD_tr_onto/275,Deelen,275,52.056,5.873,50,152,-1,64,13
139,http://www.group15_KD_tr_onto/OP,Opheusden railway station,OP,51.9261,5.63694,0.015625,http://www.group15_KD_tr_onto/275,Deelen,275,52.056,5.873,50,152,-1,64,13
140,http://www.group15_KD_tr_onto/OST,Olst railway station,OST,52.335,6.11306,0.32,http://www.group15_KD_tr_onto/275,Deelen,275,52.056,5.873,50,152,-1,64,13
141,http://www.group15_KD_tr_onto/OTB,Oosterbeek railway station,OTB,51.9947,5.84,0.4696969696969697,http://www.group15_KD_tr_onto/275,Deelen,275,52.056,5.873,50,152,-1,64,13
142,http://www.group15_KD_tr_onto/RAT,Raalte railway station,RAT,52.3908,6.27861,0.0,http://www.group15_KD_tr_onto/275,Deelen,275,52.056,5.873,50,152,-1,64,13
143,http://www.group15_KD_tr_onto/RHN,Rhenen railway station,RHN,51.9578,5.57833,0.0,http://www.group15_KD_tr_onto/275,Deelen,275,52.056,5.873,50,152,-1,64,13
144,http://www.group15_KD_tr_onto/RH,Rheden railway station,RH,52.0097,6.02972,0.22857142857142856,http://www.group15_KD_tr_onto/275,Deelen,275,52.056,5.873,50,152,-1,64,13
145,http://www.group15_KD_tr_onto/RL,Ruurlo railway station,RL,52.0806,6.45,0.028985507246376812,http://www.group15_KD_tr_onto/275,Deelen,275,52.056,5.873,50,152,-1,64,13
146,http://www.group15_KD_tr_onto/RSN,Rijssen railway station,RSN,52.3117,6.51917,0.7222222222222222,http://www.group15_KD_tr_onto/275,Deelen,275,52.056,5.873,50,152,-1,64,13
147,http://www.group15_KD_tr_onto/RVS,Ravenstein railway station,RVS,51.7947,5.63722,0.3055555555555556,http://www.group15_KD_tr_onto/275,Deelen,275,52.056,5.873,50,152,-1,64,13
148,http://www.group15_KD_tr_onto/TWL,Twello railway station,TWL,52.2381,6.1,0.5757575757575758,http://www.group15_KD_tr_onto/275,Deelen,275,52.056,5.873,50,152,-1,64,13
149,http://www.group15_KD_tr_onto/VEM,Voorst-Empe railway station,VEM,52.1578,6.14278,0.21875,http://www.group15_KD_tr_onto/275,Deelen,275,52.056,5.873,50,152,-1,64,13
150,http://www.group15_KD_tr_onto/VHP,Vroomshoop railway station,VHP,52.4411,6.57583,0.14814814814814814,http://www.group15_KD_tr_onto/275,Deelen,275,52.056,5.873,50,152,-1,64,13
151,http://www.group15_KD_tr_onto/VP,Arnhem Velperpoort railway station,VP,51.985,5.92,0.22857142857142856,http://www.group15_KD_tr_onto/275,Deelen,275,52.056,5.873,50,152,-1,64,13
152,http://www.group15_KD_tr_onto/VSV,Varsseveld railway station,VSV,51.9369,6.45806,0.013513513513513514,http://www.group15_KD_tr_onto/275,Deelen,275,52.056,5.873,50,152,-1,64,13
153,http://www.group15_KD_tr_onto/VZ,Vriezenveen railway station,VZ,52.4019,6.60028,0.2222222222222222,http://www.group15_KD_tr_onto/275,Deelen,275,52.056,5.873,50,152,-1,64,13
154,http://www.group15_KD_tr_onto/WC,Wijchen railway station,WC,51.8111,5.72944,0.22772277227722773,http://www.group15_KD_tr_onto/275,Deelen,275,52.056,5.873,50,152,-1,64,13
155,http://www.group15_KD_tr_onto/WDN,Wierden railway station,WDN,52.3614,6.59111,0.35135135135135137,http://www.group15_KD_tr_onto/275,Deelen,275,52.056,5.873,50,152,-1,64,13
156,http://www.group15_KD_tr_onto/WF,Wolfheze railway station,WF,52.0053,5.79361,0.2878787878787879,http://www.group15_KD_tr_onto/275,Deelen,275,52.056,5.873,50,152,-1,64,13
157,http://www.group15_KD_tr_onto/WH,Wijhe railway station,WH,52.3936,6.14083,0.6,http://www.group15_KD_tr_onto/275,Deelen,275,52.056,5.873,50,152,-1,64,13
158,http://www.group15_KD_tr_onto/WL,Wehl railway station,WL,51.9567,6.2125,0.20930232558139536,http://www.group15_KD_tr_onto/275,Deelen,275,52.056,5.873,50,152,-1,64,13
159,http://www.group15_KD_tr_onto/WWW,Winterswijk West railway station,WWW,51.9744,6.70361,0.028985507246376812,http://www.group15_KD_tr_onto/275,Deelen,275,52.056,5.873,50,152,-1,64,13
160,http://www.group15_KD_tr_onto/WW,Winterswijk railway station,WW,51.9675,6.71556,0.041666666666666664,http://www.group15_KD_tr_onto/275,Deelen,275,52.056,5.873,50,152,-1,64,13
161,http://www.group15_KD_tr_onto/ZA,Zetten-Andelst railway station,ZA,51.9194,5.72306,0.03125,http://www.group15_KD_tr_onto/275,Deelen,275,52.056,5.873,50,152,-1,64,13
162,http://www.group15_KD_tr_onto/ZP,Zutphen railway station,ZP,52.1444,6.19389,0.2863849765258216,http://www.group15_KD_tr_onto/275,Deelen,275,52.056,5.873,50,152,-1,64,13
163,http://www.group15_KD_tr_onto/ZV,Zevenaar railway station,ZV,51.9231,6.07278,0.6303030303030303,http://www.group15_KD_tr_onto/275,Deelen,275,52.056,5.873,50,152,-1,64,13
164,http://www.group15_KD_tr_onto/ASN,Assen railway station,ASN,52.9917,6.57056,0.6451612903225806,http://www.group15_KD_tr_onto/280,Eelde,280,53.125,6.585,50,143,-1,64,333
165,http://www.group15_KD_tr_onto/BF,Baflo railway station,BF,53.3608,6.51833,0.3783783783783784,http://www.group15_KD_tr_onto/280,Eelde,280,53.125,6.585,50,143,-1,64,333
166,http://www.group15_KD_tr_onto/BL,Beilen railway station,BL,52.8547,6.52083,0.7432432432432432,http://www.group15_KD_tr_onto/280,Eelde,280,53.125,6.585,50,143,-1,64,333
167,http://www.group15_KD_tr_onto/DLN,Dalen railway station,DLN,52.6944,6.75806,0.0425531914893617,http://www.group15_KD_tr_onto/280,Eelde,280,53.125,6.585,50,143,-1,64,333
168,http://www.group15_KD_tr_onto/EMNZ,Emmen Zuid railway station,EMNZ,52.7489,6.87472,0.06578947368421052,http://www.group15_KD_tr_onto/280,Eelde,280,53.125,6.585,50,143,-1,64,333
169,http://www.group15_KD_tr_onto/EMN,Emmen railway station,EMN,52.7903,6.89917,0.07894736842105263,http://www.group15_KD_tr_onto/280,Eelde,280,53.125,6.585,50,143,-1,64,333
170,http://www.group15_KD_tr_onto/GBG,Gramsbergen railway station,GBG,52.6094,6.67583,0.3617021276595745,http://www.group15_KD_tr_onto/280,Eelde,280,53.125,6.585,50,143,-1,64,333
171,http://www.group15_KD_tr_onto/GK,Grijpskerk railway station,GK,53.2556,6.31056,0.23529411764705882,http://www.group15_KD_tr_onto/280,Eelde,280,53.125,6.585,50,143,-1,64,333
172,http://www.group15_KD_tr_onto/GN,Groningen railway station,GN,53.2106,6.56472,0.32894736842105265,http://www.group15_KD_tr_onto/280,Eelde,280,53.125,6.585,50,143,-1,64,333
173,http://www.group15_KD_tr_onto/HDB,Hardenberg railway station,HDB,52.5722,6.62778,0.17647058823529413,http://www.group15_KD_tr_onto/280,Eelde,280,53.125,6.585,50,143,-1,64,333
174,http://www.group15_KD_tr_onto/HGV,Hoogeveen railway station,HGV,52.7333,6.4725,0.3783783783783784,http://www.group15_KD_tr_onto/280,Eelde,280,53.125,6.585,50,143,-1,64,333
175,http://www.group15_KD_tr_onto/HRN,Haren (NL) railway station,HRN,53.175,6.61778,0.4387755102040816,http://www.group15_KD_tr_onto/280,Eelde,280,53.125,6.585,50,143,-1,64,333
176,http://www.group15_KD_tr_onto/KW,Kropswolde railway station,KW,53.1617,6.72139,0.44285714285714284,http://www.group15_KD_tr_onto/280,Eelde,280,53.125,6.585,50,143,-1,64,333
177,http://www.group15_KD_tr_onto/NA,Nieuw Amsterdam railway station,NA,52.7186,6.84861,0.17105263157894737,http://www.group15_KD_tr_onto/280,Eelde,280,53.125,6.585,50,143,-1,64,333
178,http://www.group15_KD_tr_onto/NSCH,Bad Nieuweschans railway station,NSCH,53.1842,7.19944,1.2820512820512822,http://www.group15_KD_tr_onto/280,Eelde,280,53.125,6.585,50,143,-1,64,333
179,http://www.group15_KD_tr_onto/SWK,Steenwijk railway station,SWK,52.7908,6.11611,0.7412587412587412,http://www.group15_KD_tr_onto/280,Eelde,280,53.125,6.585,50,143,-1,64,333
180,http://www.group15_KD_tr_onto/VDM,Veendam railway station,VDM,53.1036,6.88472,0.08571428571428572,http://www.group15_KD_tr_onto/280,Eelde,280,53.125,6.585,50,143,-1,64,333
181,http://www.group15_KD_tr_onto/VD,Coevorden railway station,VD,52.6631,6.73556,0.10144927536231885,http://www.group15_KD_tr_onto/280,Eelde,280,53.125,6.585,50,143,-1,64,333
182,http://www.group15_KD_tr_onto/BGN,Bergen op Zoom railway station,BGN,51.4947,4.29611,0.37962962962962965,http://www.group15_KD_tr_onto/340,Woensdrecht,340,51.449,4.342,50,160,0,65,35
183,http://www.group15_KD_tr_onto/KBD,Krabbendijke railway station,KBD,51.4333,4.11694,0.4675324675324675,http://www.group15_KD_tr_onto/340,Woensdrecht,340,51.449,4.342,50,160,0,65,35
184,http://www.group15_KD_tr_onto/KRG,Kruiningen-Yerseke railway station,KRG,51.4653,4.03694,0.35064935064935066,http://www.group15_KD_tr_onto/340,Woensdrecht,340,51.449,4.342,50,160,0,65,35
185,http://www.group15_KD_tr_onto/ODB,Oudenbosch railway station,ODB,51.5881,4.53361,1.4492753623188406,http://www.group15_KD_tr_onto/340,Woensdrecht,340,51.449,4.342,50,160,0,65,35
186,http://www.group15_KD_tr_onto/RB,Rilland-Bath railway station,RB,51.4222,4.16111,0.5064935064935064,http://www.group15_KD_tr_onto/340,Woensdrecht,340,51.449,4.342,50,160,0,65,35
187,http://www.group15_KD_tr_onto/RSD,Roosendaal railway station,RSD,51.5403,4.45889,0.7103825136612022,http://www.group15_KD_tr_onto/340,Woensdrecht,340,51.449,4.342,50,160,0,65,35
188,http://www.group15_KD_tr_onto/BSKS,Boskoop Snijdelwijk railway station,BSKS,52.0676,4.6462,0.015384615384615385,http://www.group15_KD_tr_onto/344,Rotterdam,344,51.962,4.447,50,159,3,65,24
189,http://www.group15_KD_tr_onto/CPS,Capelle Schollevaar railway station,CPS,51.9533,4.58417,0.3076923076923077,http://www.group15_KD_tr_onto/344,Rotterdam,344,51.962,4.447,50,159,3,65,24
190,http://www.group15_KD_tr_onto/DT,Rotterdam Delftsche Poort railway station,DT,51.9253,4.47361,0.7041095890410959,http://www.group15_KD_tr_onto/344,Rotterdam,344,51.962,4.447,50,159,3,65,24
191,http://www.group15_KD_tr_onto/EC,Dordrecht railway station,EC,51.8075,4.66778,5.64,http://www.group15_KD_tr_onto/344,Rotterdam,344,51.962,4.447,50,159,3,65,24
192,http://www.group15_KD_tr_onto/GD,Gouda railway station,GD,52.0175,4.70556,0.0835030549898167,http://www.group15_KD_tr_onto/344,Rotterdam,344,51.962,4.447,50,159,3,65,24
193,http://www.group15_KD_tr_onto/GVMW,Den Haag Moerwijk railway station,GVMW,52.0533,4.30861,0.460431654676259,http://www.group15_KD_tr_onto/344,Rotterdam,344,51.962,4.447,50,159,3,65,24
194,http://www.group15_KD_tr_onto/NWK,Nieuwerkerk aan den IJssel railway station,NWK,51.9653,4.61694,0.3076923076923077,http://www.group15_KD_tr_onto/344,Rotterdam,344,51.962,4.447,50,159,3,65,24
195,http://www.group15_KD_tr_onto/RLB,Rotterdam Lombardijen railway station,RLB,51.8797,4.53111,0.20863309352517986,http://www.group15_KD_tr_onto/344,Rotterdam,344,51.962,4.447,50,159,3,65,24
196,http://www.group15_KD_tr_onto/RSW,Rijswijk railway station,RSW,52.0394,4.31972,0.4172661870503597,http://www.group15_KD_tr_onto/344,Rotterdam,344,51.962,4.447,50,159,3,65,24
197,http://www.group15_KD_tr_onto/RTA,Rotterdam Alexander station,RTA,51.9519,4.55278,0.2783018867924528,http://www.group15_KD_tr_onto/344,Rotterdam,344,51.962,4.447,50,159,3,65,24
198,http://www.group15_KD_tr_onto/RTB,Rotterdam Blaak station,RTB,51.92,4.48917,0.5176056338028169,http://www.group15_KD_tr_onto/344,Rotterdam,344,51.962,4.447,50,159,3,65,24
199,http://www.group15_KD_tr_onto/RTD,Rotterdam Centraal station,RTD,51.9244,4.46944,0.8299212598425196,http://www.group15_KD_tr_onto/344,Rotterdam,344,51.962,4.447,50,159,3,65,24
200,http://www.group15_KD_tr_onto/RTN,Rotterdam Noord railway station,RTN,51.9422,4.48139,0.5897435897435898,http://www.group15_KD_tr_onto/344,Rotterdam,344,51.962,4.447,50,159,3,65,24
201,http://www.group15_KD_tr_onto/RTZ,Rotterdam Zuid railway station,RTZ,51.9094,4.50944,0.20863309352517986,http://www.group15_KD_tr_onto/344,Rotterdam,344,51.962,4.447,50,159,3,65,24
202,http://www.group15_KD_tr_onto/SDM,Schiedam Centrum station,SDM,51.9219,4.41,0.47017543859649125,http://www.group15_KD_tr_onto/344,Rotterdam,344,51.962,4.447,50,159,3,65,24
203,http://www.group15_KD_tr_onto/SDT,Sliedrecht Baanhoek railway station,SDT,51.8297,4.74333,0.17647058823529413,http://www.group15_KD_tr_onto/344,Rotterdam,344,51.962,4.447,50,159,3,65,24
204,http://www.group15_KD_tr_onto/YPB,Den Haag Ypenburg railway station,YPB,52.0592,4.38972,0.11851851851851852,http://www.group15_KD_tr_onto/344,Rotterdam,344,51.962,4.447,50,159,3,65,24
205,http://www.group15_KD_tr_onto/ZTM,Lansingerland-Zoetermeer railway station,ZTM,52.0394,4.52556,0.11851851851851852,http://www.group15_KD_tr_onto/344,Rotterdam,344,51.962,4.447,50,159,3,65,24
206,http://www.group15_KD_tr_onto/ZWD,Zwijndrecht railway station,ZWD,51.8147,4.64222,0.2517985611510791,http://www.group15_KD_tr_onto/344,Rotterdam,344,51.962,4.447,50,159,3,65,24
207,http://www.group15_KD_tr_onto/BD,Breda railway station,BD,51.595,4.78,1.3624161073825503,http://www.group15_KD_tr_onto/350,Gilze-Rijen,350,51.566,4.936,50,159,0,65,10
208,http://www.group15_KD_tr_onto/BHDV,Boven Hardinxveld railway station,BHDV,51.8319,4.87472,0.07407407407407407,http://www.group15_KD_tr_onto/350,Gilze-Rijen,350,51.566,4.936,50,159,0,65,10
209,http://www.group15_KD_tr_onto/ETN,Etten-Leur railway station,ETN,51.5753,4.63694,0.4935064935064935,http://www.group15_KD_tr_onto/350,Gilze-Rijen,350,51.566,4.936,50,159,0,65,10
210,http://www.group15_KD_tr_onto/GND,Hardinxveld-Giessendam railway station,GND,51.8303,4.83528,0.10294117647058823,http://www.group15_KD_tr_onto/350,Gilze-Rijen,350,51.566,4.936,50,159,0,65,10
211,http://www.group15_KD_tr_onto/GR,Gorinchem railway station,GR,51.8336,4.9675,0.18867924528301888,http://www.group15_KD_tr_onto/350,Gilze-Rijen,350,51.566,4.936,50,159,0,65,10
212,http://www.group15_KD_tr_onto/GZ,Gilze-Rijen railway station,GZ,51.5839,4.925,0.27631578947368424,http://www.group15_KD_tr_onto/350,Gilze-Rijen,350,51.566,4.936,50,159,0,65,10
213,http://www.group15_KD_tr_onto/OT,Oisterwijk railway station,OT,51.5822,5.19444,0.19444444444444445,http://www.group15_KD_tr_onto/350,Gilze-Rijen,350,51.566,4.936,50,159,0,65,10
214,http://www.group15_KD_tr_onto/TBR,Tilburg Reeshof railway station,TBR,51.5739,4.99278,0.34210526315789475,http://www.group15_KD_tr_onto/350,Gilze-Rijen,350,51.566,4.936,50,159,0,65,10
215,http://www.group15_KD_tr_onto/TBU,Tilburg Universiteit railway station,TBU,51.5653,5.05139,0.26126126126126126,http://www.group15_KD_tr_onto/350,Gilze-Rijen,350,51.566,4.936,50,159,0,65,10
216,http://www.group15_KD_tr_onto/TB,Tilburg railway station,TB,51.5606,5.08278,0.5973597359735974,http://www.group15_KD_tr_onto/350,Gilze-Rijen,350,51.566,4.936,50,159,0,65,10
217,http://www.group15_KD_tr_onto/ZLW,Lage Zwaluwe railway station,ZLW,51.6906,4.66333,1.0616438356164384,http://www.group15_KD_tr_onto/350,Gilze-Rijen,350,51.566,4.936,50,159,0,65,10
218,http://www.group15_KD_tr_onto/ZVB,Zevenbergen railway station,ZVB,51.6414,4.60972,2.0144927536231885,http://www.group15_KD_tr_onto/350,Gilze-Rijen,350,51.566,4.936,50,159,0,65,10
219,http://www.group15_KD_tr_onto/BET,Best railway station,BET,51.5097,5.38889,0.4066666666666667,http://www.group15_KD_tr_onto/370,Eindhoven,370,51.451,5.377,50,161,0,65,12
220,http://www.group15_KD_tr_onto/BMR,Boxmeer railway station,BMR,51.6444,5.93944,0.19736842105263158,http://www.group15_KD_tr_onto/370,Eindhoven,370,51.451,5.377,50,161,0,65,12
221,http://www.group15_KD_tr_onto/BR,Blerick railway station,BR,51.3725,6.155,0.46621621621621623,http://www.group15_KD_tr_onto/370,Eindhoven,370,51.451,5.377,50,161,0,65,12
222,http://www.group15_KD_tr_onto/BTL,Boxtel railway station,BTL,51.5844,5.31889,0.37012987012987014,http://www.group15_KD_tr_onto/370,Eindhoven,370,51.451,5.377,50,161,0,65,12
223,http://www.group15_KD_tr_onto/DN,Deurne railway station,DN,51.4558,5.78833,0.6666666666666666,http://www.group15_KD_tr_onto/370,Eindhoven,370,51.451,5.377,50,161,0,65,12
224,http://www.group15_KD_tr_onto/EHS,Eindhoven Stadion railway station,EHS,51.443,5.46731,0.3933333333333333,http://www.group15_KD_tr_onto/370,Eindhoven,370,51.451,5.377,50,161,0,65,12
225,http://www.group15_KD_tr_onto/EHV,Eindhoven Centraal railway station,EHV,51.4428,5.48028,0.6555269922879178,http://www.group15_KD_tr_onto/370,Eindhoven,370,51.451,5.377,50,161,0,65,12
226,http://www.group15_KD_tr_onto/GP,Geldrop railway station,GP,51.42,5.55111,0.6571428571428571,http://www.group15_KD_tr_onto/370,Eindhoven,370,51.451,5.377,50,161,0,65,12
227,http://www.group15_KD_tr_onto/HMH,Helmond 't Hout railway station,HMH,51.4678,5.63083,0.22388059701492538,http://www.group15_KD_tr_onto/370,Eindhoven,370,51.451,5.377,50,161,0,65,12
228,http://www.group15_KD_tr_onto/HM,Helmond railway station,HM,51.4756,5.66167,0.35251798561151076,http://www.group15_KD_tr_onto/370,Eindhoven,370,51.451,5.377,50,161,0,65,12
229,http://www.group15_KD_tr_onto/HRT,Horst-Sevenum railway station,HRT,51.4267,6.04194,0.3472222222222222,http://www.group15_KD_tr_onto/370,Eindhoven,370,51.451,5.377,50,161,0,65,12
230,http://www.group15_KD_tr_onto/HT,'s-Hertogenbosch railway station,HT,51.69,5.29333,0.44086021505376344,http://www.group15_KD_tr_onto/370,Eindhoven,370,51.451,5.377,50,161,0,65,12
231,http://www.group15_KD_tr_onto/HZ,Heeze railway station,HZ,51.385,5.56944,1.3157894736842106,http://www.group15_KD_tr_onto/370,Eindhoven,370,51.451,5.377,50,161,0,65,12
232,http://www.group15_KD_tr_onto/MZ,Maarheeze railway station,MZ,51.3039,5.63028,0.6142857142857143,http://www.group15_KD_tr_onto/370,Eindhoven,370,51.451,5.377,50,161,0,65,12
233,http://www.group15_KD_tr_onto/OW,Oss West railway station,OW,51.7581,5.50611,0.2777777777777778,http://www.group15_KD_tr_onto/370,Eindhoven,370,51.451,5.377,50,161,0,65,12
234,http://www.group15_KD_tr_onto/O,Oss railway station,O,51.7653,5.53167,0.4863013698630137,http://www.group15_KD_tr_onto/370,Eindhoven,370,51.451,5.377,50,161,0,65,12
235,http://www.group15_KD_tr_onto/RS,Rosmalen railway station,RS,51.715,5.36889,0.2777777777777778,http://www.group15_KD_tr_onto/370,Eindhoven,370,51.451,5.377,50,161,0,65,12
236,http://www.group15_KD_tr_onto/TG,Tegelen railway station,TG,51.3411,6.14333,1.25,http://www.group15_KD_tr_onto/370,Eindhoven,370,51.451,5.377,50,161,0,65,12
237,http://www.group15_KD_tr_onto/VG,Vught railway station,VG,51.6547,5.29194,0.46153846153846156,http://www.group15_KD_tr_onto/370,Eindhoven,370,51.451,5.377,50,161,0,65,12
238,http://www.group15_KD_tr_onto/VLB,Vierlingsbeek railway station,VLB,51.5922,5.99667,0.5789473684210527,http://www.group15_KD_tr_onto/370,Eindhoven,370,51.451,5.377,50,161,0,65,12
239,http://www.group15_KD_tr_onto/VL,Venlo railway station,VL,51.3647,6.17139,0.4961832061068702,http://www.group15_KD_tr_onto/370,Eindhoven,370,51.451,5.377,50,161,0,65,12
240,http://www.group15_KD_tr_onto/VRY,Venray railway station,VRY,51.5264,6.01417,0.8026315789473685,http://www.group15_KD_tr_onto/370,Eindhoven,370,51.451,5.377,50,161,0,65,12
241,http://www.group15_KD_tr_onto/WT,Weert railway station,WT,51.2486,5.7025,0.5022421524663677,http://www.group15_KD_tr_onto/370,Eindhoven,370,51.451,5.377,50,161,0,65,12
242,http://www.group15_KD_tr_onto/CVM,Chevremont railway station,CVM,50.8758,6.05944,0.06818181818181818,http://www.group15_KD_tr_onto/380,Maastricht,380,50.906,5.762,40,164,0,70,19
243,http://www.group15_KD_tr_onto/EDN,Eijsden railway station,EDN,50.772,5.71004,0.8333333333333334,http://www.group15_KD_tr_onto/380,Maastricht,380,50.906,5.762,40,164,0,70,19
244,http://www.group15_KD_tr_onto/EGH,Eygelshoven railway station,EGH,50.8903,6.04556,0.022727272727272728,http://www.group15_KD_tr_onto/380,Maastricht,380,50.906,5.762,40,164,0,70,19
245,http://www.group15_KD_tr_onto/GLN,Geleen Oost railway station,GLN,50.9672,5.84306,0.17777777777777778,http://www.group15_KD_tr_onto/380,Maastricht,380,50.906,5.762,40,164,0,70,19
246,http://www.group15_KD_tr_onto/HB,Hoensbroek railway station,HB,50.9053,5.93111,0.24444444444444444,http://www.group15_KD_tr_onto/380,Maastricht,380,50.906,5.762,40,164,0,70,19
247,http://www.group15_KD_tr_onto/HRLW,Heerlen Woonboulevard railway station,HRLW,50.8961,5.95278,0.11904761904761904,http://www.group15_KD_tr_onto/380,Maastricht,380,50.906,5.762,40,164,0,70,19
248,http://www.group15_KD_tr_onto/HRL,Heerlen railway station,HRL,50.8908,5.97472,0.16872427983539096,http://www.group15_KD_tr_onto/380,Maastricht,380,50.906,5.762,40,164,0,70,19
249,http://www.group15_KD_tr_onto/KMR,Klimmen-Ransdaal railway station,KMR,50.8667,5.89056,0.09411764705882353,http://www.group15_KD_tr_onto/380,Maastricht,380,50.906,5.762,40,164,0,70,19
250,http://www.group15_KD_tr_onto/KRD,Kerkrade Centrum railway station,KRD,50.8614,6.0575,0.06818181818181818,http://www.group15_KD_tr_onto/380,Maastricht,380,50.906,5.762,40,164,0,70,19
251,http://www.group15_KD_tr_onto/LG,Landgraaf railway station,LG,50.8964,6.02,0.2777777777777778,http://www.group15_KD_tr_onto/380,Maastricht,380,50.906,5.762,40,164,0,70,19
252,http://www.group15_KD_tr_onto/MT,Maastricht railway station,MT,50.85,5.70528,0.6451612903225806,http://www.group15_KD_tr_onto/380,Maastricht,380,50.906,5.762,40,164,0,70,19
253,http://www.group15_KD_tr_onto/NH,Nuth railway station,NH,50.9197,5.8925,0.18888888888888888,http://www.group15_KD_tr_onto/380,Maastricht,380,50.906,5.762,40,164,0,70,19
254,http://www.group15_KD_tr_onto/RM,Roermond railway station,RM,51.1933,5.99472,1.3231939163498099,http://www.group15_KD_tr_onto/380,Maastricht,380,50.906,5.762,40,164,0,70,19
255,http://www.group15_KD_tr_onto/RV,Reuver railway station,RV,51.2831,6.07944,1.1710526315789473,http://www.group15_KD_tr_onto/380,Maastricht,380,50.906,5.762,40,164,0,70,19
256,http://www.group15_KD_tr_onto/SBK,Spaubeek railway station,SBK,50.9431,5.84972,0.24444444444444444,http://www.group15_KD_tr_onto/380,Maastricht,380,50.906,5.762,40,164,0,70,19
257,http://www.group15_KD_tr_onto/SM,Swalmen railway station,SM,51.2358,6.0325,0.39473684210526316,http://www.group15_KD_tr_onto/380,Maastricht,380,50.906,5.762,40,164,0,70,19
258,http://www.group15_KD_tr_onto/SN,Schinnen railway station,SN,50.9386,5.87611,0.3111111111111111,http://www.group15_KD_tr_onto/380,Maastricht,380,50.906,5.762,40,164,0,70,19
259,http://www.group15_KD_tr_onto/SRN,Susteren railway station,SRN,51.0608,5.86278,5.52,http://www.group15_KD_tr_onto/380,Maastricht,380,50.906,5.762,40,164,0,70,19
260,http://www.group15_KD_tr_onto/STD,Sittard railway station,STD,51.0011,5.85833,1.3194888178913737,http://www.group15_KD_tr_onto/380,Maastricht,380,50.906,5.762,40,164,0,70,19
261,http://www.group15_KD_tr_onto/VDL,Voerendaal railway station,VDL,50.8867,5.92944,0.09523809523809523,http://www.group15_KD_tr_onto/380,Maastricht,380,50.906,5.762,40,164,0,70,19
