,station,station_name,station_code,ts_lat,ts_long,delay,ws,ws_name,ws_code,ws_lat,ws_long,windspeed,mean_temp,percipitation,visibility,wind_direction
0,http://www.group15_KD_tr_onto/AMR,Alkmaar railway station,AMR,52.6378,4.74056,0.43258426966292135,http://www.group15_KD_tr_onto/235,De Kooy,235,52.928,4.781,20,65,-1,18,57
1,http://www.group15_KD_tr_onto/ANA,Anna Paulowna railway station,ANA,52.8669,4.81111,0.5189873417721519,http://www.group15_KD_tr_onto/235,De Kooy,235,52.928,4.781,20,65,-1,18,57
2,http://www.group15_KD_tr_onto/HDRZ,Den Helder Zuid railway station,HDRZ,52.9331,4.76389,0.5063291139240507,http://www.group15_KD_tr_onto/235,De Kooy,235,52.928,4.781,20,65,-1,18,57
3,http://www.group15_KD_tr_onto/HDR,Den Helder railway station,HDR,52.9564,4.76083,0.775,http://www.group15_KD_tr_onto/235,De Kooy,235,52.928,4.781,20,65,-1,18,57
4,http://www.group15_KD_tr_onto/HWD,Heerhugowaard railway station,HWD,52.67,4.82361,0.2054794520547945,http://www.group15_KD_tr_onto/235,De Kooy,235,52.928,4.781,20,65,-1,18,57
5,http://www.group15_KD_tr_onto/OBD,Obdam railway station,OBD,52.6781,4.90833,0.19402985074626866,http://www.group15_KD_tr_onto/235,De Kooy,235,52.928,4.781,20,65,-1,18,57
6,http://www.group15_KD_tr_onto/SGN,Schagen railway station,SGN,52.7861,4.80528,0.45569620253164556,http://www.group15_KD_tr_onto/235,De Kooy,235,52.928,4.781,20,65,-1,18,57
7,http://www.group15_KD_tr_onto/AC,Abcoude railway station,AC,52.2744,4.98222,0.3302752293577982,http://www.group15_KD_tr_onto/240,Schiphol,240,52.318,4.79,30,66,1,5,27
8,http://www.group15_KD_tr_onto/AMPO,Almere Poort railway station,AMPO,52.3428,5.15194,0.47465437788018433,http://www.group15_KD_tr_onto/240,Schiphol,240,52.318,4.79,30,66,1,5,27
9,http://www.group15_KD_tr_onto/ASA,Amsterdam Amstel station,ASA,52.3464,4.91778,0.5984848484848485,http://www.group15_KD_tr_onto/240,Schiphol,240,52.318,4.79,30,66,1,5,27
10,http://www.group15_KD_tr_onto/ASB,Amsterdam Bijlmer ArenA station,ASB,52.3131,4.94611,0.484375,http://www.group15_KD_tr_onto/240,Schiphol,240,52.318,4.79,30,66,1,5,27
11,http://www.group15_KD_tr_onto/ASDL,Amsterdam Lelylaan station,ASDL,52.3572,4.83389,0.7623318385650224,http://www.group15_KD_tr_onto/240,Schiphol,240,52.318,4.79,30,66,1,5,27
12,http://www.group15_KD_tr_onto/ASDM,Amsterdam Muiderpoort railway station,ASDM,52.3608,4.93111,0.6007604562737643,http://www.group15_KD_tr_onto/240,Schiphol,240,52.318,4.79,30,66,1,5,27
13,http://www.group15_KD_tr_onto/ASDZ,Amsterdam Zuid station,ASDZ,52.3389,4.87306,0.4805194805194805,http://www.group15_KD_tr_onto/240,Schiphol,240,52.318,4.79,30,66,1,5,27
14,http://www.group15_KD_tr_onto/ASD,Amsterdam Centraal station,ASD,52.3783,4.9,1.627140974967062,http://www.group15_KD_tr_onto/240,Schiphol,240,52.318,4.79,30,66,1,5,27
15,http://www.group15_KD_tr_onto/ASSP,Amsterdam Science Park railway station,ASSP,52.3525,4.94861,0.564935064935065,http://www.group15_KD_tr_onto/240,Schiphol,240,52.318,4.79,30,66,1,5,27
16,http://www.group15_KD_tr_onto/ASS,Amsterdam Sloterdijk station,ASS,52.3892,4.83806,0.751269035532995,http://www.group15_KD_tr_onto/240,Schiphol,240,52.318,4.79,30,66,1,5,27
17,http://www.group15_KD_tr_onto/BLL,Bloemendaal railway station,BLL,52.4042,4.6275,0.7215189873417721,http://www.group15_KD_tr_onto/240,Schiphol,240,52.318,4.79,30,66,1,5,27
18,http://www.group15_KD_tr_onto/BV,Beverwijk railway station,BV,52.4783,4.65611,0.27848101265822783,http://www.group15_KD_tr_onto/240,Schiphol,240,52.318,4.79,30,66,1,5,27
19,http://www.group15_KD_tr_onto/CAS,Castricum railway station,CAS,52.5456,4.65889,0.4075829383886256,http://www.group15_KD_tr_onto/240,Schiphol,240,52.318,4.79,30,66,1,5,27
20,http://www.group15_KD_tr_onto/DMNZ,Diemen Zuid station,DMNZ,52.3303,4.95639,0.38345864661654133,http://www.group15_KD_tr_onto/240,Schiphol,240,52.318,4.79,30,66,1,5,27
21,http://www.group15_KD_tr_onto/DMN,Diemen railway station,DMN,52.3453,4.96694,0.5,http://www.group15_KD_tr_onto/240,Schiphol,240,52.318,4.79,30,66,1,5,27
22,http://www.group15_KD_tr_onto/HAD,Heemstede-Aerdenhout railway station,HAD,52.3597,4.60694,0.6910994764397905,http://www.group15_KD_tr_onto/240,Schiphol,240,52.318,4.79,30,66,1,5,27
23,http://www.group15_KD_tr_onto/HFD,Hoofddorp railway station,HFD,52.2933,4.7,0.4204081632653061,http://www.group15_KD_tr_onto/240,Schiphol,240,52.318,4.79,30,66,1,5,27
24,http://www.group15_KD_tr_onto/HIL,Hillegom railway station,HIL,52.3028,4.56583,0.6708860759493671,http://www.group15_KD_tr_onto/240,Schiphol,240,52.318,4.79,30,66,1,5,27
25,http://www.group15_KD_tr_onto/HK,Heemskerk railway station,HK,52.4947,4.68611,0.31645569620253167,http://www.group15_KD_tr_onto/240,Schiphol,240,52.318,4.79,30,66,1,5,27
26,http://www.group15_KD_tr_onto/HLMS,Haarlem Spaarnwoude railway station,HLMS,52.3828,4.67111,1.0148148148148148,http://www.group15_KD_tr_onto/240,Schiphol,240,52.318,4.79,30,66,1,5,27
27,http://www.group15_KD_tr_onto/HLM,Haarlem railway station,HLM,52.3878,4.63889,0.6666666666666666,http://www.group15_KD_tr_onto/240,Schiphol,240,52.318,4.79,30,66,1,5,27
28,http://www.group15_KD_tr_onto/HLO,Heiloo railway station,HLO,52.6,4.70083,0.3225806451612903,http://www.group15_KD_tr_onto/240,Schiphol,240,52.318,4.79,30,66,1,5,27
29,http://www.group15_KD_tr_onto/HWZB,Halfweg-Zwanenburg railway station,HWZB,52.3847,4.75167,0.8814814814814815,http://www.group15_KD_tr_onto/240,Schiphol,240,52.318,4.79,30,66,1,5,27
30,http://www.group15_KD_tr_onto/NVP,Nieuw-Vennep railway station,NVP,52.2597,4.64556,0.3969465648854962,http://www.group15_KD_tr_onto/240,Schiphol,240,52.318,4.79,30,66,1,5,27
31,http://www.group15_KD_tr_onto/OVN,Overveen railway station,OVN,52.3908,4.60778,0.9210526315789473,http://www.group15_KD_tr_onto/240,Schiphol,240,52.318,4.79,30,66,1,5,27
32,http://www.group15_KD_tr_onto/PMR,Purmerend railway station,PMR,52.5033,4.95417,0.75,http://www.group15_KD_tr_onto/240,Schiphol,240,52.318,4.79,30,66,1,5,27
33,http://www.group15_KD_tr_onto/PMW,Purmerend Weidevenne railway station,PMW,52.4967,4.93667,0.8235294117647058,http://www.group15_KD_tr_onto/240,Schiphol,240,52.318,4.79,30,66,1,5,27
34,http://www.group15_KD_tr_onto/RAI,Amsterdam RAI station,RAI,52.3367,4.89056,0.36363636363636365,http://www.group15_KD_tr_onto/240,Schiphol,240,52.318,4.79,30,66,1,5,27
35,http://www.group15_KD_tr_onto/SHL,Schiphol Airport railway station,SHL,52.3089,4.76167,1.1006369426751592,http://www.group15_KD_tr_onto/240,Schiphol,240,52.318,4.79,30,66,1,5,27
36,http://www.group15_KD_tr_onto/SPTN,Santpoort Noord railway station,SPTN,52.4428,4.63917,0.2911392405063291,http://www.group15_KD_tr_onto/240,Schiphol,240,52.318,4.79,30,66,1,5,27
37,http://www.group15_KD_tr_onto/SPTZ,Santpoort Zuid railway station,SPTZ,52.4194,4.63167,0.3037974683544304,http://www.group15_KD_tr_onto/240,Schiphol,240,52.318,4.79,30,66,1,5,27
38,http://www.group15_KD_tr_onto/UTG,Uitgeest railway station,UTG,52.5219,4.70278,0.6119402985074627,http://www.group15_KD_tr_onto/240,Schiphol,240,52.318,4.79,30,66,1,5,27
39,http://www.group15_KD_tr_onto/WM,Wormerveer railway station,WM,52.4892,4.79278,0.897196261682243,http://www.group15_KD_tr_onto/240,Schiphol,240,52.318,4.79,30,66,1,5,27
40,http://www.group15_KD_tr_onto/WP,Weesp railway station,WP,52.3131,5.04361,0.4755244755244755,http://www.group15_KD_tr_onto/240,Schiphol,240,52.318,4.79,30,66,1,5,27
41,http://www.group15_KD_tr_onto/ZD,Zaandam railway station,ZD,52.4389,4.81472,0.5164473684210527,http://www.group15_KD_tr_onto/240,Schiphol,240,52.318,4.79,30,66,1,5,27
42,http://www.group15_KD_tr_onto/ZVT,Zandvoort aan Zee railway station,ZVT,52.3758,4.53139,1.4210526315789473,http://www.group15_KD_tr_onto/240,Schiphol,240,52.318,4.79,30,66,1,5,27
43,http://www.group15_KD_tr_onto/AKL,Arkel railway station,AKL,51.8719,4.99278,0.3974358974358974,http://www.group15_KD_tr_onto/260,De Bilt,260,52.1,5.18,20,56,5,1,357
44,http://www.group15_KD_tr_onto/BHV,Bilthoven railway station,BHV,52.13,5.20528,0.3357142857142857,http://www.group15_KD_tr_onto/260,De Bilt,260,52.1,5.18,20,56,5,1,357
45,http://www.group15_KD_tr_onto/BKL,Breukelen railway station,BKL,52.17,4.99056,0.2876712328767123,http://www.group15_KD_tr_onto/260,De Bilt,260,52.1,5.18,20,56,5,1,357
46,http://www.group15_KD_tr_onto/BNK,Bunnik railway station,BNK,52.0631,5.19556,0.15463917525773196,http://www.group15_KD_tr_onto/260,De Bilt,260,52.1,5.18,20,56,5,1,357
47,http://www.group15_KD_tr_onto/BSD,Beesd railway station,BSD,51.8992,5.195,0.5897435897435898,http://www.group15_KD_tr_onto/260,De Bilt,260,52.1,5.18,20,56,5,1,357
48,http://www.group15_KD_tr_onto/CL,Culemborg railway station,CL,51.9472,5.22722,0.41139240506329117,http://www.group15_KD_tr_onto/260,De Bilt,260,52.1,5.18,20,56,5,1,357
49,http://www.group15_KD_tr_onto/DB,Driebergen-Zeist railway station,DB,52.065,5.26,0.4691358024691358,http://www.group15_KD_tr_onto/260,De Bilt,260,52.1,5.18,20,56,5,1,357
50,http://www.group15_KD_tr_onto/GDM,Geldermalsen railway station,GDM,51.8839,5.27083,0.5126903553299492,http://www.group15_KD_tr_onto/260,De Bilt,260,52.1,5.18,20,56,5,1,357
51,http://www.group15_KD_tr_onto/HTN,Houten railway station,HTN,52.0344,5.16778,0.3670886075949367,http://www.group15_KD_tr_onto/260,De Bilt,260,52.1,5.18,20,56,5,1,357
52,http://www.group15_KD_tr_onto/LDM,Leerdam railway station,LDM,51.8947,5.09333,0.48717948717948717,http://www.group15_KD_tr_onto/260,De Bilt,260,52.1,5.18,20,56,5,1,357
53,http://www.group15_KD_tr_onto/MAS,Maarssen railway station,MAS,52.1358,5.03306,0.13761467889908258,http://www.group15_KD_tr_onto/260,De Bilt,260,52.1,5.18,20,56,5,1,357
54,http://www.group15_KD_tr_onto/UTLR,Utrecht Leidsche Rijn railway station,UTLR,52.0983,5.06917,0.3381294964028777,http://www.group15_KD_tr_onto/260,De Bilt,260,52.1,5.18,20,56,5,1,357
55,http://www.group15_KD_tr_onto/UTO,Utrecht Overvecht railway station,UTO,52.11,5.12528,0.3161764705882353,http://www.group15_KD_tr_onto/260,De Bilt,260,52.1,5.18,20,56,5,1,357
56,http://www.group15_KD_tr_onto/UTT,Utrecht Terwijde railway station,UTT,52.1008,5.04306,0.30935251798561153,http://www.group15_KD_tr_onto/260,De Bilt,260,52.1,5.18,20,56,5,1,357
57,http://www.group15_KD_tr_onto/UTVR,Utrecht Vaartsche Rijn railway station,UTVR,52.0786,5.1225,0.26666666666666666,http://www.group15_KD_tr_onto/260,De Bilt,260,52.1,5.18,20,56,5,1,357
58,http://www.group15_KD_tr_onto/UTZL,Utrecht Zuilen railway station,UTZL,52.1031,5.08917,0.1111111111111111,http://www.group15_KD_tr_onto/260,De Bilt,260,52.1,5.18,20,56,5,1,357
59,http://www.group15_KD_tr_onto/UT,Utrecht Centraal railway station,UT,52.0892,5.10972,0.8760416666666667,http://www.group15_KD_tr_onto/260,De Bilt,260,52.1,5.18,20,56,5,1,357
60,http://www.group15_KD_tr_onto/VTN,Vleuten railway station,VTN,52.1031,5.01194,0.381294964028777,http://www.group15_KD_tr_onto/260,De Bilt,260,52.1,5.18,20,56,5,1,357
61,http://www.group15_KD_tr_onto/WD,Woerden railway station,WD,52.0847,4.89306,0.35294117647058826,http://www.group15_KD_tr_onto/260,De Bilt,260,52.1,5.18,20,56,5,1,357
62,http://www.group15_KD_tr_onto/ZBM,Zaltbommel railway station,ZBM,51.8069,5.26472,0.4935064935064935,http://www.group15_KD_tr_onto/260,De Bilt,260,52.1,5.18,20,56,5,1,357
63,http://www.group15_KD_tr_onto/BKF,Bovenkarspel Flora railway station,BKF,52.6958,5.25306,0.12345679012345678,http://www.group15_KD_tr_onto/267,Stavoren,267,52.898,5.384,30,60,0,1,30
64,http://www.group15_KD_tr_onto/BKG,Bovenkarspel-Grootebroek railway station,BKG,52.695,5.23611,0.09876543209876543,http://www.group15_KD_tr_onto/267,Stavoren,267,52.898,5.384,30,60,0,1,30
65,http://www.group15_KD_tr_onto/EKZ,Enkhuizen railway station,EKZ,52.6994,5.28778,0.1282051282051282,http://www.group15_KD_tr_onto/267,Stavoren,267,52.898,5.384,30,60,0,1,30
66,http://www.group15_KD_tr_onto/HKS,Hoogkarspel railway station,HKS,52.6906,5.18389,0.1728395061728395,http://www.group15_KD_tr_onto/267,Stavoren,267,52.898,5.384,30,60,0,1,30
67,http://www.group15_KD_tr_onto/HNP,Hindeloopen railway station,HNP,52.9461,5.42306,1.7173913043478262,http://www.group15_KD_tr_onto/267,Stavoren,267,52.898,5.384,30,60,0,1,30
68,http://www.group15_KD_tr_onto/HN,Hoorn railway station,HN,52.645,5.05472,0.4088397790055249,http://www.group15_KD_tr_onto/267,Stavoren,267,52.898,5.384,30,60,0,1,30
69,http://www.group15_KD_tr_onto/IJT,IJlst railway station,IJT,53.0147,5.61639,0.8913043478260869,http://www.group15_KD_tr_onto/267,Stavoren,267,52.898,5.384,30,60,0,1,30
70,http://www.group15_KD_tr_onto/KMW,Koudum-Molkwerum railway station,KMW,52.9022,5.41056,1.5869565217391304,http://www.group15_KD_tr_onto/267,Stavoren,267,52.898,5.384,30,60,0,1,30
71,http://www.group15_KD_tr_onto/STV,Stavoren railway station,STV,52.8867,5.35972,1.6956521739130435,http://www.group15_KD_tr_onto/267,Stavoren,267,52.898,5.384,30,60,0,1,30
72,http://www.group15_KD_tr_onto/WK,Workum railway station,WK,52.9714,5.45583,1.3478260869565217,http://www.group15_KD_tr_onto/267,Stavoren,267,52.898,5.384,30,60,0,1,30
73,http://www.group15_KD_tr_onto/WV,Wolvega railway station,WV,52.8797,6.00472,0.6417910447761194,http://www.group15_KD_tr_onto/267,Stavoren,267,52.898,5.384,30,60,0,1,30
74,http://www.group15_KD_tr_onto/ALMB,Almere Buiten railway station,ALMB,52.3942,5.27778,0.3602150537634409,http://www.group15_KD_tr_onto/269,Lelystad,269,52.458,5.52,30,58,0,2,23
75,http://www.group15_KD_tr_onto/ALMM,Almere Muziekwijk railway station,ALMM,52.3675,5.19028,0.48847926267281105,http://www.group15_KD_tr_onto/269,Lelystad,269,52.458,5.52,30,58,0,2,23
76,http://www.group15_KD_tr_onto/ALMO,Almere Oostvaarders railway station,ALMO,52.4028,5.3,0.4095238095238095,http://www.group15_KD_tr_onto/269,Lelystad,269,52.458,5.52,30,58,0,2,23
77,http://www.group15_KD_tr_onto/ALMP,Almere Parkwijk railway station,ALMP,52.3767,5.24444,0.3333333333333333,http://www.group15_KD_tr_onto/269,Lelystad,269,52.458,5.52,30,58,0,2,23
78,http://www.group15_KD_tr_onto/ALM,Almere Centrum railway station,ALM,52.375,5.21778,0.5309734513274337,http://www.group15_KD_tr_onto/269,Lelystad,269,52.458,5.52,30,58,0,2,23
79,http://www.group15_KD_tr_onto/DL,Dalfsen railway station,DL,52.4981,6.25861,0.30434782608695654,http://www.group15_KD_tr_onto/269,Lelystad,269,52.458,5.52,30,58,0,2,23
80,http://www.group15_KD_tr_onto/DRON,Dronten railway station,DRON,52.5339,5.72306,0.8493150684931506,http://www.group15_KD_tr_onto/269,Lelystad,269,52.458,5.52,30,58,0,2,23
81,http://www.group15_KD_tr_onto/EML,Ermelo railway station,EML,52.3011,5.61444,0.5205479452054794,http://www.group15_KD_tr_onto/269,Lelystad,269,52.458,5.52,30,58,0,2,23
82,http://www.group15_KD_tr_onto/HDE,'t Harde railway station,HDE,52.4089,5.89306,0.3835616438356164,http://www.group15_KD_tr_onto/269,Lelystad,269,52.458,5.52,30,58,0,2,23
83,http://www.group15_KD_tr_onto/HD,Harderwijk railway station,HD,52.3375,5.61972,0.4864864864864865,http://www.group15_KD_tr_onto/269,Lelystad,269,52.458,5.52,30,58,0,2,23
84,http://www.group15_KD_tr_onto/KPNZ,Kampen Zuid railway station,KPNZ,52.5342,5.91583,0.5,http://www.group15_KD_tr_onto/269,Lelystad,269,52.458,5.52,30,58,0,2,23
85,http://www.group15_KD_tr_onto/KPN,Kampen railway station,KPN,52.5597,5.92111,0.07894736842105263,http://www.group15_KD_tr_onto/269,Lelystad,269,52.458,5.52,30,58,0,2,23
86,http://www.group15_KD_tr_onto/LLS,Lelystad Centrum railway station,LLS,52.5078,5.47333,0.5289855072463768,http://www.group15_KD_tr_onto/269,Lelystad,269,52.458,5.52,30,58,0,2,23
87,http://www.group15_KD_tr_onto/MP,Meppel railway station,MP,52.6914,6.1975,0.5721153846153846,http://www.group15_KD_tr_onto/269,Lelystad,269,52.458,5.52,30,58,0,2,23
88,http://www.group15_KD_tr_onto/NS,Nunspeet railway station,NS,52.3708,5.78472,0.5616438356164384,http://www.group15_KD_tr_onto/269,Lelystad,269,52.458,5.52,30,58,0,2,23
89,http://www.group15_KD_tr_onto/OMN,Ommen railway station,OMN,52.5094,6.41694,0.8804347826086957,http://www.group15_KD_tr_onto/269,Lelystad,269,52.458,5.52,30,58,0,2,23
90,http://www.group15_KD_tr_onto/PT,Putten railway station,PT,52.2653,5.57611,0.273972602739726,http://www.group15_KD_tr_onto/269,Lelystad,269,52.458,5.52,30,58,0,2,23
91,http://www.group15_KD_tr_onto/WZ,Wezep railway station,WZ,52.4536,6.00222,0.410958904109589,http://www.group15_KD_tr_onto/269,Lelystad,269,52.458,5.52,30,58,0,2,23
92,http://www.group15_KD_tr_onto/ZLSH,Zwolle Stadshagen railway station,ZLSH,52.5279,6.05108,0.05263157894736842,http://www.group15_KD_tr_onto/269,Lelystad,269,52.458,5.52,30,58,0,2,23
93,http://www.group15_KD_tr_onto/ZL,Zwolle railway station,ZL,52.5053,6.09056,0.7538461538461538,http://www.group15_KD_tr_onto/269,Lelystad,269,52.458,5.52,30,58,0,2,23
94,http://www.group15_KD_tr_onto/AKM,Akkrum railway station,AKM,53.0472,5.84306,0.7014925373134329,http://www.group15_KD_tr_onto/270,Leeuwarden,270,53.224,5.752,30,42,0,2,36
95,http://www.group15_KD_tr_onto/DEI,Deinum railway station,DEI,53.1886,5.72778,0.11290322580645161,http://www.group15_KD_tr_onto/270,Leeuwarden,270,53.224,5.752,30,42,0,2,36
96,http://www.group15_KD_tr_onto/DRP,Dronryp railway station,DRP,53.1775,5.63472,0.12903225806451613,http://www.group15_KD_tr_onto/270,Leeuwarden,270,53.224,5.752,30,42,0,2,36
97,http://www.group15_KD_tr_onto/FN,Franeker railway station,FN,53.1822,5.54944,0.1774193548387097,http://www.group15_KD_tr_onto/270,Leeuwarden,270,53.224,5.752,30,42,0,2,36
98,http://www.group15_KD_tr_onto/GW,Grou-Jirnsum railway station,GW,53.0897,5.82222,0.7910447761194029,http://www.group15_KD_tr_onto/270,Leeuwarden,270,53.224,5.752,30,42,0,2,36
99,http://www.group15_KD_tr_onto/HDG,Hurdegaryp railway station,HDG,53.2186,5.93472,1.2272727272727273,http://www.group15_KD_tr_onto/270,Leeuwarden,270,53.224,5.752,30,42,0,2,36
100,http://www.group15_KD_tr_onto/HLG,Harlingen railway station,HLG,53.1703,5.42528,0.1774193548387097,http://www.group15_KD_tr_onto/270,Leeuwarden,270,53.224,5.752,30,42,0,2,36
101,http://www.group15_KD_tr_onto/HR,Heerenveen railway station,HR,52.9606,5.91528,0.5735294117647058,http://www.group15_KD_tr_onto/270,Leeuwarden,270,53.224,5.752,30,42,0,2,36
102,http://www.group15_KD_tr_onto/LW,Leeuwarden railway station,LW,53.1958,5.79111,0.6019900497512438,http://www.group15_KD_tr_onto/270,Leeuwarden,270,53.224,5.752,30,42,0,2,36
103,http://www.group15_KD_tr_onto/MG,Mantgum railway station,MG,53.1297,5.71333,0.6323529411764706,http://www.group15_KD_tr_onto/270,Leeuwarden,270,53.224,5.752,30,42,0,2,36
104,http://www.group15_KD_tr_onto/SK,Sneek railway station,SK,53.0322,5.65167,0.9523809523809523,http://www.group15_KD_tr_onto/270,Leeuwarden,270,53.224,5.752,30,42,0,2,36
105,http://www.group15_KD_tr_onto/AHPR,Arnhem Presikhaaf railway station,AHPR,51.9875,5.94306,0.9142857142857143,http://www.group15_KD_tr_onto/275,Deelen,275,52.056,5.873,40,48,0,0,354
106,http://www.group15_KD_tr_onto/AHZ,Arnhem Zuid railway station,AHZ,51.9542,5.85167,0.5426356589147286,http://www.group15_KD_tr_onto/275,Deelen,275,52.056,5.873,40,48,0,0,354
107,http://www.group15_KD_tr_onto/AML,Almelo railway station,AML,52.3572,6.655,1.2720306513409962,http://www.group15_KD_tr_onto/275,Deelen,275,52.056,5.873,40,48,0,0,354
108,http://www.group15_KD_tr_onto/APD,Apeldoorn railway station,APD,52.2092,5.96944,1.1944444444444444,http://www.group15_KD_tr_onto/275,Deelen,275,52.056,5.873,40,48,0,0,354
109,http://www.group15_KD_tr_onto/ATN,Aalten railway station,ATN,51.9211,6.57806,0.21428571428571427,http://www.group15_KD_tr_onto/275,Deelen,275,52.056,5.873,40,48,0,0,354
110,http://www.group15_KD_tr_onto/BMN,Brummen railway station,BMN,52.0908,6.14694,0.5571428571428572,http://www.group15_KD_tr_onto/275,Deelen,275,52.056,5.873,40,48,0,0,354
111,http://www.group15_KD_tr_onto/BN,Borne railway station,BN,52.2983,6.74833,0.4838709677419355,http://www.group15_KD_tr_onto/275,Deelen,275,52.056,5.873,40,48,0,0,354
112,http://www.group15_KD_tr_onto/CK,Cuijk railway station,CK,51.7264,5.87417,1.0859375,http://www.group15_KD_tr_onto/275,Deelen,275,52.056,5.873,40,48,0,0,354
113,http://www.group15_KD_tr_onto/DA,Daarlerveen railway station,DA,52.4411,6.57583,0.3888888888888889,http://www.group15_KD_tr_onto/275,Deelen,275,52.056,5.873,40,48,0,0,354
114,http://www.group15_KD_tr_onto/DDN,Delden railway station,DDN,52.26,6.71444,2.27027027027027,http://www.group15_KD_tr_onto/275,Deelen,275,52.056,5.873,40,48,0,0,354
115,http://www.group15_KD_tr_onto/DID,Didam railway station,DID,51.9333,6.13222,0.29333333333333333,http://www.group15_KD_tr_onto/275,Deelen,275,52.056,5.873,40,48,0,0,354
116,http://www.group15_KD_tr_onto/DR,Dieren railway station,DR,52.045,6.10333,0.8439716312056738,http://www.group15_KD_tr_onto/275,Deelen,275,52.056,5.873,40,48,0,0,354
117,http://www.group15_KD_tr_onto/DTC,Doetinchem railway station,DTC,51.9583,6.29528,0.40869565217391307,http://www.group15_KD_tr_onto/275,Deelen,275,52.056,5.873,40,48,0,0,354
118,http://www.group15_KD_tr_onto/DVN,Duiven railway station,DVN,51.9433,6.01417,1.2333333333333334,http://www.group15_KD_tr_onto/275,Deelen,275,52.056,5.873,40,48,0,0,354
119,http://www.group15_KD_tr_onto/DV,Deventer railway station,DV,52.2572,6.16083,1.300411522633745,http://www.group15_KD_tr_onto/275,Deelen,275,52.056,5.873,40,48,0,0,354
120,http://www.group15_KD_tr_onto/ED,Ede-Wageningen railway station,ED,52.0278,5.67194,0.42857142857142855,http://www.group15_KD_tr_onto/275,Deelen,275,52.056,5.873,40,48,0,0,354
121,http://www.group15_KD_tr_onto/EST,Elst railway station,EST,51.9167,5.855,0.4105263157894737,http://www.group15_KD_tr_onto/275,Deelen,275,52.056,5.873,40,48,0,0,354
122,http://www.group15_KD_tr_onto/ES,Enschede railway station,ES,52.2222,6.89,0.732824427480916,http://www.group15_KD_tr_onto/275,Deelen,275,52.056,5.873,40,48,0,0,354
123,http://www.group15_KD_tr_onto/GBR,Glanerbrug railway station,GBR,52.2186,6.97389,0.0,http://www.group15_KD_tr_onto/275,Deelen,275,52.056,5.873,40,48,0,0,354
124,http://www.group15_KD_tr_onto/GDR,Gaanderen railway station,GDR,51.9308,6.34778,0.30952380952380953,http://www.group15_KD_tr_onto/275,Deelen,275,52.056,5.873,40,48,0,0,354
125,http://www.group15_KD_tr_onto/GO,Goor railway station,GO,52.2303,6.58444,1.8767123287671232,http://www.group15_KD_tr_onto/275,Deelen,275,52.056,5.873,40,48,0,0,354
126,http://www.group15_KD_tr_onto/HGL,Hengelo railway station,HGL,52.2619,6.79417,1.7109634551495017,http://www.group15_KD_tr_onto/275,Deelen,275,52.056,5.873,40,48,0,0,354
127,http://www.group15_KD_tr_onto/HMN,Hemmen-Dodewaard railway station,HMN,51.9222,5.67333,0.125,http://www.group15_KD_tr_onto/275,Deelen,275,52.056,5.873,40,48,0,0,354
128,http://www.group15_KD_tr_onto/HNO,Heino railway station,HNO,52.4269,6.22194,0.47368421052631576,http://www.group15_KD_tr_onto/275,Deelen,275,52.056,5.873,40,48,0,0,354
129,http://www.group15_KD_tr_onto/HON,Holten railway station,HON,52.2839,6.42056,0.4861111111111111,http://www.group15_KD_tr_onto/275,Deelen,275,52.056,5.873,40,48,0,0,354
130,http://www.group15_KD_tr_onto/KBK,Klarenbeek railway station,KBK,52.1778,6.08417,0.125,http://www.group15_KD_tr_onto/275,Deelen,275,52.056,5.873,40,48,0,0,354
131,http://www.group15_KD_tr_onto/KLP,Veenendaal-De Klomp railway station,KLP,52.0458,5.57389,0.4025974025974026,http://www.group15_KD_tr_onto/275,Deelen,275,52.056,5.873,40,48,0,0,354
132,http://www.group15_KD_tr_onto/KTR,Kesteren railway station,KTR,51.9314,5.58361,0.09375,http://www.group15_KD_tr_onto/275,Deelen,275,52.056,5.873,40,48,0,0,354
133,http://www.group15_KD_tr_onto/LC,Lochem railway station,LC,52.1667,6.42583,1.8055555555555556,http://www.group15_KD_tr_onto/275,Deelen,275,52.056,5.873,40,48,0,0,354
134,http://www.group15_KD_tr_onto/LTV,Lichtenvoorde-Groenlo railway station,LTV,52.0117,6.59639,0.2608695652173913,http://www.group15_KD_tr_onto/275,Deelen,275,52.056,5.873,40,48,0,0,354
135,http://www.group15_KD_tr_onto/MMLH,Mook-Molenhoek railway station,MMLH,51.7647,5.8775,1.1796875,http://www.group15_KD_tr_onto/275,Deelen,275,52.056,5.873,40,48,0,0,354
136,http://www.group15_KD_tr_onto/NM,Nijmegen railway station,NM,51.8433,5.8525,1.0242424242424242,http://www.group15_KD_tr_onto/275,Deelen,275,52.056,5.873,40,48,0,0,354
137,http://www.group15_KD_tr_onto/NVD,Nijverdal railway station,NVD,52.3656,6.47028,1.2941176470588236,http://www.group15_KD_tr_onto/275,Deelen,275,52.056,5.873,40,48,0,0,354
138,http://www.group15_KD_tr_onto/ODZ,Oldenzaal railway station,ODZ,52.3061,6.93361,1.32,http://www.group15_KD_tr_onto/275,Deelen,275,52.056,5.873,40,48,0,0,354
139,http://www.group15_KD_tr_onto/OP,Opheusden railway station,OP,51.9261,5.63694,0.109375,http://www.group15_KD_tr_onto/275,Deelen,275,52.056,5.873,40,48,0,0,354
140,http://www.group15_KD_tr_onto/OST,Olst railway station,OST,52.335,6.11306,1.0684931506849316,http://www.group15_KD_tr_onto/275,Deelen,275,52.056,5.873,40,48,0,0,354
141,http://www.group15_KD_tr_onto/OTB,Oosterbeek railway station,OTB,51.9947,5.84,0.18181818181818182,http://www.group15_KD_tr_onto/275,Deelen,275,52.056,5.873,40,48,0,0,354
142,http://www.group15_KD_tr_onto/RAT,Raalte railway station,RAT,52.3908,6.27861,0.8333333333333334,http://www.group15_KD_tr_onto/275,Deelen,275,52.056,5.873,40,48,0,0,354
143,http://www.group15_KD_tr_onto/RHN,Rhenen railway station,RHN,51.9578,5.57833,0.34210526315789475,http://www.group15_KD_tr_onto/275,Deelen,275,52.056,5.873,40,48,0,0,354
144,http://www.group15_KD_tr_onto/RH,Rheden railway station,RH,52.0097,6.02972,0.6428571428571429,http://www.group15_KD_tr_onto/275,Deelen,275,52.056,5.873,40,48,0,0,354
145,http://www.group15_KD_tr_onto/RL,Ruurlo railway station,RL,52.0806,6.45,0.07246376811594203,http://www.group15_KD_tr_onto/275,Deelen,275,52.056,5.873,40,48,0,0,354
146,http://www.group15_KD_tr_onto/RSN,Rijssen railway station,RSN,52.3117,6.51917,0.2361111111111111,http://www.group15_KD_tr_onto/275,Deelen,275,52.056,5.873,40,48,0,0,354
147,http://www.group15_KD_tr_onto/RVS,Ravenstein railway station,RVS,51.7947,5.63722,1.2328767123287672,http://www.group15_KD_tr_onto/275,Deelen,275,52.056,5.873,40,48,0,0,354
148,http://www.group15_KD_tr_onto/TWL,Twello railway station,TWL,52.2381,6.1,0.3484848484848485,http://www.group15_KD_tr_onto/275,Deelen,275,52.056,5.873,40,48,0,0,354
149,http://www.group15_KD_tr_onto/VEM,Voorst-Empe railway station,VEM,52.1578,6.14278,0.5,http://www.group15_KD_tr_onto/275,Deelen,275,52.056,5.873,40,48,0,0,354
150,http://www.group15_KD_tr_onto/VHP,Vroomshoop railway station,VHP,52.4411,6.57583,0.37037037037037035,http://www.group15_KD_tr_onto/275,Deelen,275,52.056,5.873,40,48,0,0,354
151,http://www.group15_KD_tr_onto/VP,Arnhem Velperpoort railway station,VP,51.985,5.92,0.5571428571428572,http://www.group15_KD_tr_onto/275,Deelen,275,52.056,5.873,40,48,0,0,354
152,http://www.group15_KD_tr_onto/VSV,Varsseveld railway station,VSV,51.9369,6.45806,0.13095238095238096,http://www.group15_KD_tr_onto/275,Deelen,275,52.056,5.873,40,48,0,0,354
153,http://www.group15_KD_tr_onto/VZ,Vriezenveen railway station,VZ,52.4019,6.60028,0.3148148148148148,http://www.group15_KD_tr_onto/275,Deelen,275,52.056,5.873,40,48,0,0,354
154,http://www.group15_KD_tr_onto/WC,Wijchen railway station,WC,51.8111,5.72944,0.9509803921568627,http://www.group15_KD_tr_onto/275,Deelen,275,52.056,5.873,40,48,0,0,354
155,http://www.group15_KD_tr_onto/WDN,Wierden railway station,WDN,52.3614,6.59111,0.33783783783783783,http://www.group15_KD_tr_onto/275,Deelen,275,52.056,5.873,40,48,0,0,354
156,http://www.group15_KD_tr_onto/WF,Wolfheze railway station,WF,52.0053,5.79361,0.16666666666666666,http://www.group15_KD_tr_onto/275,Deelen,275,52.056,5.873,40,48,0,0,354
157,http://www.group15_KD_tr_onto/WH,Wijhe railway station,WH,52.3936,6.14083,1.5890410958904109,http://www.group15_KD_tr_onto/275,Deelen,275,52.056,5.873,40,48,0,0,354
158,http://www.group15_KD_tr_onto/WL,Wehl railway station,WL,51.9567,6.2125,0.58,http://www.group15_KD_tr_onto/275,Deelen,275,52.056,5.873,40,48,0,0,354
159,http://www.group15_KD_tr_onto/WWW,Winterswijk West railway station,WWW,51.9744,6.70361,0.07246376811594203,http://www.group15_KD_tr_onto/275,Deelen,275,52.056,5.873,40,48,0,0,354
160,http://www.group15_KD_tr_onto/WW,Winterswijk railway station,WW,51.9675,6.71556,0.4025974025974026,http://www.group15_KD_tr_onto/275,Deelen,275,52.056,5.873,40,48,0,0,354
161,http://www.group15_KD_tr_onto/ZA,Zetten-Andelst railway station,ZA,51.9194,5.72306,0.15625,http://www.group15_KD_tr_onto/275,Deelen,275,52.056,5.873,40,48,0,0,354
162,http://www.group15_KD_tr_onto/ZP,Zutphen railway station,ZP,52.1444,6.19389,0.9669811320754716,http://www.group15_KD_tr_onto/275,Deelen,275,52.056,5.873,40,48,0,0,354
163,http://www.group15_KD_tr_onto/ZV,Zevenaar railway station,ZV,51.9231,6.07278,1.424731182795699,http://www.group15_KD_tr_onto/275,Deelen,275,52.056,5.873,40,48,0,0,354
164,http://www.group15_KD_tr_onto/ASN,Assen railway station,ASN,52.9917,6.57056,0.5034965034965035,http://www.group15_KD_tr_onto/280,Eelde,280,53.125,6.585,40,58,0,30,27
165,http://www.group15_KD_tr_onto/BF,Baflo railway station,BF,53.3608,6.51833,1.0724637681159421,http://www.group15_KD_tr_onto/280,Eelde,280,53.125,6.585,40,58,0,30,27
166,http://www.group15_KD_tr_onto/BL,Beilen railway station,BL,52.8547,6.52083,0.5540540540540541,http://www.group15_KD_tr_onto/280,Eelde,280,53.125,6.585,40,58,0,30,27
167,http://www.group15_KD_tr_onto/DLN,Dalen railway station,DLN,52.6944,6.75806,0.06382978723404255,http://www.group15_KD_tr_onto/280,Eelde,280,53.125,6.585,40,58,0,30,27
168,http://www.group15_KD_tr_onto/EMNZ,Emmen Zuid railway station,EMNZ,52.7489,6.87472,0.21951219512195122,http://www.group15_KD_tr_onto/280,Eelde,280,53.125,6.585,40,58,0,30,27
169,http://www.group15_KD_tr_onto/EMN,Emmen railway station,EMN,52.7903,6.89917,0.17073170731707318,http://www.group15_KD_tr_onto/280,Eelde,280,53.125,6.585,40,58,0,30,27
170,http://www.group15_KD_tr_onto/GBG,Gramsbergen railway station,GBG,52.6094,6.67583,0.6595744680851063,http://www.group15_KD_tr_onto/280,Eelde,280,53.125,6.585,40,58,0,30,27
171,http://www.group15_KD_tr_onto/GK,Grijpskerk railway station,GK,53.2556,6.31056,0.8787878787878788,http://www.group15_KD_tr_onto/280,Eelde,280,53.125,6.585,40,58,0,30,27
172,http://www.group15_KD_tr_onto/GN,Groningen railway station,GN,53.2106,6.56472,1.5117845117845117,http://www.group15_KD_tr_onto/280,Eelde,280,53.125,6.585,40,58,0,30,27
173,http://www.group15_KD_tr_onto/HDB,Hardenberg railway station,HDB,52.5722,6.62778,0.4406779661016949,http://www.group15_KD_tr_onto/280,Eelde,280,53.125,6.585,40,58,0,30,27
174,http://www.group15_KD_tr_onto/HGV,Hoogeveen railway station,HGV,52.7333,6.4725,0.3108108108108108,http://www.group15_KD_tr_onto/280,Eelde,280,53.125,6.585,40,58,0,30,27
175,http://www.group15_KD_tr_onto/HRN,Haren (NL) railway station,HRN,53.175,6.61778,0.39473684210526316,http://www.group15_KD_tr_onto/280,Eelde,280,53.125,6.585,40,58,0,30,27
176,http://www.group15_KD_tr_onto/KW,Kropswolde railway station,KW,53.1617,6.72139,2.5714285714285716,http://www.group15_KD_tr_onto/280,Eelde,280,53.125,6.585,40,58,0,30,27
177,http://www.group15_KD_tr_onto/NA,Nieuw Amsterdam railway station,NA,52.7186,6.84861,0.2631578947368421,http://www.group15_KD_tr_onto/280,Eelde,280,53.125,6.585,40,58,0,30,27
178,http://www.group15_KD_tr_onto/NSCH,Bad Nieuweschans railway station,NSCH,53.1842,7.19944,4.743589743589744,http://www.group15_KD_tr_onto/280,Eelde,280,53.125,6.585,40,58,0,30,27
179,http://www.group15_KD_tr_onto/SWK,Steenwijk railway station,SWK,52.7908,6.11611,0.875,http://www.group15_KD_tr_onto/280,Eelde,280,53.125,6.585,40,58,0,30,27
180,http://www.group15_KD_tr_onto/VDM,Veendam railway station,VDM,53.1036,6.88472,2.1818181818181817,http://www.group15_KD_tr_onto/280,Eelde,280,53.125,6.585,40,58,0,30,27
181,http://www.group15_KD_tr_onto/VD,Coevorden railway station,VD,52.6631,6.73556,0.5362318840579711,http://www.group15_KD_tr_onto/280,Eelde,280,53.125,6.585,40,58,0,30,27
182,http://www.group15_KD_tr_onto/BGN,Bergen op Zoom railway station,BGN,51.4947,4.29611,1.169811320754717,http://www.group15_KD_tr_onto/340,Woensdrecht,340,51.449,4.342,20,53,-1,0,301
183,http://www.group15_KD_tr_onto/KBD,Krabbendijke railway station,KBD,51.4333,4.11694,1.0933333333333333,http://www.group15_KD_tr_onto/340,Woensdrecht,340,51.449,4.342,20,53,-1,0,301
184,http://www.group15_KD_tr_onto/KRG,Kruiningen-Yerseke railway station,KRG,51.4653,4.03694,0.8133333333333334,http://www.group15_KD_tr_onto/340,Woensdrecht,340,51.449,4.342,20,53,-1,0,301
185,http://www.group15_KD_tr_onto/ODB,Oudenbosch railway station,ODB,51.5881,4.53361,0.2608695652173913,http://www.group15_KD_tr_onto/340,Woensdrecht,340,51.449,4.342,20,53,-1,0,301
186,http://www.group15_KD_tr_onto/RB,Rilland-Bath railway station,RB,51.4222,4.16111,1.2266666666666666,http://www.group15_KD_tr_onto/340,Woensdrecht,340,51.449,4.342,20,53,-1,0,301
187,http://www.group15_KD_tr_onto/RSD,Roosendaal railway station,RSD,51.5403,4.45889,1.45,http://www.group15_KD_tr_onto/340,Woensdrecht,340,51.449,4.342,20,53,-1,0,301
188,http://www.group15_KD_tr_onto/BSKS,Boskoop Snijdelwijk railway station,BSKS,52.0676,4.6462,0.06923076923076923,http://www.group15_KD_tr_onto/344,Rotterdam,344,51.962,4.447,30,53,1,3,39
189,http://www.group15_KD_tr_onto/CPS,Capelle Schollevaar railway station,CPS,51.9533,4.58417,0.47435897435897434,http://www.group15_KD_tr_onto/344,Rotterdam,344,51.962,4.447,30,53,1,3,39
190,http://www.group15_KD_tr_onto/DT,Rotterdam Delftsche Poort railway station,DT,51.9253,4.47361,0.9576271186440678,http://www.group15_KD_tr_onto/344,Rotterdam,344,51.962,4.447,30,53,1,3,39
191,http://www.group15_KD_tr_onto/EC,Dordrecht railway station,EC,51.8075,4.66778,0.4714285714285714,http://www.group15_KD_tr_onto/344,Rotterdam,344,51.962,4.447,30,53,1,3,39
192,http://www.group15_KD_tr_onto/GD,Gouda railway station,GD,52.0175,4.70556,0.5954825462012321,http://www.group15_KD_tr_onto/344,Rotterdam,344,51.962,4.447,30,53,1,3,39
193,http://www.group15_KD_tr_onto/GVMW,Den Haag Moerwijk railway station,GVMW,52.0533,4.30861,0.4892086330935252,http://www.group15_KD_tr_onto/344,Rotterdam,344,51.962,4.447,30,53,1,3,39
194,http://www.group15_KD_tr_onto/NWK,Nieuwerkerk aan den IJssel railway station,NWK,51.9653,4.61694,0.44871794871794873,http://www.group15_KD_tr_onto/344,Rotterdam,344,51.962,4.447,30,53,1,3,39
195,http://www.group15_KD_tr_onto/RLB,Rotterdam Lombardijen railway station,RLB,51.8797,4.53111,0.656934306569343,http://www.group15_KD_tr_onto/344,Rotterdam,344,51.962,4.447,30,53,1,3,39
196,http://www.group15_KD_tr_onto/RSW,Rijswijk railway station,RSW,52.0394,4.31972,0.45323741007194246,http://www.group15_KD_tr_onto/344,Rotterdam,344,51.962,4.447,30,53,1,3,39
197,http://www.group15_KD_tr_onto/RTA,Rotterdam Alexander station,RTA,51.9519,4.55278,0.7032967032967034,http://www.group15_KD_tr_onto/344,Rotterdam,344,51.962,4.447,30,53,1,3,39
198,http://www.group15_KD_tr_onto/RTB,Rotterdam Blaak station,RTB,51.92,4.48917,0.8215613382899628,http://www.group15_KD_tr_onto/344,Rotterdam,344,51.962,4.447,30,53,1,3,39
199,http://www.group15_KD_tr_onto/RTD,Rotterdam Centraal station,RTD,51.9244,4.46944,1.6082644628099174,http://www.group15_KD_tr_onto/344,Rotterdam,344,51.962,4.447,30,53,1,3,39
200,http://www.group15_KD_tr_onto/RTN,Rotterdam Noord railway station,RTN,51.9422,4.48139,0.7948717948717948,http://www.group15_KD_tr_onto/344,Rotterdam,344,51.962,4.447,30,53,1,3,39
201,http://www.group15_KD_tr_onto/RTZ,Rotterdam Zuid railway station,RTZ,51.9094,4.50944,0.708029197080292,http://www.group15_KD_tr_onto/344,Rotterdam,344,51.962,4.447,30,53,1,3,39
202,http://www.group15_KD_tr_onto/SDM,Schiedam Centrum station,SDM,51.9219,4.41,0.4945054945054945,http://www.group15_KD_tr_onto/344,Rotterdam,344,51.962,4.447,30,53,1,3,39
203,http://www.group15_KD_tr_onto/SDT,Sliedrecht Baanhoek railway station,SDT,51.8297,4.74333,0.4740740740740741,http://www.group15_KD_tr_onto/344,Rotterdam,344,51.962,4.447,30,53,1,3,39
204,http://www.group15_KD_tr_onto/YPB,Den Haag Ypenburg railway station,YPB,52.0592,4.38972,0.3333333333333333,http://www.group15_KD_tr_onto/344,Rotterdam,344,51.962,4.447,30,53,1,3,39
205,http://www.group15_KD_tr_onto/ZTM,Lansingerland-Zoetermeer railway station,ZTM,52.0394,4.52556,0.3611111111111111,http://www.group15_KD_tr_onto/344,Rotterdam,344,51.962,4.447,30,53,1,3,39
206,http://www.group15_KD_tr_onto/ZWD,Zwijndrecht railway station,ZWD,51.8147,4.64222,0.6788321167883211,http://www.group15_KD_tr_onto/344,Rotterdam,344,51.962,4.447,30,53,1,3,39
207,http://www.group15_KD_tr_onto/BD,Breda railway station,BD,51.595,4.78,2.7620689655172415,http://www.group15_KD_tr_onto/350,Gilze-Rijen,350,51.566,4.936,30,61,1,1,348
208,http://www.group15_KD_tr_onto/BHDV,Boven Hardinxveld railway station,BHDV,51.8319,4.87472,0.2074074074074074,http://www.group15_KD_tr_onto/350,Gilze-Rijen,350,51.566,4.936,30,61,1,1,348
209,http://www.group15_KD_tr_onto/ETN,Etten-Leur railway station,ETN,51.5753,4.63694,0.8666666666666667,http://www.group15_KD_tr_onto/350,Gilze-Rijen,350,51.566,4.936,30,61,1,1,348
210,http://www.group15_KD_tr_onto/GND,Hardinxveld-Giessendam railway station,GND,51.8303,4.83528,0.4074074074074074,http://www.group15_KD_tr_onto/350,Gilze-Rijen,350,51.566,4.936,30,61,1,1,348
211,http://www.group15_KD_tr_onto/GR,Gorinchem railway station,GR,51.8336,4.9675,0.4528301886792453,http://www.group15_KD_tr_onto/350,Gilze-Rijen,350,51.566,4.936,30,61,1,1,348
212,http://www.group15_KD_tr_onto/GZ,Gilze-Rijen railway station,GZ,51.5839,4.925,1.025974025974026,http://www.group15_KD_tr_onto/350,Gilze-Rijen,350,51.566,4.936,30,61,1,1,348
213,http://www.group15_KD_tr_onto/OT,Oisterwijk railway station,OT,51.5822,5.19444,0.726027397260274,http://www.group15_KD_tr_onto/350,Gilze-Rijen,350,51.566,4.936,30,61,1,1,348
214,http://www.group15_KD_tr_onto/TBR,Tilburg Reeshof railway station,TBR,51.5739,4.99278,1.3376623376623376,http://www.group15_KD_tr_onto/350,Gilze-Rijen,350,51.566,4.936,30,61,1,1,348
215,http://www.group15_KD_tr_onto/TBU,Tilburg Universiteit railway station,TBU,51.5653,5.05139,1.0614035087719298,http://www.group15_KD_tr_onto/350,Gilze-Rijen,350,51.566,4.936,30,61,1,1,348
216,http://www.group15_KD_tr_onto/TB,Tilburg railway station,TB,51.5606,5.08278,1.7837837837837838,http://www.group15_KD_tr_onto/350,Gilze-Rijen,350,51.566,4.936,30,61,1,1,348
217,http://www.group15_KD_tr_onto/ZLW,Lage Zwaluwe railway station,ZLW,51.6906,4.66333,0.5238095238095238,http://www.group15_KD_tr_onto/350,Gilze-Rijen,350,51.566,4.936,30,61,1,1,348
218,http://www.group15_KD_tr_onto/ZVB,Zevenbergen railway station,ZVB,51.6414,4.60972,0.7391304347826086,http://www.group15_KD_tr_onto/350,Gilze-Rijen,350,51.566,4.936,30,61,1,1,348
219,http://www.group15_KD_tr_onto/BET,Best railway station,BET,51.5097,5.38889,0.7261146496815286,http://www.group15_KD_tr_onto/370,Eindhoven,370,51.451,5.377,40,67,-1,1,347
220,http://www.group15_KD_tr_onto/BMR,Boxmeer railway station,BMR,51.6444,5.93944,0.8671875,http://www.group15_KD_tr_onto/370,Eindhoven,370,51.451,5.377,40,67,-1,1,347
221,http://www.group15_KD_tr_onto/BR,Blerick railway station,BR,51.3725,6.155,1.3312883435582823,http://www.group15_KD_tr_onto/370,Eindhoven,370,51.451,5.377,40,67,-1,1,347
222,http://www.group15_KD_tr_onto/BTL,Boxtel railway station,BTL,51.5844,5.31889,0.6708860759493671,http://www.group15_KD_tr_onto/370,Eindhoven,370,51.451,5.377,40,67,-1,1,347
223,http://www.group15_KD_tr_onto/DN,Deurne railway station,DN,51.4558,5.78833,1.9478260869565218,http://www.group15_KD_tr_onto/370,Eindhoven,370,51.451,5.377,40,67,-1,1,347
224,http://www.group15_KD_tr_onto/EHS,Eindhoven Stadion railway station,EHS,51.443,5.46731,0.7197452229299363,http://www.group15_KD_tr_onto/370,Eindhoven,370,51.451,5.377,40,67,-1,1,347
225,http://www.group15_KD_tr_onto/EHV,Eindhoven Centraal railway station,EHV,51.4428,5.48028,1.6213333333333333,http://www.group15_KD_tr_onto/370,Eindhoven,370,51.451,5.377,40,67,-1,1,347
226,http://www.group15_KD_tr_onto/GP,Geldrop railway station,GP,51.42,5.55111,1.056338028169014,http://www.group15_KD_tr_onto/370,Eindhoven,370,51.451,5.377,40,67,-1,1,347
227,http://www.group15_KD_tr_onto/HMH,Helmond 't Hout railway station,HMH,51.4678,5.63083,1.0410958904109588,http://www.group15_KD_tr_onto/370,Eindhoven,370,51.451,5.377,40,67,-1,1,347
228,http://www.group15_KD_tr_onto/HM,Helmond railway station,HM,51.4756,5.66167,1.375,http://www.group15_KD_tr_onto/370,Eindhoven,370,51.451,5.377,40,67,-1,1,347
229,http://www.group15_KD_tr_onto/HRT,Horst-Sevenum railway station,HRT,51.4267,6.04194,1.2658227848101267,http://www.group15_KD_tr_onto/370,Eindhoven,370,51.451,5.377,40,67,-1,1,347
230,http://www.group15_KD_tr_onto/HT,'s-Hertogenbosch railway station,HT,51.69,5.29333,1.1592689295039165,http://www.group15_KD_tr_onto/370,Eindhoven,370,51.451,5.377,40,67,-1,1,347
231,http://www.group15_KD_tr_onto/HZ,Heeze railway station,HZ,51.385,5.56944,1.6578947368421053,http://www.group15_KD_tr_onto/370,Eindhoven,370,51.451,5.377,40,67,-1,1,347
232,http://www.group15_KD_tr_onto/MZ,Maarheeze railway station,MZ,51.3039,5.63028,0.647887323943662,http://www.group15_KD_tr_onto/370,Eindhoven,370,51.451,5.377,40,67,-1,1,347
233,http://www.group15_KD_tr_onto/OW,Oss West railway station,OW,51.7581,5.50611,0.7333333333333333,http://www.group15_KD_tr_onto/370,Eindhoven,370,51.451,5.377,40,67,-1,1,347
234,http://www.group15_KD_tr_onto/O,Oss railway station,O,51.7653,5.53167,1.4758620689655173,http://www.group15_KD_tr_onto/370,Eindhoven,370,51.451,5.377,40,67,-1,1,347
235,http://www.group15_KD_tr_onto/RS,Rosmalen railway station,RS,51.715,5.36889,0.8493150684931506,http://www.group15_KD_tr_onto/370,Eindhoven,370,51.451,5.377,40,67,-1,1,347
236,http://www.group15_KD_tr_onto/TG,Tegelen railway station,TG,51.3411,6.14333,1.6,http://www.group15_KD_tr_onto/370,Eindhoven,370,51.451,5.377,40,67,-1,1,347
237,http://www.group15_KD_tr_onto/VG,Vught railway station,VG,51.6547,5.29194,0.47619047619047616,http://www.group15_KD_tr_onto/370,Eindhoven,370,51.451,5.377,40,67,-1,1,347
238,http://www.group15_KD_tr_onto/VLB,Vierlingsbeek railway station,VLB,51.5922,5.99667,1.1640625,http://www.group15_KD_tr_onto/370,Eindhoven,370,51.451,5.377,40,67,-1,1,347
239,http://www.group15_KD_tr_onto/VL,Venlo railway station,VL,51.3647,6.17139,1.6428571428571428,http://www.group15_KD_tr_onto/370,Eindhoven,370,51.451,5.377,40,67,-1,1,347
240,http://www.group15_KD_tr_onto/VRY,Venray railway station,VRY,51.5264,6.01417,1.4485981308411215,http://www.group15_KD_tr_onto/370,Eindhoven,370,51.451,5.377,40,67,-1,1,347
241,http://www.group15_KD_tr_onto/WT,Weert railway station,WT,51.2486,5.7025,0.630057803468208,http://www.group15_KD_tr_onto/370,Eindhoven,370,51.451,5.377,40,67,-1,1,347
242,http://www.group15_KD_tr_onto/CVM,Chevremont railway station,CVM,50.8758,6.05944,0.25,http://www.group15_KD_tr_onto/380,Maastricht,380,50.906,5.762,40,61,11,3,5
243,http://www.group15_KD_tr_onto/EDN,Eijsden railway station,EDN,50.772,5.71004,0.16666666666666666,http://www.group15_KD_tr_onto/380,Maastricht,380,50.906,5.762,40,61,11,3,5
244,http://www.group15_KD_tr_onto/EGH,Eygelshoven railway station,EGH,50.8903,6.04556,0.05357142857142857,http://www.group15_KD_tr_onto/380,Maastricht,380,50.906,5.762,40,61,11,3,5
245,http://www.group15_KD_tr_onto/GLN,Geleen Oost railway station,GLN,50.9672,5.84306,0.4074074074074074,http://www.group15_KD_tr_onto/380,Maastricht,380,50.906,5.762,40,61,11,3,5
246,http://www.group15_KD_tr_onto/HB,Hoensbroek railway station,HB,50.9053,5.93111,0.5185185185185185,http://www.group15_KD_tr_onto/380,Maastricht,380,50.906,5.762,40,61,11,3,5
247,http://www.group15_KD_tr_onto/HRLW,Heerlen Woonboulevard railway station,HRLW,50.8961,5.95278,0.9,http://www.group15_KD_tr_onto/380,Maastricht,380,50.906,5.762,40,61,11,3,5
248,http://www.group15_KD_tr_onto/HRL,Heerlen railway station,HRL,50.8908,5.97472,0.6900584795321637,http://www.group15_KD_tr_onto/380,Maastricht,380,50.906,5.762,40,61,11,3,5
249,http://www.group15_KD_tr_onto/KMR,Klimmen-Ransdaal railway station,KMR,50.8667,5.89056,0.8428571428571429,http://www.group15_KD_tr_onto/380,Maastricht,380,50.906,5.762,40,61,11,3,5
250,http://www.group15_KD_tr_onto/KRD,Kerkrade Centrum railway station,KRD,50.8614,6.0575,0.39285714285714285,http://www.group15_KD_tr_onto/380,Maastricht,380,50.906,5.762,40,61,11,3,5
251,http://www.group15_KD_tr_onto/LG,Landgraaf railway station,LG,50.8964,6.02,0.8404255319148937,http://www.group15_KD_tr_onto/380,Maastricht,380,50.906,5.762,40,61,11,3,5
252,http://www.group15_KD_tr_onto/MT,Maastricht railway station,MT,50.85,5.70528,0.6025641025641025,http://www.group15_KD_tr_onto/380,Maastricht,380,50.906,5.762,40,61,11,3,5
253,http://www.group15_KD_tr_onto/NH,Nuth railway station,NH,50.9197,5.8925,0.4074074074074074,http://www.group15_KD_tr_onto/380,Maastricht,380,50.906,5.762,40,61,11,3,5
254,http://www.group15_KD_tr_onto/RM,Roermond railway station,RM,51.1933,5.99472,0.6511627906976745,http://www.group15_KD_tr_onto/380,Maastricht,380,50.906,5.762,40,61,11,3,5
255,http://www.group15_KD_tr_onto/RV,Reuver railway station,RV,51.2831,6.07944,1.55,http://www.group15_KD_tr_onto/380,Maastricht,380,50.906,5.762,40,61,11,3,5
256,http://www.group15_KD_tr_onto/SBK,Spaubeek railway station,SBK,50.9431,5.84972,0.6851851851851852,http://www.group15_KD_tr_onto/380,Maastricht,380,50.906,5.762,40,61,11,3,5
257,http://www.group15_KD_tr_onto/SM,Swalmen railway station,SM,51.2358,6.0325,0.8125,http://www.group15_KD_tr_onto/380,Maastricht,380,50.906,5.762,40,61,11,3,5
258,http://www.group15_KD_tr_onto/SN,Schinnen railway station,SN,50.9386,5.87611,0.7962962962962963,http://www.group15_KD_tr_onto/380,Maastricht,380,50.906,5.762,40,61,11,3,5
259,http://www.group15_KD_tr_onto/SRN,Susteren railway station,SRN,51.0608,5.86278,0.45714285714285713,http://www.group15_KD_tr_onto/380,Maastricht,380,50.906,5.762,40,61,11,3,5
260,http://www.group15_KD_tr_onto/STD,Sittard railway station,STD,51.0011,5.85833,0.3278008298755187,http://www.group15_KD_tr_onto/380,Maastricht,380,50.906,5.762,40,61,11,3,5
261,http://www.group15_KD_tr_onto/VDL,Voerendaal railway station,VDL,50.8867,5.92944,0.7571428571428571,http://www.group15_KD_tr_onto/380,Maastricht,380,50.906,5.762,40,61,11,3,5
