,station,station_name,station_code,ts_lat,ts_long,delay,ws,ws_name,ws_code,ws_lat,ws_long,windspeed,mean_temp,percipitation,visibility,wind_direction
0,http://www.group15_KD_tr_onto/AMR,Alkmaar railway station,AMR,52.6378,4.74056,0.3526315789473684,http://www.group15_KD_tr_onto/235,De Kooy,235,52.928,4.781,80,128,0,60,244
1,http://www.group15_KD_tr_onto/ANA,Anna Paulowna railway station,ANA,52.8669,4.81111,0.6455696202531646,http://www.group15_KD_tr_onto/235,De Kooy,235,52.928,4.781,80,128,0,60,244
2,http://www.group15_KD_tr_onto/HDRZ,Den Helder Zuid railway station,HDRZ,52.9331,4.76389,0.35443037974683544,http://www.group15_KD_tr_onto/235,De Kooy,235,52.928,4.781,80,128,0,60,244
3,http://www.group15_KD_tr_onto/HDR,Den Helder railway station,HDR,52.9564,4.76083,0.45,http://www.group15_KD_tr_onto/235,De Kooy,235,52.928,4.781,80,128,0,60,244
4,http://www.group15_KD_tr_onto/HWD,Heerhugowaard railway station,HWD,52.67,4.82361,0.2582781456953642,http://www.group15_KD_tr_onto/235,De Kooy,235,52.928,4.781,80,128,0,60,244
5,http://www.group15_KD_tr_onto/OBD,Obdam railway station,OBD,52.6781,4.90833,0.3333333333333333,http://www.group15_KD_tr_onto/235,De Kooy,235,52.928,4.781,80,128,0,60,244
6,http://www.group15_KD_tr_onto/SGN,Schagen railway station,SGN,52.7861,4.80528,0.49382716049382713,http://www.group15_KD_tr_onto/235,De Kooy,235,52.928,4.781,80,128,0,60,244
7,http://www.group15_KD_tr_onto/AC,Abcoude railway station,AC,52.2744,4.98222,0.30303030303030304,http://www.group15_KD_tr_onto/240,Schiphol,240,52.318,4.79,90,140,0,65,247
8,http://www.group15_KD_tr_onto/AMPO,Almere Poort railway station,AMPO,52.3428,5.15194,0.7522935779816514,http://www.group15_KD_tr_onto/240,Schiphol,240,52.318,4.79,90,140,0,65,247
9,http://www.group15_KD_tr_onto/ASA,Amsterdam Amstel station,ASA,52.3464,4.91778,0.598159509202454,http://www.group15_KD_tr_onto/240,Schiphol,240,52.318,4.79,90,140,0,65,247
10,http://www.group15_KD_tr_onto/ASB,Amsterdam Bijlmer ArenA station,ASB,52.3131,4.94611,0.3993808049535604,http://www.group15_KD_tr_onto/240,Schiphol,240,52.318,4.79,90,140,0,65,247
11,http://www.group15_KD_tr_onto/ASDL,Amsterdam Lelylaan station,ASDL,52.3572,4.83389,0.5,http://www.group15_KD_tr_onto/240,Schiphol,240,52.318,4.79,90,140,0,65,247
12,http://www.group15_KD_tr_onto/ASDM,Amsterdam Muiderpoort railway station,ASDM,52.3608,4.93111,0.5121951219512195,http://www.group15_KD_tr_onto/240,Schiphol,240,52.318,4.79,90,140,0,65,247
13,http://www.group15_KD_tr_onto/ASDZ,Amsterdam Zuid station,ASDZ,52.3389,4.87306,0.4048964218455744,http://www.group15_KD_tr_onto/240,Schiphol,240,52.318,4.79,90,140,0,65,247
14,http://www.group15_KD_tr_onto/ASD,Amsterdam Centraal station,ASD,52.3783,4.9,1.3664596273291925,http://www.group15_KD_tr_onto/240,Schiphol,240,52.318,4.79,90,140,0,65,247
15,http://www.group15_KD_tr_onto/ASSP,Amsterdam Science Park railway station,ASSP,52.3525,4.94861,0.7677419354838709,http://www.group15_KD_tr_onto/240,Schiphol,240,52.318,4.79,90,140,0,65,247
16,http://www.group15_KD_tr_onto/ASS,Amsterdam Sloterdijk station,ASS,52.3892,4.83806,0.5340022296544036,http://www.group15_KD_tr_onto/240,Schiphol,240,52.318,4.79,90,140,0,65,247
17,http://www.group15_KD_tr_onto/BLL,Bloemendaal railway station,BLL,52.4042,4.6275,0.5769230769230769,http://www.group15_KD_tr_onto/240,Schiphol,240,52.318,4.79,90,140,0,65,247
18,http://www.group15_KD_tr_onto/BV,Beverwijk railway station,BV,52.4783,4.65611,0.1568627450980392,http://www.group15_KD_tr_onto/240,Schiphol,240,52.318,4.79,90,140,0,65,247
19,http://www.group15_KD_tr_onto/CAS,Castricum railway station,CAS,52.5456,4.65889,0.42290748898678415,http://www.group15_KD_tr_onto/240,Schiphol,240,52.318,4.79,90,140,0,65,247
20,http://www.group15_KD_tr_onto/DMNZ,Diemen Zuid station,DMNZ,52.3303,4.95639,0.373134328358209,http://www.group15_KD_tr_onto/240,Schiphol,240,52.318,4.79,90,140,0,65,247
21,http://www.group15_KD_tr_onto/DMN,Diemen railway station,DMN,52.3453,4.96694,0.7032258064516129,http://www.group15_KD_tr_onto/240,Schiphol,240,52.318,4.79,90,140,0,65,247
22,http://www.group15_KD_tr_onto/HAD,Heemstede-Aerdenhout railway station,HAD,52.3597,4.60694,0.38016528925619836,http://www.group15_KD_tr_onto/240,Schiphol,240,52.318,4.79,90,140,0,65,247
23,http://www.group15_KD_tr_onto/HFD,Hoofddorp railway station,HFD,52.2933,4.7,0.45318352059925093,http://www.group15_KD_tr_onto/240,Schiphol,240,52.318,4.79,90,140,0,65,247
24,http://www.group15_KD_tr_onto/HIL,Hillegom railway station,HIL,52.3028,4.56583,0.4567901234567901,http://www.group15_KD_tr_onto/240,Schiphol,240,52.318,4.79,90,140,0,65,247
25,http://www.group15_KD_tr_onto/HK,Heemskerk railway station,HK,52.4947,4.68611,0.1794871794871795,http://www.group15_KD_tr_onto/240,Schiphol,240,52.318,4.79,90,140,0,65,247
26,http://www.group15_KD_tr_onto/HLMS,Haarlem Spaarnwoude railway station,HLMS,52.3828,4.67111,0.7207792207792207,http://www.group15_KD_tr_onto/240,Schiphol,240,52.318,4.79,90,140,0,65,247
27,http://www.group15_KD_tr_onto/HLM,Haarlem railway station,HLM,52.3878,4.63889,0.3869209809264305,http://www.group15_KD_tr_onto/240,Schiphol,240,52.318,4.79,90,140,0,65,247
28,http://www.group15_KD_tr_onto/HLO,Heiloo railway station,HLO,52.6,4.70083,0.42696629213483145,http://www.group15_KD_tr_onto/240,Schiphol,240,52.318,4.79,90,140,0,65,247
29,http://www.group15_KD_tr_onto/HWZB,Halfweg-Zwanenburg railway station,HWZB,52.3847,4.75167,0.6038961038961039,http://www.group15_KD_tr_onto/240,Schiphol,240,52.318,4.79,90,140,0,65,247
30,http://www.group15_KD_tr_onto/NVP,Nieuw-Vennep railway station,NVP,52.2597,4.64556,0.4370860927152318,http://www.group15_KD_tr_onto/240,Schiphol,240,52.318,4.79,90,140,0,65,247
31,http://www.group15_KD_tr_onto/OVN,Overveen railway station,OVN,52.3908,4.60778,0.8026315789473685,http://www.group15_KD_tr_onto/240,Schiphol,240,52.318,4.79,90,140,0,65,247
32,http://www.group15_KD_tr_onto/PMR,Purmerend railway station,PMR,52.5033,4.95417,0.7692307692307693,http://www.group15_KD_tr_onto/240,Schiphol,240,52.318,4.79,90,140,0,65,247
33,http://www.group15_KD_tr_onto/PMW,Purmerend Weidevenne railway station,PMW,52.4967,4.93667,0.8021978021978022,http://www.group15_KD_tr_onto/240,Schiphol,240,52.318,4.79,90,140,0,65,247
34,http://www.group15_KD_tr_onto/RAI,Amsterdam RAI station,RAI,52.3367,4.89056,0.31343283582089554,http://www.group15_KD_tr_onto/240,Schiphol,240,52.318,4.79,90,140,0,65,247
35,http://www.group15_KD_tr_onto/SHL,Schiphol Airport railway station,SHL,52.3089,4.76167,1.04,http://www.group15_KD_tr_onto/240,Schiphol,240,52.318,4.79,90,140,0,65,247
36,http://www.group15_KD_tr_onto/SPTN,Santpoort Noord railway station,SPTN,52.4428,4.63917,0.16666666666666666,http://www.group15_KD_tr_onto/240,Schiphol,240,52.318,4.79,90,140,0,65,247
37,http://www.group15_KD_tr_onto/SPTZ,Santpoort Zuid railway station,SPTZ,52.4194,4.63167,0.19230769230769232,http://www.group15_KD_tr_onto/240,Schiphol,240,52.318,4.79,90,140,0,65,247
38,http://www.group15_KD_tr_onto/UTG,Uitgeest railway station,UTG,52.5219,4.70278,0.2638888888888889,http://www.group15_KD_tr_onto/240,Schiphol,240,52.318,4.79,90,140,0,65,247
39,http://www.group15_KD_tr_onto/WM,Wormerveer railway station,WM,52.4892,4.79278,0.5725190839694656,http://www.group15_KD_tr_onto/240,Schiphol,240,52.318,4.79,90,140,0,65,247
40,http://www.group15_KD_tr_onto/WP,Weesp railway station,WP,52.3131,5.04361,0.8241379310344827,http://www.group15_KD_tr_onto/240,Schiphol,240,52.318,4.79,90,140,0,65,247
41,http://www.group15_KD_tr_onto/ZD,Zaandam railway station,ZD,52.4389,4.81472,0.4331395348837209,http://www.group15_KD_tr_onto/240,Schiphol,240,52.318,4.79,90,140,0,65,247
42,http://www.group15_KD_tr_onto/ZVT,Zandvoort aan Zee railway station,ZVT,52.3758,4.53139,1.1578947368421053,http://www.group15_KD_tr_onto/240,Schiphol,240,52.318,4.79,90,140,0,65,247
43,http://www.group15_KD_tr_onto/AKL,Arkel railway station,AKL,51.8719,4.99278,0.23076923076923078,http://www.group15_KD_tr_onto/260,De Bilt,260,52.1,5.18,50,142,0,61,240
44,http://www.group15_KD_tr_onto/BHV,Bilthoven railway station,BHV,52.13,5.20528,0.4429530201342282,http://www.group15_KD_tr_onto/260,De Bilt,260,52.1,5.18,50,142,0,61,240
45,http://www.group15_KD_tr_onto/BKL,Breukelen railway station,BKL,52.17,4.99056,0.41420118343195267,http://www.group15_KD_tr_onto/260,De Bilt,260,52.1,5.18,50,142,0,61,240
46,http://www.group15_KD_tr_onto/BNK,Bunnik railway station,BNK,52.0631,5.19556,0.312,http://www.group15_KD_tr_onto/260,De Bilt,260,52.1,5.18,50,142,0,61,240
47,http://www.group15_KD_tr_onto/BSD,Beesd railway station,BSD,51.8992,5.195,0.4358974358974359,http://www.group15_KD_tr_onto/260,De Bilt,260,52.1,5.18,50,142,0,61,240
48,http://www.group15_KD_tr_onto/CL,Culemborg railway station,CL,51.9472,5.22722,0.8618421052631579,http://www.group15_KD_tr_onto/260,De Bilt,260,52.1,5.18,50,142,0,61,240
49,http://www.group15_KD_tr_onto/DB,Driebergen-Zeist railway station,DB,52.065,5.26,0.39572192513368987,http://www.group15_KD_tr_onto/260,De Bilt,260,52.1,5.18,50,142,0,61,240
50,http://www.group15_KD_tr_onto/GDM,Geldermalsen railway station,GDM,51.8839,5.27083,0.9267015706806283,http://www.group15_KD_tr_onto/260,De Bilt,260,52.1,5.18,50,142,0,61,240
51,http://www.group15_KD_tr_onto/HTN,Houten railway station,HTN,52.0344,5.16778,0.8713450292397661,http://www.group15_KD_tr_onto/260,De Bilt,260,52.1,5.18,50,142,0,61,240
52,http://www.group15_KD_tr_onto/LDM,Leerdam railway station,LDM,51.8947,5.09333,0.2948717948717949,http://www.group15_KD_tr_onto/260,De Bilt,260,52.1,5.18,50,142,0,61,240
53,http://www.group15_KD_tr_onto/MAS,Maarssen railway station,MAS,52.1358,5.03306,0.25190839694656486,http://www.group15_KD_tr_onto/260,De Bilt,260,52.1,5.18,50,142,0,61,240
54,http://www.group15_KD_tr_onto/UTLR,Utrecht Leidsche Rijn railway station,UTLR,52.0983,5.06917,0.2835820895522388,http://www.group15_KD_tr_onto/260,De Bilt,260,52.1,5.18,50,142,0,61,240
55,http://www.group15_KD_tr_onto/UTO,Utrecht Overvecht railway station,UTO,52.11,5.12528,0.3462897526501767,http://www.group15_KD_tr_onto/260,De Bilt,260,52.1,5.18,50,142,0,61,240
56,http://www.group15_KD_tr_onto/UTT,Utrecht Terwijde railway station,UTT,52.1008,5.04306,0.2537313432835821,http://www.group15_KD_tr_onto/260,De Bilt,260,52.1,5.18,50,142,0,61,240
57,http://www.group15_KD_tr_onto/UTVR,Utrecht Vaartsche Rijn railway station,UTVR,52.0786,5.1225,0.5777027027027027,http://www.group15_KD_tr_onto/260,De Bilt,260,52.1,5.18,50,142,0,61,240
58,http://www.group15_KD_tr_onto/UTZL,Utrecht Zuilen railway station,UTZL,52.1031,5.08917,0.2230769230769231,http://www.group15_KD_tr_onto/260,De Bilt,260,52.1,5.18,50,142,0,61,240
59,http://www.group15_KD_tr_onto/UT,Utrecht Centraal railway station,UT,52.0892,5.10972,0.6924460431654677,http://www.group15_KD_tr_onto/260,De Bilt,260,52.1,5.18,50,142,0,61,240
60,http://www.group15_KD_tr_onto/VTN,Vleuten railway station,VTN,52.1031,5.01194,0.29850746268656714,http://www.group15_KD_tr_onto/260,De Bilt,260,52.1,5.18,50,142,0,61,240
61,http://www.group15_KD_tr_onto/WD,Woerden railway station,WD,52.0847,4.89306,0.43956043956043955,http://www.group15_KD_tr_onto/260,De Bilt,260,52.1,5.18,50,142,0,61,240
62,http://www.group15_KD_tr_onto/ZBM,Zaltbommel railway station,ZBM,51.8069,5.26472,0.4025974025974026,http://www.group15_KD_tr_onto/260,De Bilt,260,52.1,5.18,50,142,0,61,240
63,http://www.group15_KD_tr_onto/BKF,Bovenkarspel Flora railway station,BKF,52.6958,5.25306,0.1111111111111111,http://www.group15_KD_tr_onto/267,Stavoren,267,52.898,5.384,90,139,0,66,250
64,http://www.group15_KD_tr_onto/BKG,Bovenkarspel-Grootebroek railway station,BKG,52.695,5.23611,0.1111111111111111,http://www.group15_KD_tr_onto/267,Stavoren,267,52.898,5.384,90,139,0,66,250
65,http://www.group15_KD_tr_onto/EKZ,Enkhuizen railway station,EKZ,52.6994,5.28778,0.15384615384615385,http://www.group15_KD_tr_onto/267,Stavoren,267,52.898,5.384,90,139,0,66,250
66,http://www.group15_KD_tr_onto/HKS,Hoogkarspel railway station,HKS,52.6906,5.18389,0.16049382716049382,http://www.group15_KD_tr_onto/267,Stavoren,267,52.898,5.384,90,139,0,66,250
67,http://www.group15_KD_tr_onto/HNP,Hindeloopen railway station,HNP,52.9461,5.42306,0.21739130434782608,http://www.group15_KD_tr_onto/267,Stavoren,267,52.898,5.384,90,139,0,66,250
68,http://www.group15_KD_tr_onto/HN,Hoorn railway station,HN,52.645,5.05472,0.5172413793103449,http://www.group15_KD_tr_onto/267,Stavoren,267,52.898,5.384,90,139,0,66,250
69,http://www.group15_KD_tr_onto/IJT,IJlst railway station,IJT,53.0147,5.61639,0.17391304347826086,http://www.group15_KD_tr_onto/267,Stavoren,267,52.898,5.384,90,139,0,66,250
70,http://www.group15_KD_tr_onto/KMW,Koudum-Molkwerum railway station,KMW,52.9022,5.41056,0.32608695652173914,http://www.group15_KD_tr_onto/267,Stavoren,267,52.898,5.384,90,139,0,66,250
71,http://www.group15_KD_tr_onto/STV,Stavoren railway station,STV,52.8867,5.35972,0.2608695652173913,http://www.group15_KD_tr_onto/267,Stavoren,267,52.898,5.384,90,139,0,66,250
72,http://www.group15_KD_tr_onto/WK,Workum railway station,WK,52.9714,5.45583,0.2608695652173913,http://www.group15_KD_tr_onto/267,Stavoren,267,52.898,5.384,90,139,0,66,250
73,http://www.group15_KD_tr_onto/WV,Wolvega railway station,WV,52.8797,6.00472,0.7611940298507462,http://www.group15_KD_tr_onto/267,Stavoren,267,52.898,5.384,90,139,0,66,250
74,http://www.group15_KD_tr_onto/ALMB,Almere Buiten railway station,ALMB,52.3942,5.27778,0.5209302325581395,http://www.group15_KD_tr_onto/269,Lelystad,269,52.458,5.52,70,131,0,56,248
75,http://www.group15_KD_tr_onto/ALMM,Almere Muziekwijk railway station,ALMM,52.3675,5.19028,0.7018348623853211,http://www.group15_KD_tr_onto/269,Lelystad,269,52.458,5.52,70,131,0,56,248
76,http://www.group15_KD_tr_onto/ALMO,Almere Oostvaarders railway station,ALMO,52.4028,5.3,0.782608695652174,http://www.group15_KD_tr_onto/269,Lelystad,269,52.458,5.52,70,131,0,56,248
77,http://www.group15_KD_tr_onto/ALMP,Almere Parkwijk railway station,ALMP,52.3767,5.24444,0.5855263157894737,http://www.group15_KD_tr_onto/269,Lelystad,269,52.458,5.52,70,131,0,56,248
78,http://www.group15_KD_tr_onto/ALM,Almere Centrum railway station,ALM,52.375,5.21778,0.7047353760445683,http://www.group15_KD_tr_onto/269,Lelystad,269,52.458,5.52,70,131,0,56,248
79,http://www.group15_KD_tr_onto/DL,Dalfsen railway station,DL,52.4981,6.25861,0.45652173913043476,http://www.group15_KD_tr_onto/269,Lelystad,269,52.458,5.52,70,131,0,56,248
80,http://www.group15_KD_tr_onto/DRON,Dronten railway station,DRON,52.5339,5.72306,0.5131578947368421,http://www.group15_KD_tr_onto/269,Lelystad,269,52.458,5.52,70,131,0,56,248
81,http://www.group15_KD_tr_onto/EML,Ermelo railway station,EML,52.3011,5.61444,0.821917808219178,http://www.group15_KD_tr_onto/269,Lelystad,269,52.458,5.52,70,131,0,56,248
82,http://www.group15_KD_tr_onto/HDE,'t Harde railway station,HDE,52.4089,5.89306,0.6164383561643836,http://www.group15_KD_tr_onto/269,Lelystad,269,52.458,5.52,70,131,0,56,248
83,http://www.group15_KD_tr_onto/HD,Harderwijk railway station,HD,52.3375,5.61972,0.7564102564102564,http://www.group15_KD_tr_onto/269,Lelystad,269,52.458,5.52,70,131,0,56,248
84,http://www.group15_KD_tr_onto/KPNZ,Kampen Zuid railway station,KPNZ,52.5342,5.91583,0.5,http://www.group15_KD_tr_onto/269,Lelystad,269,52.458,5.52,70,131,0,56,248
85,http://www.group15_KD_tr_onto/KPN,Kampen railway station,KPN,52.5597,5.92111,0.07894736842105263,http://www.group15_KD_tr_onto/269,Lelystad,269,52.458,5.52,70,131,0,56,248
86,http://www.group15_KD_tr_onto/LLS,Lelystad Centrum railway station,LLS,52.5078,5.47333,0.978021978021978,http://www.group15_KD_tr_onto/269,Lelystad,269,52.458,5.52,70,131,0,56,248
87,http://www.group15_KD_tr_onto/MP,Meppel railway station,MP,52.6914,6.1975,0.2785714285714286,http://www.group15_KD_tr_onto/269,Lelystad,269,52.458,5.52,70,131,0,56,248
88,http://www.group15_KD_tr_onto/NS,Nunspeet railway station,NS,52.3708,5.78472,0.726027397260274,http://www.group15_KD_tr_onto/269,Lelystad,269,52.458,5.52,70,131,0,56,248
89,http://www.group15_KD_tr_onto/OMN,Ommen railway station,OMN,52.5094,6.41694,0.6847826086956522,http://www.group15_KD_tr_onto/269,Lelystad,269,52.458,5.52,70,131,0,56,248
90,http://www.group15_KD_tr_onto/PT,Putten railway station,PT,52.2653,5.57611,0.6027397260273972,http://www.group15_KD_tr_onto/269,Lelystad,269,52.458,5.52,70,131,0,56,248
91,http://www.group15_KD_tr_onto/WZ,Wezep railway station,WZ,52.4536,6.00222,0.6027397260273972,http://www.group15_KD_tr_onto/269,Lelystad,269,52.458,5.52,70,131,0,56,248
92,http://www.group15_KD_tr_onto/ZLSH,Zwolle Stadshagen railway station,ZLSH,52.5279,6.05108,0.013157894736842105,http://www.group15_KD_tr_onto/269,Lelystad,269,52.458,5.52,70,131,0,56,248
93,http://www.group15_KD_tr_onto/ZL,Zwolle railway station,ZL,52.5053,6.09056,0.5446224256292906,http://www.group15_KD_tr_onto/269,Lelystad,269,52.458,5.52,70,131,0,56,248
94,http://www.group15_KD_tr_onto/AKM,Akkrum railway station,AKM,53.0472,5.84306,0.7313432835820896,http://www.group15_KD_tr_onto/270,Leeuwarden,270,53.224,5.752,100,130,0,65,247
95,http://www.group15_KD_tr_onto/DEI,Deinum railway station,DEI,53.1886,5.72778,0.11764705882352941,http://www.group15_KD_tr_onto/270,Leeuwarden,270,53.224,5.752,100,130,0,65,247
96,http://www.group15_KD_tr_onto/DRP,Dronryp railway station,DRP,53.1775,5.63472,0.08823529411764706,http://www.group15_KD_tr_onto/270,Leeuwarden,270,53.224,5.752,100,130,0,65,247
97,http://www.group15_KD_tr_onto/FN,Franeker railway station,FN,53.1822,5.54944,0.04411764705882353,http://www.group15_KD_tr_onto/270,Leeuwarden,270,53.224,5.752,100,130,0,65,247
98,http://www.group15_KD_tr_onto/GW,Grou-Jirnsum railway station,GW,53.0897,5.82222,0.6716417910447762,http://www.group15_KD_tr_onto/270,Leeuwarden,270,53.224,5.752,100,130,0,65,247
99,http://www.group15_KD_tr_onto/HDG,Hurdegaryp railway station,HDG,53.2186,5.93472,1.0441176470588236,http://www.group15_KD_tr_onto/270,Leeuwarden,270,53.224,5.752,100,130,0,65,247
100,http://www.group15_KD_tr_onto/HLG,Harlingen railway station,HLG,53.1703,5.42528,0.014705882352941176,http://www.group15_KD_tr_onto/270,Leeuwarden,270,53.224,5.752,100,130,0,65,247
101,http://www.group15_KD_tr_onto/HR,Heerenveen railway station,HR,52.9606,5.91528,0.7777777777777778,http://www.group15_KD_tr_onto/270,Leeuwarden,270,53.224,5.752,100,130,0,65,247
102,http://www.group15_KD_tr_onto/LW,Leeuwarden railway station,LW,53.1958,5.79111,0.6363636363636364,http://www.group15_KD_tr_onto/270,Leeuwarden,270,53.224,5.752,100,130,0,65,247
103,http://www.group15_KD_tr_onto/MG,Mantgum railway station,MG,53.1297,5.71333,0.5,http://www.group15_KD_tr_onto/270,Leeuwarden,270,53.224,5.752,100,130,0,65,247
104,http://www.group15_KD_tr_onto/SK,Sneek railway station,SK,53.0322,5.65167,0.36363636363636365,http://www.group15_KD_tr_onto/270,Leeuwarden,270,53.224,5.752,100,130,0,65,247
105,http://www.group15_KD_tr_onto/AHPR,Arnhem Presikhaaf railway station,AHPR,51.9875,5.94306,0.3142857142857143,http://www.group15_KD_tr_onto/275,Deelen,275,52.056,5.873,60,138,0,42,241
106,http://www.group15_KD_tr_onto/AHZ,Arnhem Zuid railway station,AHZ,51.9542,5.85167,0.35714285714285715,http://www.group15_KD_tr_onto/275,Deelen,275,52.056,5.873,60,138,0,42,241
107,http://www.group15_KD_tr_onto/AML,Almelo railway station,AML,52.3572,6.655,1.0190839694656488,http://www.group15_KD_tr_onto/275,Deelen,275,52.056,5.873,60,138,0,42,241
108,http://www.group15_KD_tr_onto/APD,Apeldoorn railway station,APD,52.2092,5.96944,0.861878453038674,http://www.group15_KD_tr_onto/275,Deelen,275,52.056,5.873,60,138,0,42,241
109,http://www.group15_KD_tr_onto/ATN,Aalten railway station,ATN,51.9211,6.57806,0.10810810810810811,http://www.group15_KD_tr_onto/275,Deelen,275,52.056,5.873,60,138,0,42,241
110,http://www.group15_KD_tr_onto/BMN,Brummen railway station,BMN,52.0908,6.14694,0.02857142857142857,http://www.group15_KD_tr_onto/275,Deelen,275,52.056,5.873,60,138,0,42,241
111,http://www.group15_KD_tr_onto/BN,Borne railway station,BN,52.2983,6.74833,0.3978494623655914,http://www.group15_KD_tr_onto/275,Deelen,275,52.056,5.873,60,138,0,42,241
112,http://www.group15_KD_tr_onto/CK,Cuijk railway station,CK,51.7264,5.87417,0.5256410256410257,http://www.group15_KD_tr_onto/275,Deelen,275,52.056,5.873,60,138,0,42,241
113,http://www.group15_KD_tr_onto/DA,Daarlerveen railway station,DA,52.4411,6.57583,0.1111111111111111,http://www.group15_KD_tr_onto/275,Deelen,275,52.056,5.873,60,138,0,42,241
114,http://www.group15_KD_tr_onto/DDN,Delden railway station,DDN,52.26,6.71444,0.375,http://www.group15_KD_tr_onto/275,Deelen,275,52.056,5.873,60,138,0,42,241
115,http://www.group15_KD_tr_onto/DID,Didam railway station,DID,51.9333,6.13222,1.8449612403100775,http://www.group15_KD_tr_onto/275,Deelen,275,52.056,5.873,60,138,0,42,241
116,http://www.group15_KD_tr_onto/DR,Dieren railway station,DR,52.045,6.10333,0.32894736842105265,http://www.group15_KD_tr_onto/275,Deelen,275,52.056,5.873,60,138,0,42,241
117,http://www.group15_KD_tr_onto/DTC,Doetinchem railway station,DTC,51.9583,6.29528,0.25,http://www.group15_KD_tr_onto/275,Deelen,275,52.056,5.873,60,138,0,42,241
118,http://www.group15_KD_tr_onto/DVN,Duiven railway station,DVN,51.9433,6.01417,0.27906976744186046,http://www.group15_KD_tr_onto/275,Deelen,275,52.056,5.873,60,138,0,42,241
119,http://www.group15_KD_tr_onto/DV,Deventer railway station,DV,52.2572,6.16083,0.7803921568627451,http://www.group15_KD_tr_onto/275,Deelen,275,52.056,5.873,60,138,0,42,241
120,http://www.group15_KD_tr_onto/ED,Ede-Wageningen railway station,ED,52.0278,5.67194,0.25190839694656486,http://www.group15_KD_tr_onto/275,Deelen,275,52.056,5.873,60,138,0,42,241
121,http://www.group15_KD_tr_onto/EST,Elst railway station,EST,51.9167,5.855,0.22885572139303484,http://www.group15_KD_tr_onto/275,Deelen,275,52.056,5.873,60,138,0,42,241
122,http://www.group15_KD_tr_onto/ES,Enschede railway station,ES,52.2222,6.89,0.549618320610687,http://www.group15_KD_tr_onto/275,Deelen,275,52.056,5.873,60,138,0,42,241
123,http://www.group15_KD_tr_onto/GBR,Glanerbrug railway station,GBR,52.2186,6.97389,0.0,http://www.group15_KD_tr_onto/275,Deelen,275,52.056,5.873,60,138,0,42,241
124,http://www.group15_KD_tr_onto/GDR,Gaanderen railway station,GDR,51.9308,6.34778,0.2702702702702703,http://www.group15_KD_tr_onto/275,Deelen,275,52.056,5.873,60,138,0,42,241
125,http://www.group15_KD_tr_onto/GO,Goor railway station,GO,52.2303,6.58444,0.15492957746478872,http://www.group15_KD_tr_onto/275,Deelen,275,52.056,5.873,60,138,0,42,241
126,http://www.group15_KD_tr_onto/HGL,Hengelo railway station,HGL,52.2619,6.79417,0.9933554817275747,http://www.group15_KD_tr_onto/275,Deelen,275,52.056,5.873,60,138,0,42,241
127,http://www.group15_KD_tr_onto/HMN,Hemmen-Dodewaard railway station,HMN,51.9222,5.67333,0.03125,http://www.group15_KD_tr_onto/275,Deelen,275,52.056,5.873,60,138,0,42,241
128,http://www.group15_KD_tr_onto/HNO,Heino railway station,HNO,52.4269,6.22194,0.07894736842105263,http://www.group15_KD_tr_onto/275,Deelen,275,52.056,5.873,60,138,0,42,241
129,http://www.group15_KD_tr_onto/HON,Holten railway station,HON,52.2839,6.42056,0.4444444444444444,http://www.group15_KD_tr_onto/275,Deelen,275,52.056,5.873,60,138,0,42,241
130,http://www.group15_KD_tr_onto/KBK,Klarenbeek railway station,KBK,52.1778,6.08417,0.0625,http://www.group15_KD_tr_onto/275,Deelen,275,52.056,5.873,60,138,0,42,241
131,http://www.group15_KD_tr_onto/KLP,Veenendaal-De Klomp railway station,KLP,52.0458,5.57389,0.16666666666666666,http://www.group15_KD_tr_onto/275,Deelen,275,52.056,5.873,60,138,0,42,241
132,http://www.group15_KD_tr_onto/KTR,Kesteren railway station,KTR,51.9314,5.58361,0.015625,http://www.group15_KD_tr_onto/275,Deelen,275,52.056,5.873,60,138,0,42,241
133,http://www.group15_KD_tr_onto/LC,Lochem railway station,LC,52.1667,6.42583,0.14285714285714285,http://www.group15_KD_tr_onto/275,Deelen,275,52.056,5.873,60,138,0,42,241
134,http://www.group15_KD_tr_onto/LTV,Lichtenvoorde-Groenlo railway station,LTV,52.0117,6.59639,0.08695652173913043,http://www.group15_KD_tr_onto/275,Deelen,275,52.056,5.873,60,138,0,42,241
135,http://www.group15_KD_tr_onto/MMLH,Mook-Molenhoek railway station,MMLH,51.7647,5.8775,0.7375,http://www.group15_KD_tr_onto/275,Deelen,275,52.056,5.873,60,138,0,42,241
136,http://www.group15_KD_tr_onto/NM,Nijmegen railway station,NM,51.8433,5.8525,0.5598802395209581,http://www.group15_KD_tr_onto/275,Deelen,275,52.056,5.873,60,138,0,42,241
137,http://www.group15_KD_tr_onto/NVD,Nijverdal railway station,NVD,52.3656,6.47028,0.5980392156862745,http://www.group15_KD_tr_onto/275,Deelen,275,52.056,5.873,60,138,0,42,241
138,http://www.group15_KD_tr_onto/ODZ,Oldenzaal railway station,ODZ,52.3061,6.93361,0.7792207792207793,http://www.group15_KD_tr_onto/275,Deelen,275,52.056,5.873,60,138,0,42,241
139,http://www.group15_KD_tr_onto/OP,Opheusden railway station,OP,51.9261,5.63694,0.015625,http://www.group15_KD_tr_onto/275,Deelen,275,52.056,5.873,60,138,0,42,241
140,http://www.group15_KD_tr_onto/OST,Olst railway station,OST,52.335,6.11306,0.2976190476190476,http://www.group15_KD_tr_onto/275,Deelen,275,52.056,5.873,60,138,0,42,241
141,http://www.group15_KD_tr_onto/OTB,Oosterbeek railway station,OTB,51.9947,5.84,0.3484848484848485,http://www.group15_KD_tr_onto/275,Deelen,275,52.056,5.873,60,138,0,42,241
142,http://www.group15_KD_tr_onto/RAT,Raalte railway station,RAT,52.3908,6.27861,0.22549019607843138,http://www.group15_KD_tr_onto/275,Deelen,275,52.056,5.873,60,138,0,42,241
143,http://www.group15_KD_tr_onto/RHN,Rhenen railway station,RHN,51.9578,5.57833,0.24324324324324326,http://www.group15_KD_tr_onto/275,Deelen,275,52.056,5.873,60,138,0,42,241
144,http://www.group15_KD_tr_onto/RH,Rheden railway station,RH,52.0097,6.02972,0.1,http://www.group15_KD_tr_onto/275,Deelen,275,52.056,5.873,60,138,0,42,241
145,http://www.group15_KD_tr_onto/RL,Ruurlo railway station,RL,52.0806,6.45,0.057971014492753624,http://www.group15_KD_tr_onto/275,Deelen,275,52.056,5.873,60,138,0,42,241
146,http://www.group15_KD_tr_onto/RSN,Rijssen railway station,RSN,52.3117,6.51917,0.3194444444444444,http://www.group15_KD_tr_onto/275,Deelen,275,52.056,5.873,60,138,0,42,241
147,http://www.group15_KD_tr_onto/RVS,Ravenstein railway station,RVS,51.7947,5.63722,0.9512195121951219,http://www.group15_KD_tr_onto/275,Deelen,275,52.056,5.873,60,138,0,42,241
148,http://www.group15_KD_tr_onto/TWL,Twello railway station,TWL,52.2381,6.1,0.13636363636363635,http://www.group15_KD_tr_onto/275,Deelen,275,52.056,5.873,60,138,0,42,241
149,http://www.group15_KD_tr_onto/VEM,Voorst-Empe railway station,VEM,52.1578,6.14278,0.09375,http://www.group15_KD_tr_onto/275,Deelen,275,52.056,5.873,60,138,0,42,241
150,http://www.group15_KD_tr_onto/VHP,Vroomshoop railway station,VHP,52.4411,6.57583,0.14814814814814814,http://www.group15_KD_tr_onto/275,Deelen,275,52.056,5.873,60,138,0,42,241
151,http://www.group15_KD_tr_onto/VP,Arnhem Velperpoort railway station,VP,51.985,5.92,0.12857142857142856,http://www.group15_KD_tr_onto/275,Deelen,275,52.056,5.873,60,138,0,42,241
152,http://www.group15_KD_tr_onto/VSV,Varsseveld railway station,VSV,51.9369,6.45806,0.25675675675675674,http://www.group15_KD_tr_onto/275,Deelen,275,52.056,5.873,60,138,0,42,241
153,http://www.group15_KD_tr_onto/VZ,Vriezenveen railway station,VZ,52.4019,6.60028,0.1111111111111111,http://www.group15_KD_tr_onto/275,Deelen,275,52.056,5.873,60,138,0,42,241
154,http://www.group15_KD_tr_onto/WC,Wijchen railway station,WC,51.8111,5.72944,0.6486486486486487,http://www.group15_KD_tr_onto/275,Deelen,275,52.056,5.873,60,138,0,42,241
155,http://www.group15_KD_tr_onto/WDN,Wierden railway station,WDN,52.3614,6.59111,0.2905405405405405,http://www.group15_KD_tr_onto/275,Deelen,275,52.056,5.873,60,138,0,42,241
156,http://www.group15_KD_tr_onto/WF,Wolfheze railway station,WF,52.0053,5.79361,0.2727272727272727,http://www.group15_KD_tr_onto/275,Deelen,275,52.056,5.873,60,138,0,42,241
157,http://www.group15_KD_tr_onto/WH,Wijhe railway station,WH,52.3936,6.14083,0.6428571428571429,http://www.group15_KD_tr_onto/275,Deelen,275,52.056,5.873,60,138,0,42,241
158,http://www.group15_KD_tr_onto/WL,Wehl railway station,WL,51.9567,6.2125,0.31007751937984496,http://www.group15_KD_tr_onto/275,Deelen,275,52.056,5.873,60,138,0,42,241
159,http://www.group15_KD_tr_onto/WWW,Winterswijk West railway station,WWW,51.9744,6.70361,0.014492753623188406,http://www.group15_KD_tr_onto/275,Deelen,275,52.056,5.873,60,138,0,42,241
160,http://www.group15_KD_tr_onto/WW,Winterswijk railway station,WW,51.9675,6.71556,0.2222222222222222,http://www.group15_KD_tr_onto/275,Deelen,275,52.056,5.873,60,138,0,42,241
161,http://www.group15_KD_tr_onto/ZA,Zetten-Andelst railway station,ZA,51.9194,5.72306,0.0625,http://www.group15_KD_tr_onto/275,Deelen,275,52.056,5.873,60,138,0,42,241
162,http://www.group15_KD_tr_onto/ZP,Zutphen railway station,ZP,52.1444,6.19389,0.4099099099099099,http://www.group15_KD_tr_onto/275,Deelen,275,52.056,5.873,60,138,0,42,241
163,http://www.group15_KD_tr_onto/ZV,Zevenaar railway station,ZV,51.9231,6.07278,1.6303030303030304,http://www.group15_KD_tr_onto/275,Deelen,275,52.056,5.873,60,138,0,42,241
164,http://www.group15_KD_tr_onto/ASN,Assen railway station,ASN,52.9917,6.57056,0.0,http://www.group15_KD_tr_onto/280,Eelde,280,53.125,6.585,70,129,0,63,249
165,http://www.group15_KD_tr_onto/BF,Baflo railway station,BF,53.3608,6.51833,0.7162162162162162,http://www.group15_KD_tr_onto/280,Eelde,280,53.125,6.585,70,129,0,63,249
166,http://www.group15_KD_tr_onto/BL,Beilen railway station,BL,52.8547,6.52083,0.0,http://www.group15_KD_tr_onto/280,Eelde,280,53.125,6.585,70,129,0,63,249
167,http://www.group15_KD_tr_onto/DLN,Dalen railway station,DLN,52.6944,6.75806,0.2553191489361702,http://www.group15_KD_tr_onto/280,Eelde,280,53.125,6.585,70,129,0,63,249
168,http://www.group15_KD_tr_onto/EMNZ,Emmen Zuid railway station,EMNZ,52.7489,6.87472,0.4146341463414634,http://www.group15_KD_tr_onto/280,Eelde,280,53.125,6.585,70,129,0,63,249
169,http://www.group15_KD_tr_onto/EMN,Emmen railway station,EMN,52.7903,6.89917,0.7804878048780488,http://www.group15_KD_tr_onto/280,Eelde,280,53.125,6.585,70,129,0,63,249
170,http://www.group15_KD_tr_onto/GBG,Gramsbergen railway station,GBG,52.6094,6.67583,0.6595744680851063,http://www.group15_KD_tr_onto/280,Eelde,280,53.125,6.585,70,129,0,63,249
171,http://www.group15_KD_tr_onto/GK,Grijpskerk railway station,GK,53.2556,6.31056,0.4852941176470588,http://www.group15_KD_tr_onto/280,Eelde,280,53.125,6.585,70,129,0,63,249
172,http://www.group15_KD_tr_onto/GN,Groningen railway station,GN,53.2106,6.56472,0.4217252396166134,http://www.group15_KD_tr_onto/280,Eelde,280,53.125,6.585,70,129,0,63,249
173,http://www.group15_KD_tr_onto/HDB,Hardenberg railway station,HDB,52.5722,6.62778,0.211864406779661,http://www.group15_KD_tr_onto/280,Eelde,280,53.125,6.585,70,129,0,63,249
174,http://www.group15_KD_tr_onto/HGV,Hoogeveen railway station,HGV,52.7333,6.4725,0.0,http://www.group15_KD_tr_onto/280,Eelde,280,53.125,6.585,70,129,0,63,249
175,http://www.group15_KD_tr_onto/HRN,Haren (NL) railway station,HRN,53.175,6.61778,0.0,http://www.group15_KD_tr_onto/280,Eelde,280,53.125,6.585,70,129,0,63,249
176,http://www.group15_KD_tr_onto/KW,Kropswolde railway station,KW,53.1617,6.72139,0.5857142857142857,http://www.group15_KD_tr_onto/280,Eelde,280,53.125,6.585,70,129,0,63,249
177,http://www.group15_KD_tr_onto/NA,Nieuw Amsterdam railway station,NA,52.7186,6.84861,0.4605263157894737,http://www.group15_KD_tr_onto/280,Eelde,280,53.125,6.585,70,129,0,63,249
178,http://www.group15_KD_tr_onto/NSCH,Bad Nieuweschans railway station,NSCH,53.1842,7.19944,0.4358974358974359,http://www.group15_KD_tr_onto/280,Eelde,280,53.125,6.585,70,129,0,63,249
179,http://www.group15_KD_tr_onto/SWK,Steenwijk railway station,SWK,52.7908,6.11611,0.6222222222222222,http://www.group15_KD_tr_onto/280,Eelde,280,53.125,6.585,70,129,0,63,249
180,http://www.group15_KD_tr_onto/VDM,Veendam railway station,VDM,53.1036,6.88472,0.22857142857142856,http://www.group15_KD_tr_onto/280,Eelde,280,53.125,6.585,70,129,0,63,249
181,http://www.group15_KD_tr_onto/VD,Coevorden railway station,VD,52.6631,6.73556,0.2898550724637681,http://www.group15_KD_tr_onto/280,Eelde,280,53.125,6.585,70,129,0,63,249
182,http://www.group15_KD_tr_onto/BGN,Bergen op Zoom railway station,BGN,51.4947,4.29611,0.5833333333333334,http://www.group15_KD_tr_onto/340,Woensdrecht,340,51.449,4.342,60,149,0,29,264
183,http://www.group15_KD_tr_onto/KBD,Krabbendijke railway station,KBD,51.4333,4.11694,0.6419753086419753,http://www.group15_KD_tr_onto/340,Woensdrecht,340,51.449,4.342,60,149,0,29,264
184,http://www.group15_KD_tr_onto/KRG,Kruiningen-Yerseke railway station,KRG,51.4653,4.03694,0.5185185185185185,http://www.group15_KD_tr_onto/340,Woensdrecht,340,51.449,4.342,60,149,0,29,264
185,http://www.group15_KD_tr_onto/ODB,Oudenbosch railway station,ODB,51.5881,4.53361,0.7101449275362319,http://www.group15_KD_tr_onto/340,Woensdrecht,340,51.449,4.342,60,149,0,29,264
186,http://www.group15_KD_tr_onto/RB,Rilland-Bath railway station,RB,51.4222,4.16111,0.6666666666666666,http://www.group15_KD_tr_onto/340,Woensdrecht,340,51.449,4.342,60,149,0,29,264
187,http://www.group15_KD_tr_onto/RSD,Roosendaal railway station,RSD,51.5403,4.45889,0.995,http://www.group15_KD_tr_onto/340,Woensdrecht,340,51.449,4.342,60,149,0,29,264
188,http://www.group15_KD_tr_onto/BSKS,Boskoop Snijdelwijk railway station,BSKS,52.0676,4.6462,0.023076923076923078,http://www.group15_KD_tr_onto/344,Rotterdam,344,51.962,4.447,70,140,0,65,246
189,http://www.group15_KD_tr_onto/CPS,Capelle Schollevaar railway station,CPS,51.9533,4.58417,0.5607476635514018,http://www.group15_KD_tr_onto/344,Rotterdam,344,51.962,4.447,70,140,0,65,246
190,http://www.group15_KD_tr_onto/DT,Rotterdam Delftsche Poort railway station,DT,51.9253,4.47361,0.6466346153846154,http://www.group15_KD_tr_onto/344,Rotterdam,344,51.962,4.447,70,140,0,65,246
191,http://www.group15_KD_tr_onto/EC,Dordrecht railway station,EC,51.8075,4.66778,0.43243243243243246,http://www.group15_KD_tr_onto/344,Rotterdam,344,51.962,4.447,70,140,0,65,246
192,http://www.group15_KD_tr_onto/GD,Gouda railway station,GD,52.0175,4.70556,0.39655172413793105,http://www.group15_KD_tr_onto/344,Rotterdam,344,51.962,4.447,70,140,0,65,246
193,http://www.group15_KD_tr_onto/GVMW,Den Haag Moerwijk railway station,GVMW,52.0533,4.30861,0.38848920863309355,http://www.group15_KD_tr_onto/344,Rotterdam,344,51.962,4.447,70,140,0,65,246
194,http://www.group15_KD_tr_onto/NWK,Nieuwerkerk aan den IJssel railway station,NWK,51.9653,4.61694,0.6542056074766355,http://www.group15_KD_tr_onto/344,Rotterdam,344,51.962,4.447,70,140,0,65,246
195,http://www.group15_KD_tr_onto/RLB,Rotterdam Lombardijen railway station,RLB,51.8797,4.53111,0.43915343915343913,http://www.group15_KD_tr_onto/344,Rotterdam,344,51.962,4.447,70,140,0,65,246
196,http://www.group15_KD_tr_onto/RSW,Rijswijk railway station,RSW,52.0394,4.31972,0.39568345323741005,http://www.group15_KD_tr_onto/344,Rotterdam,344,51.962,4.447,70,140,0,65,246
197,http://www.group15_KD_tr_onto/RTA,Rotterdam Alexander station,RTA,51.9519,4.55278,0.5477178423236515,http://www.group15_KD_tr_onto/344,Rotterdam,344,51.962,4.447,70,140,0,65,246
198,http://www.group15_KD_tr_onto/RTB,Rotterdam Blaak station,RTB,51.92,4.48917,0.48467966573816157,http://www.group15_KD_tr_onto/344,Rotterdam,344,51.962,4.447,70,140,0,65,246
199,http://www.group15_KD_tr_onto/RTD,Rotterdam Centraal station,RTD,51.9244,4.46944,1.3539823008849559,http://www.group15_KD_tr_onto/344,Rotterdam,344,51.962,4.447,70,140,0,65,246
200,http://www.group15_KD_tr_onto/RTN,Rotterdam Noord railway station,RTN,51.9422,4.48139,0.8598130841121495,http://www.group15_KD_tr_onto/344,Rotterdam,344,51.962,4.447,70,140,0,65,246
201,http://www.group15_KD_tr_onto/RTZ,Rotterdam Zuid railway station,RTZ,51.9094,4.50944,0.4021164021164021,http://www.group15_KD_tr_onto/344,Rotterdam,344,51.962,4.447,70,140,0,65,246
202,http://www.group15_KD_tr_onto/SDM,Schiedam Centrum station,SDM,51.9219,4.41,0.39943342776203966,http://www.group15_KD_tr_onto/344,Rotterdam,344,51.962,4.447,70,140,0,65,246
203,http://www.group15_KD_tr_onto/SDT,Sliedrecht Baanhoek railway station,SDT,51.8297,4.74333,0.6666666666666666,http://www.group15_KD_tr_onto/344,Rotterdam,344,51.962,4.447,70,140,0,65,246
204,http://www.group15_KD_tr_onto/YPB,Den Haag Ypenburg railway station,YPB,52.0592,4.38972,0.3037037037037037,http://www.group15_KD_tr_onto/344,Rotterdam,344,51.962,4.447,70,140,0,65,246
205,http://www.group15_KD_tr_onto/ZTM,Lansingerland-Zoetermeer railway station,ZTM,52.0394,4.52556,0.3111111111111111,http://www.group15_KD_tr_onto/344,Rotterdam,344,51.962,4.447,70,140,0,65,246
206,http://www.group15_KD_tr_onto/ZWD,Zwijndrecht railway station,ZWD,51.8147,4.64222,0.3386243386243386,http://www.group15_KD_tr_onto/344,Rotterdam,344,51.962,4.447,70,140,0,65,246
207,http://www.group15_KD_tr_onto/BD,Breda railway station,BD,51.595,4.78,2.0679611650485437,http://www.group15_KD_tr_onto/350,Gilze-Rijen,350,51.566,4.936,60,145,0,44,257
208,http://www.group15_KD_tr_onto/BHDV,Boven Hardinxveld railway station,BHDV,51.8319,4.87472,0.37037037037037035,http://www.group15_KD_tr_onto/350,Gilze-Rijen,350,51.566,4.936,60,145,0,44,257
209,http://www.group15_KD_tr_onto/ETN,Etten-Leur railway station,ETN,51.5753,4.63694,0.5930232558139535,http://www.group15_KD_tr_onto/350,Gilze-Rijen,350,51.566,4.936,60,145,0,44,257
210,http://www.group15_KD_tr_onto/GND,Hardinxveld-Giessendam railway station,GND,51.8303,4.83528,0.6666666666666666,http://www.group15_KD_tr_onto/350,Gilze-Rijen,350,51.566,4.936,60,145,0,44,257
211,http://www.group15_KD_tr_onto/GR,Gorinchem railway station,GR,51.8336,4.9675,0.4056603773584906,http://www.group15_KD_tr_onto/350,Gilze-Rijen,350,51.566,4.936,60,145,0,44,257
212,http://www.group15_KD_tr_onto/GZ,Gilze-Rijen railway station,GZ,51.5839,4.925,1.7093023255813953,http://www.group15_KD_tr_onto/350,Gilze-Rijen,350,51.566,4.936,60,145,0,44,257
213,http://www.group15_KD_tr_onto/OT,Oisterwijk railway station,OT,51.5822,5.19444,0.5362318840579711,http://www.group15_KD_tr_onto/350,Gilze-Rijen,350,51.566,4.936,60,145,0,44,257
214,http://www.group15_KD_tr_onto/TBR,Tilburg Reeshof railway station,TBR,51.5739,4.99278,1.930232558139535,http://www.group15_KD_tr_onto/350,Gilze-Rijen,350,51.566,4.936,60,145,0,44,257
215,http://www.group15_KD_tr_onto/TBU,Tilburg Universiteit railway station,TBU,51.5653,5.05139,1.625,http://www.group15_KD_tr_onto/350,Gilze-Rijen,350,51.566,4.936,60,145,0,44,257
216,http://www.group15_KD_tr_onto/TB,Tilburg railway station,TB,51.5606,5.08278,1.5924764890282133,http://www.group15_KD_tr_onto/350,Gilze-Rijen,350,51.566,4.936,60,145,0,44,257
217,http://www.group15_KD_tr_onto/ZLW,Lage Zwaluwe railway station,ZLW,51.6906,4.66333,1.5,http://www.group15_KD_tr_onto/350,Gilze-Rijen,350,51.566,4.936,60,145,0,44,257
218,http://www.group15_KD_tr_onto/ZVB,Zevenbergen railway station,ZVB,51.6414,4.60972,1.1159420289855073,http://www.group15_KD_tr_onto/350,Gilze-Rijen,350,51.566,4.936,60,145,0,44,257
219,http://www.group15_KD_tr_onto/BET,Best railway station,BET,51.5097,5.38889,1.0202702702702702,http://www.group15_KD_tr_onto/370,Eindhoven,370,51.451,5.377,50,144,0,56,250
220,http://www.group15_KD_tr_onto/BMR,Boxmeer railway station,BMR,51.6444,5.93944,0.5,http://www.group15_KD_tr_onto/370,Eindhoven,370,51.451,5.377,50,144,0,56,250
221,http://www.group15_KD_tr_onto/BR,Blerick railway station,BR,51.3725,6.155,0.8445945945945946,http://www.group15_KD_tr_onto/370,Eindhoven,370,51.451,5.377,50,144,0,56,250
222,http://www.group15_KD_tr_onto/BTL,Boxtel railway station,BTL,51.5844,5.31889,0.7960526315789473,http://www.group15_KD_tr_onto/370,Eindhoven,370,51.451,5.377,50,144,0,56,250
223,http://www.group15_KD_tr_onto/DN,Deurne railway station,DN,51.4558,5.78833,1.2547169811320755,http://www.group15_KD_tr_onto/370,Eindhoven,370,51.451,5.377,50,144,0,56,250
224,http://www.group15_KD_tr_onto/EHS,Eindhoven Stadion railway station,EHS,51.443,5.46731,1.0743243243243243,http://www.group15_KD_tr_onto/370,Eindhoven,370,51.451,5.377,50,144,0,56,250
225,http://www.group15_KD_tr_onto/EHV,Eindhoven Centraal railway station,EHV,51.4428,5.48028,1.1926121372031662,http://www.group15_KD_tr_onto/370,Eindhoven,370,51.451,5.377,50,144,0,56,250
226,http://www.group15_KD_tr_onto/GP,Geldrop railway station,GP,51.42,5.55111,0.29850746268656714,http://www.group15_KD_tr_onto/370,Eindhoven,370,51.451,5.377,50,144,0,56,250
227,http://www.group15_KD_tr_onto/HMH,Helmond 't Hout railway station,HMH,51.4678,5.63083,0.9411764705882353,http://www.group15_KD_tr_onto/370,Eindhoven,370,51.451,5.377,50,144,0,56,250
228,http://www.group15_KD_tr_onto/HM,Helmond railway station,HM,51.4756,5.66167,0.8142857142857143,http://www.group15_KD_tr_onto/370,Eindhoven,370,51.451,5.377,50,144,0,56,250
229,http://www.group15_KD_tr_onto/HRT,Horst-Sevenum railway station,HRT,51.4267,6.04194,0.5694444444444444,http://www.group15_KD_tr_onto/370,Eindhoven,370,51.451,5.377,50,144,0,56,250
230,http://www.group15_KD_tr_onto/HT,'s-Hertogenbosch railway station,HT,51.69,5.29333,0.9229024943310657,http://www.group15_KD_tr_onto/370,Eindhoven,370,51.451,5.377,50,144,0,56,250
231,http://www.group15_KD_tr_onto/HZ,Heeze railway station,HZ,51.385,5.56944,0.0,http://www.group15_KD_tr_onto/370,Eindhoven,370,51.451,5.377,50,144,0,56,250
232,http://www.group15_KD_tr_onto/MZ,Maarheeze railway station,MZ,51.3039,5.63028,0.11940298507462686,http://www.group15_KD_tr_onto/370,Eindhoven,370,51.451,5.377,50,144,0,56,250
233,http://www.group15_KD_tr_onto/OW,Oss West railway station,OW,51.7581,5.50611,0.6333333333333333,http://www.group15_KD_tr_onto/370,Eindhoven,370,51.451,5.377,50,144,0,56,250
234,http://www.group15_KD_tr_onto/O,Oss railway station,O,51.7653,5.53167,0.9942196531791907,http://www.group15_KD_tr_onto/370,Eindhoven,370,51.451,5.377,50,144,0,56,250
235,http://www.group15_KD_tr_onto/RS,Rosmalen railway station,RS,51.715,5.36889,0.7222222222222222,http://www.group15_KD_tr_onto/370,Eindhoven,370,51.451,5.377,50,144,0,56,250
236,http://www.group15_KD_tr_onto/TG,Tegelen railway station,TG,51.3411,6.14333,1.8026315789473684,http://www.group15_KD_tr_onto/370,Eindhoven,370,51.451,5.377,50,144,0,56,250
237,http://www.group15_KD_tr_onto/VG,Vught railway station,VG,51.6547,5.29194,0.3924050632911392,http://www.group15_KD_tr_onto/370,Eindhoven,370,51.451,5.377,50,144,0,56,250
238,http://www.group15_KD_tr_onto/VLB,Vierlingsbeek railway station,VLB,51.5922,5.99667,1.105263157894737,http://www.group15_KD_tr_onto/370,Eindhoven,370,51.451,5.377,50,144,0,56,250
239,http://www.group15_KD_tr_onto/VL,Venlo railway station,VL,51.3647,6.17139,1.2307692307692308,http://www.group15_KD_tr_onto/370,Eindhoven,370,51.451,5.377,50,144,0,56,250
240,http://www.group15_KD_tr_onto/VRY,Venray railway station,VRY,51.5264,6.01417,1.0921052631578947,http://www.group15_KD_tr_onto/370,Eindhoven,370,51.451,5.377,50,144,0,56,250
241,http://www.group15_KD_tr_onto/WT,Weert railway station,WT,51.2486,5.7025,0.41975308641975306,http://www.group15_KD_tr_onto/370,Eindhoven,370,51.451,5.377,50,144,0,56,250
242,http://www.group15_KD_tr_onto/CVM,Chevremont railway station,CVM,50.8758,6.05944,0.10526315789473684,http://www.group15_KD_tr_onto/380,Maastricht,380,50.906,5.762,40,152,0,61,254
243,http://www.group15_KD_tr_onto/EDN,Eijsden railway station,EDN,50.772,5.71004,1.3888888888888888,http://www.group15_KD_tr_onto/380,Maastricht,380,50.906,5.762,40,152,0,61,254
244,http://www.group15_KD_tr_onto/EGH,Eygelshoven railway station,EGH,50.8903,6.04556,0.02631578947368421,http://www.group15_KD_tr_onto/380,Maastricht,380,50.906,5.762,40,152,0,61,254
245,http://www.group15_KD_tr_onto/GLN,Geleen Oost railway station,GLN,50.9672,5.84306,0.25,http://www.group15_KD_tr_onto/380,Maastricht,380,50.906,5.762,40,152,0,61,254
246,http://www.group15_KD_tr_onto/HB,Hoensbroek railway station,HB,50.9053,5.93111,0.3815789473684211,http://www.group15_KD_tr_onto/380,Maastricht,380,50.906,5.762,40,152,0,61,254
247,http://www.group15_KD_tr_onto/HRLW,Heerlen Woonboulevard railway station,HRLW,50.8961,5.95278,0.1794871794871795,http://www.group15_KD_tr_onto/380,Maastricht,380,50.906,5.762,40,152,0,61,254
248,http://www.group15_KD_tr_onto/HRL,Heerlen railway station,HRL,50.8908,5.97472,0.19402985074626866,http://www.group15_KD_tr_onto/380,Maastricht,380,50.906,5.762,40,152,0,61,254
249,http://www.group15_KD_tr_onto/KMR,Klimmen-Ransdaal railway station,KMR,50.8667,5.89056,0.1282051282051282,http://www.group15_KD_tr_onto/380,Maastricht,380,50.906,5.762,40,152,0,61,254
250,http://www.group15_KD_tr_onto/KRD,Kerkrade Centrum railway station,KRD,50.8614,6.0575,0.02631578947368421,http://www.group15_KD_tr_onto/380,Maastricht,380,50.906,5.762,40,152,0,61,254
251,http://www.group15_KD_tr_onto/LG,Landgraaf railway station,LG,50.8964,6.02,0.025210084033613446,http://www.group15_KD_tr_onto/380,Maastricht,380,50.906,5.762,40,152,0,61,254
252,http://www.group15_KD_tr_onto/MT,Maastricht railway station,MT,50.85,5.70528,0.5481171548117155,http://www.group15_KD_tr_onto/380,Maastricht,380,50.906,5.762,40,152,0,61,254
253,http://www.group15_KD_tr_onto/NH,Nuth railway station,NH,50.9197,5.8925,0.25,http://www.group15_KD_tr_onto/380,Maastricht,380,50.906,5.762,40,152,0,61,254
254,http://www.group15_KD_tr_onto/RM,Roermond railway station,RM,51.1933,5.99472,0.6078431372549019,http://www.group15_KD_tr_onto/380,Maastricht,380,50.906,5.762,40,152,0,61,254
255,http://www.group15_KD_tr_onto/RV,Reuver railway station,RV,51.2831,6.07944,1.394736842105263,http://www.group15_KD_tr_onto/380,Maastricht,380,50.906,5.762,40,152,0,61,254
256,http://www.group15_KD_tr_onto/SBK,Spaubeek railway station,SBK,50.9431,5.84972,0.4473684210526316,http://www.group15_KD_tr_onto/380,Maastricht,380,50.906,5.762,40,152,0,61,254
257,http://www.group15_KD_tr_onto/SM,Swalmen railway station,SM,51.2358,6.0325,0.6578947368421053,http://www.group15_KD_tr_onto/380,Maastricht,380,50.906,5.762,40,152,0,61,254
258,http://www.group15_KD_tr_onto/SN,Schinnen railway station,SN,50.9386,5.87611,0.5789473684210527,http://www.group15_KD_tr_onto/380,Maastricht,380,50.906,5.762,40,152,0,61,254
259,http://www.group15_KD_tr_onto/SRN,Susteren railway station,SRN,51.0608,5.86278,0.43243243243243246,http://www.group15_KD_tr_onto/380,Maastricht,380,50.906,5.762,40,152,0,61,254
260,http://www.group15_KD_tr_onto/STD,Sittard railway station,STD,51.0011,5.85833,0.3130081300813008,http://www.group15_KD_tr_onto/380,Maastricht,380,50.906,5.762,40,152,0,61,254
261,http://www.group15_KD_tr_onto/VDL,Voerendaal railway station,VDL,50.8867,5.92944,0.14102564102564102,http://www.group15_KD_tr_onto/380,Maastricht,380,50.906,5.762,40,152,0,61,254
