,station,station_name,station_code,ts_lat,ts_long,delay,ws,ws_name,ws_code,ws_lat,ws_long,windspeed,mean_temp,percipitation,visibility,wind_direction
0,http://www.group15_KD_tr_onto/AMR,Alkmaar railway station,AMR,52.6378,4.74056,1.0209205020920502,http://www.group15_KD_tr_onto/235,De Kooy,235,52.928,4.781,150,61,67,44,309
1,http://www.group15_KD_tr_onto/ANA,Anna Paulowna railway station,ANA,52.8669,4.81111,3.4651162790697674,http://www.group15_KD_tr_onto/235,De Kooy,235,52.928,4.781,150,61,67,44,309
2,http://www.group15_KD_tr_onto/HDRZ,Den Helder Zuid railway station,HDRZ,52.9331,4.76389,3.5348837209302326,http://www.group15_KD_tr_onto/235,De Kooy,235,52.928,4.781,150,61,67,44,309
3,http://www.group15_KD_tr_onto/HDR,Den Helder railway station,HDR,52.9564,4.76083,6.790322580645161,http://www.group15_KD_tr_onto/235,De Kooy,235,52.928,4.781,150,61,67,44,309
4,http://www.group15_KD_tr_onto/HWD,Heerhugowaard railway station,HWD,52.67,4.82361,1.5153061224489797,http://www.group15_KD_tr_onto/235,De Kooy,235,52.928,4.781,150,61,67,44,309
5,http://www.group15_KD_tr_onto/OBD,Obdam railway station,OBD,52.6781,4.90833,1.3582089552238805,http://www.group15_KD_tr_onto/235,De Kooy,235,52.928,4.781,150,61,67,44,309
6,http://www.group15_KD_tr_onto/SGN,Schagen railway station,SGN,52.7861,4.80528,3.116279069767442,http://www.group15_KD_tr_onto/235,De Kooy,235,52.928,4.781,150,61,67,44,309
7,http://www.group15_KD_tr_onto/AC,Abcoude railway station,AC,52.2744,4.98222,0.7142857142857143,http://www.group15_KD_tr_onto/240,Schiphol,240,52.318,4.79,170,58,70,50,308
8,http://www.group15_KD_tr_onto/AMPO,Almere Poort railway station,AMPO,52.3428,5.15194,0.4931506849315068,http://www.group15_KD_tr_onto/240,Schiphol,240,52.318,4.79,170,58,70,50,308
9,http://www.group15_KD_tr_onto/ASA,Amsterdam Amstel station,ASA,52.3464,4.91778,0.7051597051597052,http://www.group15_KD_tr_onto/240,Schiphol,240,52.318,4.79,170,58,70,50,308
10,http://www.group15_KD_tr_onto/ASB,Amsterdam Bijlmer ArenA station,ASB,52.3131,4.94611,0.8681948424068768,http://www.group15_KD_tr_onto/240,Schiphol,240,52.318,4.79,170,58,70,50,308
11,http://www.group15_KD_tr_onto/ASDL,Amsterdam Lelylaan station,ASDL,52.3572,4.83389,1.1557377049180328,http://www.group15_KD_tr_onto/240,Schiphol,240,52.318,4.79,170,58,70,50,308
12,http://www.group15_KD_tr_onto/ASDM,Amsterdam Muiderpoort railway station,ASDM,52.3608,4.93111,0.8961038961038961,http://www.group15_KD_tr_onto/240,Schiphol,240,52.318,4.79,170,58,70,50,308
13,http://www.group15_KD_tr_onto/ASDZ,Amsterdam Zuid station,ASDZ,52.3389,4.87306,1.187984496124031,http://www.group15_KD_tr_onto/240,Schiphol,240,52.318,4.79,170,58,70,50,308
14,http://www.group15_KD_tr_onto/ASD,Amsterdam Centraal station,ASD,52.3783,4.9,1.525330396475771,http://www.group15_KD_tr_onto/240,Schiphol,240,52.318,4.79,170,58,70,50,308
15,http://www.group15_KD_tr_onto/ASSP,Amsterdam Science Park railway station,ASSP,52.3525,4.94861,1.2077922077922079,http://www.group15_KD_tr_onto/240,Schiphol,240,52.318,4.79,170,58,70,50,308
16,http://www.group15_KD_tr_onto/ASS,Amsterdam Sloterdijk station,ASS,52.3892,4.83806,0.9785056294779939,http://www.group15_KD_tr_onto/240,Schiphol,240,52.318,4.79,170,58,70,50,308
17,http://www.group15_KD_tr_onto/BLL,Bloemendaal railway station,BLL,52.4042,4.6275,1.705128205128205,http://www.group15_KD_tr_onto/240,Schiphol,240,52.318,4.79,170,58,70,50,308
18,http://www.group15_KD_tr_onto/BV,Beverwijk railway station,BV,52.4783,4.65611,1.1372549019607843,http://www.group15_KD_tr_onto/240,Schiphol,240,52.318,4.79,170,58,70,50,308
19,http://www.group15_KD_tr_onto/CAS,Castricum railway station,CAS,52.5456,4.65889,0.925531914893617,http://www.group15_KD_tr_onto/240,Schiphol,240,52.318,4.79,170,58,70,50,308
20,http://www.group15_KD_tr_onto/DMNZ,Diemen Zuid station,DMNZ,52.3303,4.95639,1.0930232558139534,http://www.group15_KD_tr_onto/240,Schiphol,240,52.318,4.79,170,58,70,50,308
21,http://www.group15_KD_tr_onto/DMN,Diemen railway station,DMN,52.3453,4.96694,1.0844155844155845,http://www.group15_KD_tr_onto/240,Schiphol,240,52.318,4.79,170,58,70,50,308
22,http://www.group15_KD_tr_onto/HAD,Heemstede-Aerdenhout railway station,HAD,52.3597,4.60694,1.532258064516129,http://www.group15_KD_tr_onto/240,Schiphol,240,52.318,4.79,170,58,70,50,308
23,http://www.group15_KD_tr_onto/HFD,Hoofddorp railway station,HFD,52.2933,4.7,1.1724137931034482,http://www.group15_KD_tr_onto/240,Schiphol,240,52.318,4.79,170,58,70,50,308
24,http://www.group15_KD_tr_onto/HIL,Hillegom railway station,HIL,52.3028,4.56583,0.18518518518518517,http://www.group15_KD_tr_onto/240,Schiphol,240,52.318,4.79,170,58,70,50,308
25,http://www.group15_KD_tr_onto/HK,Heemskerk railway station,HK,52.4947,4.68611,1.2435897435897436,http://www.group15_KD_tr_onto/240,Schiphol,240,52.318,4.79,170,58,70,50,308
26,http://www.group15_KD_tr_onto/HLMS,Haarlem Spaarnwoude railway station,HLMS,52.3828,4.67111,1.411764705882353,http://www.group15_KD_tr_onto/240,Schiphol,240,52.318,4.79,170,58,70,50,308
27,http://www.group15_KD_tr_onto/HLM,Haarlem railway station,HLM,52.3878,4.63889,1.6497326203208555,http://www.group15_KD_tr_onto/240,Schiphol,240,52.318,4.79,170,58,70,50,308
28,http://www.group15_KD_tr_onto/HLO,Heiloo railway station,HLO,52.6,4.70083,1.0600858369098713,http://www.group15_KD_tr_onto/240,Schiphol,240,52.318,4.79,170,58,70,50,308
29,http://www.group15_KD_tr_onto/HWZB,Halfweg-Zwanenburg railway station,HWZB,52.3847,4.75167,1.4248366013071896,http://www.group15_KD_tr_onto/240,Schiphol,240,52.318,4.79,170,58,70,50,308
30,http://www.group15_KD_tr_onto/NVP,Nieuw-Vennep railway station,NVP,52.2597,4.64556,0.782312925170068,http://www.group15_KD_tr_onto/240,Schiphol,240,52.318,4.79,170,58,70,50,308
31,http://www.group15_KD_tr_onto/OVN,Overveen railway station,OVN,52.3908,4.60778,1.0,http://www.group15_KD_tr_onto/240,Schiphol,240,52.318,4.79,170,58,70,50,308
32,http://www.group15_KD_tr_onto/PMR,Purmerend railway station,PMR,52.5033,4.95417,0.6818181818181818,http://www.group15_KD_tr_onto/240,Schiphol,240,52.318,4.79,170,58,70,50,308
33,http://www.group15_KD_tr_onto/PMW,Purmerend Weidevenne railway station,PMW,52.4967,4.93667,0.7159090909090909,http://www.group15_KD_tr_onto/240,Schiphol,240,52.318,4.79,170,58,70,50,308
34,http://www.group15_KD_tr_onto/RAI,Amsterdam RAI station,RAI,52.3367,4.89056,1.1550387596899225,http://www.group15_KD_tr_onto/240,Schiphol,240,52.318,4.79,170,58,70,50,308
35,http://www.group15_KD_tr_onto/SHL,Schiphol Airport railway station,SHL,52.3089,4.76167,1.5568720379146919,http://www.group15_KD_tr_onto/240,Schiphol,240,52.318,4.79,170,58,70,50,308
36,http://www.group15_KD_tr_onto/SPTN,Santpoort Noord railway station,SPTN,52.4428,4.63917,1.2692307692307692,http://www.group15_KD_tr_onto/240,Schiphol,240,52.318,4.79,170,58,70,50,308
37,http://www.group15_KD_tr_onto/SPTZ,Santpoort Zuid railway station,SPTZ,52.4194,4.63167,1.205128205128205,http://www.group15_KD_tr_onto/240,Schiphol,240,52.318,4.79,170,58,70,50,308
38,http://www.group15_KD_tr_onto/UTG,Uitgeest railway station,UTG,52.5219,4.70278,0.9745222929936306,http://www.group15_KD_tr_onto/240,Schiphol,240,52.318,4.79,170,58,70,50,308
39,http://www.group15_KD_tr_onto/WM,Wormerveer railway station,WM,52.4892,4.79278,0.9548387096774194,http://www.group15_KD_tr_onto/240,Schiphol,240,52.318,4.79,170,58,70,50,308
40,http://www.group15_KD_tr_onto/WP,Weesp railway station,WP,52.3131,5.04361,0.8551236749116607,http://www.group15_KD_tr_onto/240,Schiphol,240,52.318,4.79,170,58,70,50,308
41,http://www.group15_KD_tr_onto/ZD,Zaandam railway station,ZD,52.4389,4.81472,0.6546762589928058,http://www.group15_KD_tr_onto/240,Schiphol,240,52.318,4.79,170,58,70,50,308
42,http://www.group15_KD_tr_onto/ZVT,Zandvoort aan Zee railway station,ZVT,52.3758,4.53139,1.736842105263158,http://www.group15_KD_tr_onto/240,Schiphol,240,52.318,4.79,170,58,70,50,308
43,http://www.group15_KD_tr_onto/AKL,Arkel railway station,AKL,51.8719,4.99278,0.4024390243902439,http://www.group15_KD_tr_onto/260,De Bilt,260,52.1,5.18,90,57,102,48,300
44,http://www.group15_KD_tr_onto/BHV,Bilthoven railway station,BHV,52.13,5.20528,1.1409395973154361,http://www.group15_KD_tr_onto/260,De Bilt,260,52.1,5.18,90,57,102,48,300
45,http://www.group15_KD_tr_onto/BKL,Breukelen railway station,BKL,52.17,4.99056,0.8622448979591837,http://www.group15_KD_tr_onto/260,De Bilt,260,52.1,5.18,90,57,102,48,300
46,http://www.group15_KD_tr_onto/BNK,Bunnik railway station,BNK,52.0631,5.19556,0.425531914893617,http://www.group15_KD_tr_onto/260,De Bilt,260,52.1,5.18,90,57,102,48,300
47,http://www.group15_KD_tr_onto/BSD,Beesd railway station,BSD,51.8992,5.195,0.8536585365853658,http://www.group15_KD_tr_onto/260,De Bilt,260,52.1,5.18,90,57,102,48,300
48,http://www.group15_KD_tr_onto/CL,Culemborg railway station,CL,51.9472,5.22722,1.4569536423841059,http://www.group15_KD_tr_onto/260,De Bilt,260,52.1,5.18,90,57,102,48,300
49,http://www.group15_KD_tr_onto/DB,Driebergen-Zeist railway station,DB,52.065,5.26,1.0337552742616034,http://www.group15_KD_tr_onto/260,De Bilt,260,52.1,5.18,90,57,102,48,300
50,http://www.group15_KD_tr_onto/GDM,Geldermalsen railway station,GDM,51.8839,5.27083,1.5260416666666667,http://www.group15_KD_tr_onto/260,De Bilt,260,52.1,5.18,90,57,102,48,300
51,http://www.group15_KD_tr_onto/HTN,Houten railway station,HTN,52.0344,5.16778,1.2980132450331126,http://www.group15_KD_tr_onto/260,De Bilt,260,52.1,5.18,90,57,102,48,300
52,http://www.group15_KD_tr_onto/LDM,Leerdam railway station,LDM,51.8947,5.09333,0.573170731707317,http://www.group15_KD_tr_onto/260,De Bilt,260,52.1,5.18,90,57,102,48,300
53,http://www.group15_KD_tr_onto/MAS,Maarssen railway station,MAS,52.1358,5.03306,0.6351351351351351,http://www.group15_KD_tr_onto/260,De Bilt,260,52.1,5.18,90,57,102,48,300
54,http://www.group15_KD_tr_onto/UTLR,Utrecht Leidsche Rijn railway station,UTLR,52.0983,5.06917,0.328,http://www.group15_KD_tr_onto/260,De Bilt,260,52.1,5.18,90,57,102,48,300
55,http://www.group15_KD_tr_onto/UTO,Utrecht Overvecht railway station,UTO,52.11,5.12528,0.8447653429602888,http://www.group15_KD_tr_onto/260,De Bilt,260,52.1,5.18,90,57,102,48,300
56,http://www.group15_KD_tr_onto/UTT,Utrecht Terwijde railway station,UTT,52.1008,5.04306,0.24,http://www.group15_KD_tr_onto/260,De Bilt,260,52.1,5.18,90,57,102,48,300
57,http://www.group15_KD_tr_onto/UTVR,Utrecht Vaartsche Rijn railway station,UTVR,52.0786,5.1225,0.6335616438356164,http://www.group15_KD_tr_onto/260,De Bilt,260,52.1,5.18,90,57,102,48,300
58,http://www.group15_KD_tr_onto/UTZL,Utrecht Zuilen railway station,UTZL,52.1031,5.08917,0.5878378378378378,http://www.group15_KD_tr_onto/260,De Bilt,260,52.1,5.18,90,57,102,48,300
59,http://www.group15_KD_tr_onto/UT,Utrecht Centraal railway station,UT,52.0892,5.10972,1.171551724137931,http://www.group15_KD_tr_onto/260,De Bilt,260,52.1,5.18,90,57,102,48,300
60,http://www.group15_KD_tr_onto/VTN,Vleuten railway station,VTN,52.1031,5.01194,0.344,http://www.group15_KD_tr_onto/260,De Bilt,260,52.1,5.18,90,57,102,48,300
61,http://www.group15_KD_tr_onto/WD,Woerden railway station,WD,52.0847,4.89306,0.762589928057554,http://www.group15_KD_tr_onto/260,De Bilt,260,52.1,5.18,90,57,102,48,300
62,http://www.group15_KD_tr_onto/ZBM,Zaltbommel railway station,ZBM,51.8069,5.26472,1.4736842105263157,http://www.group15_KD_tr_onto/260,De Bilt,260,52.1,5.18,90,57,102,48,300
63,http://www.group15_KD_tr_onto/BKF,Bovenkarspel Flora railway station,BKF,52.6958,5.25306,0.058823529411764705,http://www.group15_KD_tr_onto/267,Stavoren,267,52.898,5.384,180,57,80,44,312
64,http://www.group15_KD_tr_onto/BKG,Bovenkarspel-Grootebroek railway station,BKG,52.695,5.23611,0.11764705882352941,http://www.group15_KD_tr_onto/267,Stavoren,267,52.898,5.384,180,57,80,44,312
65,http://www.group15_KD_tr_onto/EKZ,Enkhuizen railway station,EKZ,52.6994,5.28778,0.24390243902439024,http://www.group15_KD_tr_onto/267,Stavoren,267,52.898,5.384,180,57,80,44,312
66,http://www.group15_KD_tr_onto/HKS,Hoogkarspel railway station,HKS,52.6906,5.18389,0.17647058823529413,http://www.group15_KD_tr_onto/267,Stavoren,267,52.898,5.384,180,57,80,44,312
67,http://www.group15_KD_tr_onto/HNP,Hindeloopen railway station,HNP,52.9461,5.42306,0.0,http://www.group15_KD_tr_onto/267,Stavoren,267,52.898,5.384,180,57,80,44,312
68,http://www.group15_KD_tr_onto/HN,Hoorn railway station,HN,52.645,5.05472,0.6764705882352942,http://www.group15_KD_tr_onto/267,Stavoren,267,52.898,5.384,180,57,80,44,312
69,http://www.group15_KD_tr_onto/IJT,IJlst railway station,IJT,53.0147,5.61639,0.043478260869565216,http://www.group15_KD_tr_onto/267,Stavoren,267,52.898,5.384,180,57,80,44,312
70,http://www.group15_KD_tr_onto/KMW,Koudum-Molkwerum railway station,KMW,52.9022,5.41056,0.10869565217391304,http://www.group15_KD_tr_onto/267,Stavoren,267,52.898,5.384,180,57,80,44,312
71,http://www.group15_KD_tr_onto/STV,Stavoren railway station,STV,52.8867,5.35972,0.0,http://www.group15_KD_tr_onto/267,Stavoren,267,52.898,5.384,180,57,80,44,312
72,http://www.group15_KD_tr_onto/WK,Workum railway station,WK,52.9714,5.45583,0.21739130434782608,http://www.group15_KD_tr_onto/267,Stavoren,267,52.898,5.384,180,57,80,44,312
73,http://www.group15_KD_tr_onto/WV,Wolvega railway station,WV,52.8797,6.00472,0.16417910447761194,http://www.group15_KD_tr_onto/267,Stavoren,267,52.898,5.384,180,57,80,44,312
74,http://www.group15_KD_tr_onto/ALMB,Almere Buiten railway station,ALMB,52.3942,5.27778,0.4926829268292683,http://www.group15_KD_tr_onto/269,Lelystad,269,52.458,5.52,120,56,91,32,303
75,http://www.group15_KD_tr_onto/ALMM,Almere Muziekwijk railway station,ALMM,52.3675,5.19028,0.5068493150684932,http://www.group15_KD_tr_onto/269,Lelystad,269,52.458,5.52,120,56,91,32,303
76,http://www.group15_KD_tr_onto/ALMO,Almere Oostvaarders railway station,ALMO,52.4028,5.3,0.6896551724137931,http://www.group15_KD_tr_onto/269,Lelystad,269,52.458,5.52,120,56,91,32,303
77,http://www.group15_KD_tr_onto/ALMP,Almere Parkwijk railway station,ALMP,52.3767,5.24444,0.5816993464052288,http://www.group15_KD_tr_onto/269,Lelystad,269,52.458,5.52,120,56,91,32,303
78,http://www.group15_KD_tr_onto/ALM,Almere Centrum railway station,ALM,52.375,5.21778,0.6246418338108882,http://www.group15_KD_tr_onto/269,Lelystad,269,52.458,5.52,120,56,91,32,303
79,http://www.group15_KD_tr_onto/DL,Dalfsen railway station,DL,52.4981,6.25861,1.1304347826086956,http://www.group15_KD_tr_onto/269,Lelystad,269,52.458,5.52,120,56,91,32,303
80,http://www.group15_KD_tr_onto/DRON,Dronten railway station,DRON,52.5339,5.72306,0.12,http://www.group15_KD_tr_onto/269,Lelystad,269,52.458,5.52,120,56,91,32,303
81,http://www.group15_KD_tr_onto/EML,Ermelo railway station,EML,52.3011,5.61444,1.6712328767123288,http://www.group15_KD_tr_onto/269,Lelystad,269,52.458,5.52,120,56,91,32,303
82,http://www.group15_KD_tr_onto/HDE,'t Harde railway station,HDE,52.4089,5.89306,1.356164383561644,http://www.group15_KD_tr_onto/269,Lelystad,269,52.458,5.52,120,56,91,32,303
83,http://www.group15_KD_tr_onto/HD,Harderwijk railway station,HD,52.3375,5.61972,1.794871794871795,http://www.group15_KD_tr_onto/269,Lelystad,269,52.458,5.52,120,56,91,32,303
84,http://www.group15_KD_tr_onto/KPNZ,Kampen Zuid railway station,KPNZ,52.5342,5.91583,0.09333333333333334,http://www.group15_KD_tr_onto/269,Lelystad,269,52.458,5.52,120,56,91,32,303
85,http://www.group15_KD_tr_onto/KPN,Kampen railway station,KPN,52.5597,5.92111,0.05263157894736842,http://www.group15_KD_tr_onto/269,Lelystad,269,52.458,5.52,120,56,91,32,303
86,http://www.group15_KD_tr_onto/LLS,Lelystad Centrum railway station,LLS,52.5078,5.47333,0.4715909090909091,http://www.group15_KD_tr_onto/269,Lelystad,269,52.458,5.52,120,56,91,32,303
87,http://www.group15_KD_tr_onto/MP,Meppel railway station,MP,52.6914,6.1975,0.6428571428571429,http://www.group15_KD_tr_onto/269,Lelystad,269,52.458,5.52,120,56,91,32,303
88,http://www.group15_KD_tr_onto/NS,Nunspeet railway station,NS,52.3708,5.78472,1.4794520547945205,http://www.group15_KD_tr_onto/269,Lelystad,269,52.458,5.52,120,56,91,32,303
89,http://www.group15_KD_tr_onto/OMN,Ommen railway station,OMN,52.5094,6.41694,2.0,http://www.group15_KD_tr_onto/269,Lelystad,269,52.458,5.52,120,56,91,32,303
90,http://www.group15_KD_tr_onto/PT,Putten railway station,PT,52.2653,5.57611,1.3287671232876712,http://www.group15_KD_tr_onto/269,Lelystad,269,52.458,5.52,120,56,91,32,303
91,http://www.group15_KD_tr_onto/WZ,Wezep railway station,WZ,52.4536,6.00222,1.0136986301369864,http://www.group15_KD_tr_onto/269,Lelystad,269,52.458,5.52,120,56,91,32,303
92,http://www.group15_KD_tr_onto/ZLSH,Zwolle Stadshagen railway station,ZLSH,52.5279,6.05108,0.0,http://www.group15_KD_tr_onto/269,Lelystad,269,52.458,5.52,120,56,91,32,303
93,http://www.group15_KD_tr_onto/ZL,Zwolle railway station,ZL,52.5053,6.09056,0.8583690987124464,http://www.group15_KD_tr_onto/269,Lelystad,269,52.458,5.52,120,56,91,32,303
94,http://www.group15_KD_tr_onto/AKM,Akkrum railway station,AKM,53.0472,5.84306,0.2537313432835821,http://www.group15_KD_tr_onto/270,Leeuwarden,270,53.224,5.752,120,56,57,34,315
95,http://www.group15_KD_tr_onto/DEI,Deinum railway station,DEI,53.1886,5.72778,0.10294117647058823,http://www.group15_KD_tr_onto/270,Leeuwarden,270,53.224,5.752,120,56,57,34,315
96,http://www.group15_KD_tr_onto/DRP,Dronryp railway station,DRP,53.1775,5.63472,0.014705882352941176,http://www.group15_KD_tr_onto/270,Leeuwarden,270,53.224,5.752,120,56,57,34,315
97,http://www.group15_KD_tr_onto/FN,Franeker railway station,FN,53.1822,5.54944,0.029411764705882353,http://www.group15_KD_tr_onto/270,Leeuwarden,270,53.224,5.752,120,56,57,34,315
98,http://www.group15_KD_tr_onto/GW,Grou-Jirnsum railway station,GW,53.0897,5.82222,0.2835820895522388,http://www.group15_KD_tr_onto/270,Leeuwarden,270,53.224,5.752,120,56,57,34,315
99,http://www.group15_KD_tr_onto/HDG,Hurdegaryp railway station,HDG,53.2186,5.93472,0.9411764705882353,http://www.group15_KD_tr_onto/270,Leeuwarden,270,53.224,5.752,120,56,57,34,315
100,http://www.group15_KD_tr_onto/HLG,Harlingen railway station,HLG,53.1703,5.42528,0.0,http://www.group15_KD_tr_onto/270,Leeuwarden,270,53.224,5.752,120,56,57,34,315
101,http://www.group15_KD_tr_onto/HR,Heerenveen railway station,HR,52.9606,5.91528,0.5255474452554745,http://www.group15_KD_tr_onto/270,Leeuwarden,270,53.224,5.752,120,56,57,34,315
102,http://www.group15_KD_tr_onto/LW,Leeuwarden railway station,LW,53.1958,5.79111,0.45410628019323673,http://www.group15_KD_tr_onto/270,Leeuwarden,270,53.224,5.752,120,56,57,34,315
103,http://www.group15_KD_tr_onto/MG,Mantgum railway station,MG,53.1297,5.71333,0.5147058823529411,http://www.group15_KD_tr_onto/270,Leeuwarden,270,53.224,5.752,120,56,57,34,315
104,http://www.group15_KD_tr_onto/SK,Sneek railway station,SK,53.0322,5.65167,0.2153846153846154,http://www.group15_KD_tr_onto/270,Leeuwarden,270,53.224,5.752,120,56,57,34,315
105,http://www.group15_KD_tr_onto/AHPR,Arnhem Presikhaaf railway station,AHPR,51.9875,5.94306,0.5432098765432098,http://www.group15_KD_tr_onto/275,Deelen,275,52.056,5.873,110,47,178,20,297
106,http://www.group15_KD_tr_onto/AHZ,Arnhem Zuid railway station,AHZ,51.9542,5.85167,0.5793103448275863,http://www.group15_KD_tr_onto/275,Deelen,275,52.056,5.873,110,47,178,20,297
107,http://www.group15_KD_tr_onto/AML,Almelo railway station,AML,52.3572,6.655,0.7034220532319392,http://www.group15_KD_tr_onto/275,Deelen,275,52.056,5.873,110,47,178,20,297
108,http://www.group15_KD_tr_onto/APD,Apeldoorn railway station,APD,52.2092,5.96944,0.8833333333333333,http://www.group15_KD_tr_onto/275,Deelen,275,52.056,5.873,110,47,178,20,297
109,http://www.group15_KD_tr_onto/ATN,Aalten railway station,ATN,51.9211,6.57806,0.04054054054054054,http://www.group15_KD_tr_onto/275,Deelen,275,52.056,5.873,110,47,178,20,297
110,http://www.group15_KD_tr_onto/BMN,Brummen railway station,BMN,52.0908,6.14694,0.2839506172839506,http://www.group15_KD_tr_onto/275,Deelen,275,52.056,5.873,110,47,178,20,297
111,http://www.group15_KD_tr_onto/BN,Borne railway station,BN,52.2983,6.74833,0.08602150537634409,http://www.group15_KD_tr_onto/275,Deelen,275,52.056,5.873,110,47,178,20,297
112,http://www.group15_KD_tr_onto/CK,Cuijk railway station,CK,51.7264,5.87417,0.9358974358974359,http://www.group15_KD_tr_onto/275,Deelen,275,52.056,5.873,110,47,178,20,297
113,http://www.group15_KD_tr_onto/DA,Daarlerveen railway station,DA,52.4411,6.57583,0.4074074074074074,http://www.group15_KD_tr_onto/275,Deelen,275,52.056,5.873,110,47,178,20,297
114,http://www.group15_KD_tr_onto/DDN,Delden railway station,DDN,52.26,6.71444,0.2638888888888889,http://www.group15_KD_tr_onto/275,Deelen,275,52.056,5.873,110,47,178,20,297
115,http://www.group15_KD_tr_onto/DID,Didam railway station,DID,51.9333,6.13222,0.09302325581395349,http://www.group15_KD_tr_onto/275,Deelen,275,52.056,5.873,110,47,178,20,297
116,http://www.group15_KD_tr_onto/DR,Dieren railway station,DR,52.045,6.10333,0.5317919075144508,http://www.group15_KD_tr_onto/275,Deelen,275,52.056,5.873,110,47,178,20,297
117,http://www.group15_KD_tr_onto/DTC,Doetinchem railway station,DTC,51.9583,6.29528,0.19,http://www.group15_KD_tr_onto/275,Deelen,275,52.056,5.873,110,47,178,20,297
118,http://www.group15_KD_tr_onto/DVN,Duiven railway station,DVN,51.9433,6.01417,0.18604651162790697,http://www.group15_KD_tr_onto/275,Deelen,275,52.056,5.873,110,47,178,20,297
119,http://www.group15_KD_tr_onto/DV,Deventer railway station,DV,52.2572,6.16083,0.8,http://www.group15_KD_tr_onto/275,Deelen,275,52.056,5.873,110,47,178,20,297
120,http://www.group15_KD_tr_onto/ED,Ede-Wageningen railway station,ED,52.0278,5.67194,0.7987220447284346,http://www.group15_KD_tr_onto/275,Deelen,275,52.056,5.873,110,47,178,20,297
121,http://www.group15_KD_tr_onto/EST,Elst railway station,EST,51.9167,5.855,0.44660194174757284,http://www.group15_KD_tr_onto/275,Deelen,275,52.056,5.873,110,47,178,20,297
122,http://www.group15_KD_tr_onto/ES,Enschede railway station,ES,52.2222,6.89,0.37593984962406013,http://www.group15_KD_tr_onto/275,Deelen,275,52.056,5.873,110,47,178,20,297
123,http://www.group15_KD_tr_onto/GBR,Glanerbrug railway station,GBR,52.2186,6.97389,0.0,http://www.group15_KD_tr_onto/275,Deelen,275,52.056,5.873,110,47,178,20,297
124,http://www.group15_KD_tr_onto/GDR,Gaanderen railway station,GDR,51.9308,6.34778,0.0945945945945946,http://www.group15_KD_tr_onto/275,Deelen,275,52.056,5.873,110,47,178,20,297
125,http://www.group15_KD_tr_onto/GO,Goor railway station,GO,52.2303,6.58444,0.08450704225352113,http://www.group15_KD_tr_onto/275,Deelen,275,52.056,5.873,110,47,178,20,297
126,http://www.group15_KD_tr_onto/HGL,Hengelo railway station,HGL,52.2619,6.79417,0.6331168831168831,http://www.group15_KD_tr_onto/275,Deelen,275,52.056,5.873,110,47,178,20,297
127,http://www.group15_KD_tr_onto/HMN,Hemmen-Dodewaard railway station,HMN,51.9222,5.67333,1.421875,http://www.group15_KD_tr_onto/275,Deelen,275,52.056,5.873,110,47,178,20,297
128,http://www.group15_KD_tr_onto/HNO,Heino railway station,HNO,52.4269,6.22194,0.0,http://www.group15_KD_tr_onto/275,Deelen,275,52.056,5.873,110,47,178,20,297
129,http://www.group15_KD_tr_onto/HON,Holten railway station,HON,52.2839,6.42056,0.2638888888888889,http://www.group15_KD_tr_onto/275,Deelen,275,52.056,5.873,110,47,178,20,297
130,http://www.group15_KD_tr_onto/KBK,Klarenbeek railway station,KBK,52.1778,6.08417,0.078125,http://www.group15_KD_tr_onto/275,Deelen,275,52.056,5.873,110,47,178,20,297
131,http://www.group15_KD_tr_onto/KLP,Veenendaal-De Klomp railway station,KLP,52.0458,5.57389,0.9358974358974359,http://www.group15_KD_tr_onto/275,Deelen,275,52.056,5.873,110,47,178,20,297
132,http://www.group15_KD_tr_onto/KTR,Kesteren railway station,KTR,51.9314,5.58361,0.703125,http://www.group15_KD_tr_onto/275,Deelen,275,52.056,5.873,110,47,178,20,297
133,http://www.group15_KD_tr_onto/LC,Lochem railway station,LC,52.1667,6.42583,0.02857142857142857,http://www.group15_KD_tr_onto/275,Deelen,275,52.056,5.873,110,47,178,20,297
134,http://www.group15_KD_tr_onto/LTV,Lichtenvoorde-Groenlo railway station,LTV,52.0117,6.59639,0.21739130434782608,http://www.group15_KD_tr_onto/275,Deelen,275,52.056,5.873,110,47,178,20,297
135,http://www.group15_KD_tr_onto/MMLH,Mook-Molenhoek railway station,MMLH,51.7647,5.8775,1.3,http://www.group15_KD_tr_onto/275,Deelen,275,52.056,5.873,110,47,178,20,297
136,http://www.group15_KD_tr_onto/NM,Nijmegen railway station,NM,51.8433,5.8525,1.230971128608924,http://www.group15_KD_tr_onto/275,Deelen,275,52.056,5.873,110,47,178,20,297
137,http://www.group15_KD_tr_onto/NVD,Nijverdal railway station,NVD,52.3656,6.47028,0.28431372549019607,http://www.group15_KD_tr_onto/275,Deelen,275,52.056,5.873,110,47,178,20,297
138,http://www.group15_KD_tr_onto/ODZ,Oldenzaal railway station,ODZ,52.3061,6.93361,0.044444444444444446,http://www.group15_KD_tr_onto/275,Deelen,275,52.056,5.873,110,47,178,20,297
139,http://www.group15_KD_tr_onto/OP,Opheusden railway station,OP,51.9261,5.63694,1.390625,http://www.group15_KD_tr_onto/275,Deelen,275,52.056,5.873,110,47,178,20,297
140,http://www.group15_KD_tr_onto/OST,Olst railway station,OST,52.335,6.11306,0.4574468085106383,http://www.group15_KD_tr_onto/275,Deelen,275,52.056,5.873,110,47,178,20,297
141,http://www.group15_KD_tr_onto/OTB,Oosterbeek railway station,OTB,51.9947,5.84,1.2272727272727273,http://www.group15_KD_tr_onto/275,Deelen,275,52.056,5.873,110,47,178,20,297
142,http://www.group15_KD_tr_onto/RAT,Raalte railway station,RAT,52.3908,6.27861,0.058823529411764705,http://www.group15_KD_tr_onto/275,Deelen,275,52.056,5.873,110,47,178,20,297
143,http://www.group15_KD_tr_onto/RHN,Rhenen railway station,RHN,51.9578,5.57833,1.1,http://www.group15_KD_tr_onto/275,Deelen,275,52.056,5.873,110,47,178,20,297
144,http://www.group15_KD_tr_onto/RH,Rheden railway station,RH,52.0097,6.02972,0.3333333333333333,http://www.group15_KD_tr_onto/275,Deelen,275,52.056,5.873,110,47,178,20,297
145,http://www.group15_KD_tr_onto/RL,Ruurlo railway station,RL,52.0806,6.45,0.2318840579710145,http://www.group15_KD_tr_onto/275,Deelen,275,52.056,5.873,110,47,178,20,297
146,http://www.group15_KD_tr_onto/RSN,Rijssen railway station,RSN,52.3117,6.51917,0.1111111111111111,http://www.group15_KD_tr_onto/275,Deelen,275,52.056,5.873,110,47,178,20,297
147,http://www.group15_KD_tr_onto/RVS,Ravenstein railway station,RVS,51.7947,5.63722,0.972972972972973,http://www.group15_KD_tr_onto/275,Deelen,275,52.056,5.873,110,47,178,20,297
148,http://www.group15_KD_tr_onto/TWL,Twello railway station,TWL,52.2381,6.1,0.18181818181818182,http://www.group15_KD_tr_onto/275,Deelen,275,52.056,5.873,110,47,178,20,297
149,http://www.group15_KD_tr_onto/VEM,Voorst-Empe railway station,VEM,52.1578,6.14278,0.171875,http://www.group15_KD_tr_onto/275,Deelen,275,52.056,5.873,110,47,178,20,297
150,http://www.group15_KD_tr_onto/VHP,Vroomshoop railway station,VHP,52.4411,6.57583,0.3148148148148148,http://www.group15_KD_tr_onto/275,Deelen,275,52.056,5.873,110,47,178,20,297
151,http://www.group15_KD_tr_onto/VP,Arnhem Velperpoort railway station,VP,51.985,5.92,0.2962962962962963,http://www.group15_KD_tr_onto/275,Deelen,275,52.056,5.873,110,47,178,20,297
152,http://www.group15_KD_tr_onto/VSV,Varsseveld railway station,VSV,51.9369,6.45806,0.02702702702702703,http://www.group15_KD_tr_onto/275,Deelen,275,52.056,5.873,110,47,178,20,297
153,http://www.group15_KD_tr_onto/VZ,Vriezenveen railway station,VZ,52.4019,6.60028,0.2962962962962963,http://www.group15_KD_tr_onto/275,Deelen,275,52.056,5.873,110,47,178,20,297
154,http://www.group15_KD_tr_onto/WC,Wijchen railway station,WC,51.8111,5.72944,0.8691588785046729,http://www.group15_KD_tr_onto/275,Deelen,275,52.056,5.873,110,47,178,20,297
155,http://www.group15_KD_tr_onto/WDN,Wierden railway station,WDN,52.3614,6.59111,0.08783783783783784,http://www.group15_KD_tr_onto/275,Deelen,275,52.056,5.873,110,47,178,20,297
156,http://www.group15_KD_tr_onto/WF,Wolfheze railway station,WF,52.0053,5.79361,1.1363636363636365,http://www.group15_KD_tr_onto/275,Deelen,275,52.056,5.873,110,47,178,20,297
157,http://www.group15_KD_tr_onto/WH,Wijhe railway station,WH,52.3936,6.14083,0.8829787234042553,http://www.group15_KD_tr_onto/275,Deelen,275,52.056,5.873,110,47,178,20,297
158,http://www.group15_KD_tr_onto/WL,Wehl railway station,WL,51.9567,6.2125,0.3333333333333333,http://www.group15_KD_tr_onto/275,Deelen,275,52.056,5.873,110,47,178,20,297
159,http://www.group15_KD_tr_onto/WWW,Winterswijk West railway station,WWW,51.9744,6.70361,0.08695652173913043,http://www.group15_KD_tr_onto/275,Deelen,275,52.056,5.873,110,47,178,20,297
160,http://www.group15_KD_tr_onto/WW,Winterswijk railway station,WW,51.9675,6.71556,0.1111111111111111,http://www.group15_KD_tr_onto/275,Deelen,275,52.056,5.873,110,47,178,20,297
161,http://www.group15_KD_tr_onto/ZA,Zetten-Andelst railway station,ZA,51.9194,5.72306,1.453125,http://www.group15_KD_tr_onto/275,Deelen,275,52.056,5.873,110,47,178,20,297
162,http://www.group15_KD_tr_onto/ZP,Zutphen railway station,ZP,52.1444,6.19389,0.6150627615062761,http://www.group15_KD_tr_onto/275,Deelen,275,52.056,5.873,110,47,178,20,297
163,http://www.group15_KD_tr_onto/ZV,Zevenaar railway station,ZV,51.9231,6.07278,0.6379310344827587,http://www.group15_KD_tr_onto/275,Deelen,275,52.056,5.873,110,47,178,20,297
164,http://www.group15_KD_tr_onto/ASN,Assen railway station,ASN,52.9917,6.57056,0.7552447552447552,http://www.group15_KD_tr_onto/280,Eelde,280,53.125,6.585,70,50,55,50,296
165,http://www.group15_KD_tr_onto/BF,Baflo railway station,BF,53.3608,6.51833,0.5657894736842105,http://www.group15_KD_tr_onto/280,Eelde,280,53.125,6.585,70,50,55,50,296
166,http://www.group15_KD_tr_onto/BL,Beilen railway station,BL,52.8547,6.52083,1.0666666666666667,http://www.group15_KD_tr_onto/280,Eelde,280,53.125,6.585,70,50,55,50,296
167,http://www.group15_KD_tr_onto/DLN,Dalen railway station,DLN,52.6944,6.75806,0.5531914893617021,http://www.group15_KD_tr_onto/280,Eelde,280,53.125,6.585,70,50,55,50,296
168,http://www.group15_KD_tr_onto/EMNZ,Emmen Zuid railway station,EMNZ,52.7489,6.87472,0.6219512195121951,http://www.group15_KD_tr_onto/280,Eelde,280,53.125,6.585,70,50,55,50,296
169,http://www.group15_KD_tr_onto/EMN,Emmen railway station,EMN,52.7903,6.89917,0.8292682926829268,http://www.group15_KD_tr_onto/280,Eelde,280,53.125,6.585,70,50,55,50,296
170,http://www.group15_KD_tr_onto/GBG,Gramsbergen railway station,GBG,52.6094,6.67583,1.7446808510638299,http://www.group15_KD_tr_onto/280,Eelde,280,53.125,6.585,70,50,55,50,296
171,http://www.group15_KD_tr_onto/GK,Grijpskerk railway station,GK,53.2556,6.31056,0.38235294117647056,http://www.group15_KD_tr_onto/280,Eelde,280,53.125,6.585,70,50,55,50,296
172,http://www.group15_KD_tr_onto/GN,Groningen railway station,GN,53.2106,6.56472,0.4340836012861736,http://www.group15_KD_tr_onto/280,Eelde,280,53.125,6.585,70,50,55,50,296
173,http://www.group15_KD_tr_onto/HDB,Hardenberg railway station,HDB,52.5722,6.62778,1.1271186440677967,http://www.group15_KD_tr_onto/280,Eelde,280,53.125,6.585,70,50,55,50,296
174,http://www.group15_KD_tr_onto/HGV,Hoogeveen railway station,HGV,52.7333,6.4725,0.6,http://www.group15_KD_tr_onto/280,Eelde,280,53.125,6.585,70,50,55,50,296
175,http://www.group15_KD_tr_onto/HRN,Haren (NL) railway station,HRN,53.175,6.61778,0.7922077922077922,http://www.group15_KD_tr_onto/280,Eelde,280,53.125,6.585,70,50,55,50,296
176,http://www.group15_KD_tr_onto/KW,Kropswolde railway station,KW,53.1617,6.72139,0.5,http://www.group15_KD_tr_onto/280,Eelde,280,53.125,6.585,70,50,55,50,296
177,http://www.group15_KD_tr_onto/NA,Nieuw Amsterdam railway station,NA,52.7186,6.84861,0.8947368421052632,http://www.group15_KD_tr_onto/280,Eelde,280,53.125,6.585,70,50,55,50,296
178,http://www.group15_KD_tr_onto/NSCH,Bad Nieuweschans railway station,NSCH,53.1842,7.19944,0.4358974358974359,http://www.group15_KD_tr_onto/280,Eelde,280,53.125,6.585,70,50,55,50,296
179,http://www.group15_KD_tr_onto/SWK,Steenwijk railway station,SWK,52.7908,6.11611,0.5036496350364964,http://www.group15_KD_tr_onto/280,Eelde,280,53.125,6.585,70,50,55,50,296
180,http://www.group15_KD_tr_onto/VDM,Veendam railway station,VDM,53.1036,6.88472,0.02857142857142857,http://www.group15_KD_tr_onto/280,Eelde,280,53.125,6.585,70,50,55,50,296
181,http://www.group15_KD_tr_onto/VD,Coevorden railway station,VD,52.6631,6.73556,0.5942028985507246,http://www.group15_KD_tr_onto/280,Eelde,280,53.125,6.585,70,50,55,50,296
182,http://www.group15_KD_tr_onto/BGN,Bergen op Zoom railway station,BGN,51.4947,4.29611,1.875,http://www.group15_KD_tr_onto/340,Woensdrecht,340,51.449,4.342,100,60,26,50,297
183,http://www.group15_KD_tr_onto/KBD,Krabbendijke railway station,KBD,51.4333,4.11694,1.7419354838709677,http://www.group15_KD_tr_onto/340,Woensdrecht,340,51.449,4.342,100,60,26,50,297
184,http://www.group15_KD_tr_onto/KRG,Kruiningen-Yerseke railway station,KRG,51.4653,4.03694,1.5053763440860215,http://www.group15_KD_tr_onto/340,Woensdrecht,340,51.449,4.342,100,60,26,50,297
185,http://www.group15_KD_tr_onto/ODB,Oudenbosch railway station,ODB,51.5881,4.53361,1.144927536231884,http://www.group15_KD_tr_onto/340,Woensdrecht,340,51.449,4.342,100,60,26,50,297
186,http://www.group15_KD_tr_onto/RB,Rilland-Bath railway station,RB,51.4222,4.16111,1.6989247311827957,http://www.group15_KD_tr_onto/340,Woensdrecht,340,51.449,4.342,100,60,26,50,297
187,http://www.group15_KD_tr_onto/RSD,Roosendaal railway station,RSD,51.5403,4.45889,2.4537444933920707,http://www.group15_KD_tr_onto/340,Woensdrecht,340,51.449,4.342,100,60,26,50,297
188,http://www.group15_KD_tr_onto/BSKS,Boskoop Snijdelwijk railway station,BSKS,52.0676,4.6462,0.038461538461538464,http://www.group15_KD_tr_onto/344,Rotterdam,344,51.962,4.447,140,63,53,56,304
189,http://www.group15_KD_tr_onto/CPS,Capelle Schollevaar railway station,CPS,51.9533,4.58417,1.0,http://www.group15_KD_tr_onto/344,Rotterdam,344,51.962,4.447,140,63,53,56,304
190,http://www.group15_KD_tr_onto/DT,Rotterdam Delftsche Poort railway station,DT,51.9253,4.47361,1.742152466367713,http://www.group15_KD_tr_onto/344,Rotterdam,344,51.962,4.447,140,63,53,56,304
191,http://www.group15_KD_tr_onto/EC,Dordrecht railway station,EC,51.8075,4.66778,0.47297297297297297,http://www.group15_KD_tr_onto/344,Rotterdam,344,51.962,4.447,140,63,53,56,304
192,http://www.group15_KD_tr_onto/GD,Gouda railway station,GD,52.0175,4.70556,0.9065934065934066,http://www.group15_KD_tr_onto/344,Rotterdam,344,51.962,4.447,140,63,53,56,304
193,http://www.group15_KD_tr_onto/GVMW,Den Haag Moerwijk railway station,GVMW,52.0533,4.30861,1.3475177304964538,http://www.group15_KD_tr_onto/344,Rotterdam,344,51.962,4.447,140,63,53,56,304
194,http://www.group15_KD_tr_onto/NWK,Nieuwerkerk aan den IJssel railway station,NWK,51.9653,4.61694,1.0333333333333334,http://www.group15_KD_tr_onto/344,Rotterdam,344,51.962,4.447,140,63,53,56,304
195,http://www.group15_KD_tr_onto/RLB,Rotterdam Lombardijen railway station,RLB,51.8797,4.53111,0.6190476190476191,http://www.group15_KD_tr_onto/344,Rotterdam,344,51.962,4.447,140,63,53,56,304
196,http://www.group15_KD_tr_onto/RSW,Rijswijk railway station,RSW,52.0394,4.31972,1.425531914893617,http://www.group15_KD_tr_onto/344,Rotterdam,344,51.962,4.447,140,63,53,56,304
197,http://www.group15_KD_tr_onto/RTA,Rotterdam Alexander station,RTA,51.9519,4.55278,1.330396475770925,http://www.group15_KD_tr_onto/344,Rotterdam,344,51.962,4.447,140,63,53,56,304
198,http://www.group15_KD_tr_onto/RTB,Rotterdam Blaak station,RTB,51.92,4.48917,1.0754716981132075,http://www.group15_KD_tr_onto/344,Rotterdam,344,51.962,4.447,140,63,53,56,304
199,http://www.group15_KD_tr_onto/RTD,Rotterdam Centraal station,RTD,51.9244,4.46944,2.0826210826210825,http://www.group15_KD_tr_onto/344,Rotterdam,344,51.962,4.447,140,63,53,56,304
200,http://www.group15_KD_tr_onto/RTN,Rotterdam Noord railway station,RTN,51.9422,4.48139,1.3888888888888888,http://www.group15_KD_tr_onto/344,Rotterdam,344,51.962,4.447,140,63,53,56,304
201,http://www.group15_KD_tr_onto/RTST,Rotterdam Stadion railway station,RTST,51.8939,4.52,0.0,http://www.group15_KD_tr_onto/344,Rotterdam,344,51.962,4.447,140,63,53,56,304
202,http://www.group15_KD_tr_onto/RTZ,Rotterdam Zuid railway station,RTZ,51.9094,4.50944,0.6031746031746031,http://www.group15_KD_tr_onto/344,Rotterdam,344,51.962,4.447,140,63,53,56,304
203,http://www.group15_KD_tr_onto/SDM,Schiedam Centrum station,SDM,51.9219,4.41,1.1643835616438356,http://www.group15_KD_tr_onto/344,Rotterdam,344,51.962,4.447,140,63,53,56,304
204,http://www.group15_KD_tr_onto/SDT,Sliedrecht Baanhoek railway station,SDT,51.8297,4.74333,0.8201438848920863,http://www.group15_KD_tr_onto/344,Rotterdam,344,51.962,4.447,140,63,53,56,304
205,http://www.group15_KD_tr_onto/YPB,Den Haag Ypenburg railway station,YPB,52.0592,4.38972,0.6456692913385826,http://www.group15_KD_tr_onto/344,Rotterdam,344,51.962,4.447,140,63,53,56,304
206,http://www.group15_KD_tr_onto/ZTM,Lansingerland-Zoetermeer railway station,ZTM,52.0394,4.52556,0.7244094488188977,http://www.group15_KD_tr_onto/344,Rotterdam,344,51.962,4.447,140,63,53,56,304
207,http://www.group15_KD_tr_onto/ZWD,Zwijndrecht railway station,ZWD,51.8147,4.64222,0.5767195767195767,http://www.group15_KD_tr_onto/344,Rotterdam,344,51.962,4.447,140,63,53,56,304
208,http://www.group15_KD_tr_onto/BD,Breda railway station,BD,51.595,4.78,2.3699059561128526,http://www.group15_KD_tr_onto/350,Gilze-Rijen,350,51.566,4.936,130,55,61,56,298
209,http://www.group15_KD_tr_onto/BHDV,Boven Hardinxveld railway station,BHDV,51.8319,4.87472,0.38848920863309355,http://www.group15_KD_tr_onto/350,Gilze-Rijen,350,51.566,4.936,130,55,61,56,298
210,http://www.group15_KD_tr_onto/ETN,Etten-Leur railway station,ETN,51.5753,4.63694,0.8125,http://www.group15_KD_tr_onto/350,Gilze-Rijen,350,51.566,4.936,130,55,61,56,298
211,http://www.group15_KD_tr_onto/GND,Hardinxveld-Giessendam railway station,GND,51.8303,4.83528,0.8057553956834532,http://www.group15_KD_tr_onto/350,Gilze-Rijen,350,51.566,4.936,130,55,61,56,298
212,http://www.group15_KD_tr_onto/GR,Gorinchem railway station,GR,51.8336,4.9675,0.6272727272727273,http://www.group15_KD_tr_onto/350,Gilze-Rijen,350,51.566,4.936,130,55,61,56,298
213,http://www.group15_KD_tr_onto/GZ,Gilze-Rijen railway station,GZ,51.5839,4.925,1.2179487179487178,http://www.group15_KD_tr_onto/350,Gilze-Rijen,350,51.566,4.936,130,55,61,56,298
214,http://www.group15_KD_tr_onto/OT,Oisterwijk railway station,OT,51.5822,5.19444,0.7391304347826086,http://www.group15_KD_tr_onto/350,Gilze-Rijen,350,51.566,4.936,130,55,61,56,298
215,http://www.group15_KD_tr_onto/TBR,Tilburg Reeshof railway station,TBR,51.5739,4.99278,1.3333333333333333,http://www.group15_KD_tr_onto/350,Gilze-Rijen,350,51.566,4.936,130,55,61,56,298
216,http://www.group15_KD_tr_onto/TBU,Tilburg Universiteit railway station,TBU,51.5653,5.05139,1.2232142857142858,http://www.group15_KD_tr_onto/350,Gilze-Rijen,350,51.566,4.936,130,55,61,56,298
217,http://www.group15_KD_tr_onto/TB,Tilburg railway station,TB,51.5606,5.08278,1.632398753894081,http://www.group15_KD_tr_onto/350,Gilze-Rijen,350,51.566,4.936,130,55,61,56,298
218,http://www.group15_KD_tr_onto/ZLW,Lage Zwaluwe railway station,ZLW,51.6906,4.66333,1.054054054054054,http://www.group15_KD_tr_onto/350,Gilze-Rijen,350,51.566,4.936,130,55,61,56,298
219,http://www.group15_KD_tr_onto/ZVB,Zevenbergen railway station,ZVB,51.6414,4.60972,1.565217391304348,http://www.group15_KD_tr_onto/350,Gilze-Rijen,350,51.566,4.936,130,55,61,56,298
220,http://www.group15_KD_tr_onto/BET,Best railway station,BET,51.5097,5.38889,0.8367346938775511,http://www.group15_KD_tr_onto/370,Eindhoven,370,51.451,5.377,100,52,101,48,286
221,http://www.group15_KD_tr_onto/BMR,Boxmeer railway station,BMR,51.6444,5.93944,0.7894736842105263,http://www.group15_KD_tr_onto/370,Eindhoven,370,51.451,5.377,100,52,101,48,286
222,http://www.group15_KD_tr_onto/BR,Blerick railway station,BR,51.3725,6.155,1.2266666666666666,http://www.group15_KD_tr_onto/370,Eindhoven,370,51.451,5.377,100,52,101,48,286
223,http://www.group15_KD_tr_onto/BTL,Boxtel railway station,BTL,51.5844,5.31889,0.7814569536423841,http://www.group15_KD_tr_onto/370,Eindhoven,370,51.451,5.377,100,52,101,48,286
224,http://www.group15_KD_tr_onto/DN,Deurne railway station,DN,51.4558,5.78833,1.691588785046729,http://www.group15_KD_tr_onto/370,Eindhoven,370,51.451,5.377,100,52,101,48,286
225,http://www.group15_KD_tr_onto/EHS,Eindhoven Stadion railway station,EHS,51.443,5.46731,0.8367346938775511,http://www.group15_KD_tr_onto/370,Eindhoven,370,51.451,5.377,100,52,101,48,286
226,http://www.group15_KD_tr_onto/EHV,Eindhoven Centraal railway station,EHV,51.4428,5.48028,1.7194805194805194,http://www.group15_KD_tr_onto/370,Eindhoven,370,51.451,5.377,100,52,101,48,286
227,http://www.group15_KD_tr_onto/GP,Geldrop railway station,GP,51.42,5.55111,0.7910447761194029,http://www.group15_KD_tr_onto/370,Eindhoven,370,51.451,5.377,100,52,101,48,286
228,http://www.group15_KD_tr_onto/HMH,Helmond 't Hout railway station,HMH,51.4678,5.63083,0.6716417910447762,http://www.group15_KD_tr_onto/370,Eindhoven,370,51.451,5.377,100,52,101,48,286
229,http://www.group15_KD_tr_onto/HM,Helmond railway station,HM,51.4756,5.66167,1.1631205673758864,http://www.group15_KD_tr_onto/370,Eindhoven,370,51.451,5.377,100,52,101,48,286
230,http://www.group15_KD_tr_onto/HRT,Horst-Sevenum railway station,HRT,51.4267,6.04194,1.3243243243243243,http://www.group15_KD_tr_onto/370,Eindhoven,370,51.451,5.377,100,52,101,48,286
231,http://www.group15_KD_tr_onto/HT,'s-Hertogenbosch railway station,HT,51.69,5.29333,1.1946902654867257,http://www.group15_KD_tr_onto/370,Eindhoven,370,51.451,5.377,100,52,101,48,286
232,http://www.group15_KD_tr_onto/HZ,Heeze railway station,HZ,51.385,5.56944,1.6097560975609757,http://www.group15_KD_tr_onto/370,Eindhoven,370,51.451,5.377,100,52,101,48,286
233,http://www.group15_KD_tr_onto/MZ,Maarheeze railway station,MZ,51.3039,5.63028,0.5522388059701493,http://www.group15_KD_tr_onto/370,Eindhoven,370,51.451,5.377,100,52,101,48,286
234,http://www.group15_KD_tr_onto/OW,Oss West railway station,OW,51.7581,5.50611,1.0,http://www.group15_KD_tr_onto/370,Eindhoven,370,51.451,5.377,100,52,101,48,286
235,http://www.group15_KD_tr_onto/O,Oss railway station,O,51.7653,5.53167,1.4057142857142857,http://www.group15_KD_tr_onto/370,Eindhoven,370,51.451,5.377,100,52,101,48,286
236,http://www.group15_KD_tr_onto/RS,Rosmalen railway station,RS,51.715,5.36889,1.1219512195121952,http://www.group15_KD_tr_onto/370,Eindhoven,370,51.451,5.377,100,52,101,48,286
237,http://www.group15_KD_tr_onto/TG,Tegelen railway station,TG,51.3411,6.14333,1.6578947368421053,http://www.group15_KD_tr_onto/370,Eindhoven,370,51.451,5.377,100,52,101,48,286
238,http://www.group15_KD_tr_onto/VG,Vught railway station,VG,51.6547,5.29194,0.6923076923076923,http://www.group15_KD_tr_onto/370,Eindhoven,370,51.451,5.377,100,52,101,48,286
239,http://www.group15_KD_tr_onto/VLB,Vierlingsbeek railway station,VLB,51.5922,5.99667,1.394736842105263,http://www.group15_KD_tr_onto/370,Eindhoven,370,51.451,5.377,100,52,101,48,286
240,http://www.group15_KD_tr_onto/VL,Venlo railway station,VL,51.3647,6.17139,1.3333333333333333,http://www.group15_KD_tr_onto/370,Eindhoven,370,51.451,5.377,100,52,101,48,286
241,http://www.group15_KD_tr_onto/VRY,Venray railway station,VRY,51.5264,6.01417,1.4078947368421053,http://www.group15_KD_tr_onto/370,Eindhoven,370,51.451,5.377,100,52,101,48,286
242,http://www.group15_KD_tr_onto/WT,Weert railway station,WT,51.2486,5.7025,1.0559006211180124,http://www.group15_KD_tr_onto/370,Eindhoven,370,51.451,5.377,100,52,101,48,286
243,http://www.group15_KD_tr_onto/CVM,Chevremont railway station,CVM,50.8758,6.05944,0.6025641025641025,http://www.group15_KD_tr_onto/380,Maastricht,380,50.906,5.762,100,43,90,37,279
244,http://www.group15_KD_tr_onto/EDN,Eijsden railway station,EDN,50.772,5.71004,1.4166666666666667,http://www.group15_KD_tr_onto/380,Maastricht,380,50.906,5.762,100,43,90,37,279
245,http://www.group15_KD_tr_onto/EGH,Eygelshoven railway station,EGH,50.8903,6.04556,0.44871794871794873,http://www.group15_KD_tr_onto/380,Maastricht,380,50.906,5.762,100,43,90,37,279
246,http://www.group15_KD_tr_onto/GLN,Geleen Oost railway station,GLN,50.9672,5.84306,0.6923076923076923,http://www.group15_KD_tr_onto/380,Maastricht,380,50.906,5.762,100,43,90,37,279
247,http://www.group15_KD_tr_onto/HB,Hoensbroek railway station,HB,50.9053,5.93111,1.0384615384615385,http://www.group15_KD_tr_onto/380,Maastricht,380,50.906,5.762,100,43,90,37,279
248,http://www.group15_KD_tr_onto/HRLW,Heerlen Woonboulevard railway station,HRLW,50.8961,5.95278,0.6282051282051282,http://www.group15_KD_tr_onto/380,Maastricht,380,50.906,5.762,100,43,90,37,279
249,http://www.group15_KD_tr_onto/HRL,Heerlen railway station,HRL,50.8908,5.97472,0.9024390243902439,http://www.group15_KD_tr_onto/380,Maastricht,380,50.906,5.762,100,43,90,37,279
250,http://www.group15_KD_tr_onto/KMR,Klimmen-Ransdaal railway station,KMR,50.8667,5.89056,0.6025641025641025,http://www.group15_KD_tr_onto/380,Maastricht,380,50.906,5.762,100,43,90,37,279
251,http://www.group15_KD_tr_onto/KRD,Kerkrade Centrum railway station,KRD,50.8614,6.0575,0.6153846153846154,http://www.group15_KD_tr_onto/380,Maastricht,380,50.906,5.762,100,43,90,37,279
252,http://www.group15_KD_tr_onto/LG,Landgraaf railway station,LG,50.8964,6.02,0.8823529411764706,http://www.group15_KD_tr_onto/380,Maastricht,380,50.906,5.762,100,43,90,37,279
253,http://www.group15_KD_tr_onto/MT,Maastricht railway station,MT,50.85,5.70528,0.7,http://www.group15_KD_tr_onto/380,Maastricht,380,50.906,5.762,100,43,90,37,279
254,http://www.group15_KD_tr_onto/NH,Nuth railway station,NH,50.9197,5.8925,0.7435897435897436,http://www.group15_KD_tr_onto/380,Maastricht,380,50.906,5.762,100,43,90,37,279
255,http://www.group15_KD_tr_onto/RM,Roermond railway station,RM,51.1933,5.99472,0.9802955665024631,http://www.group15_KD_tr_onto/380,Maastricht,380,50.906,5.762,100,43,90,37,279
256,http://www.group15_KD_tr_onto/RV,Reuver railway station,RV,51.2831,6.07944,1.4736842105263157,http://www.group15_KD_tr_onto/380,Maastricht,380,50.906,5.762,100,43,90,37,279
257,http://www.group15_KD_tr_onto/SBK,Spaubeek railway station,SBK,50.9431,5.84972,0.9615384615384616,http://www.group15_KD_tr_onto/380,Maastricht,380,50.906,5.762,100,43,90,37,279
258,http://www.group15_KD_tr_onto/SM,Swalmen railway station,SM,51.2358,6.0325,0.5921052631578947,http://www.group15_KD_tr_onto/380,Maastricht,380,50.906,5.762,100,43,90,37,279
259,http://www.group15_KD_tr_onto/SN,Schinnen railway station,SN,50.9386,5.87611,0.9615384615384616,http://www.group15_KD_tr_onto/380,Maastricht,380,50.906,5.762,100,43,90,37,279
260,http://www.group15_KD_tr_onto/SRN,Susteren railway station,SRN,51.0608,5.86278,0.4189189189189189,http://www.group15_KD_tr_onto/380,Maastricht,380,50.906,5.762,100,43,90,37,279
261,http://www.group15_KD_tr_onto/STD,Sittard railway station,STD,51.0011,5.85833,0.6104417670682731,http://www.group15_KD_tr_onto/380,Maastricht,380,50.906,5.762,100,43,90,37,279
262,http://www.group15_KD_tr_onto/VDL,Voerendaal railway station,VDL,50.8867,5.92944,0.6282051282051282,http://www.group15_KD_tr_onto/380,Maastricht,380,50.906,5.762,100,43,90,37,279
