,station,station_name,station_code,ts_lat,ts_long,delay,ws,ws_name,ws_code,ws_lat,ws_long,windspeed,mean_temp,percipitation,visibility,wind_direction
0,http://www.group15_KD_tr_onto/AMR,Alkmaar railway station,AMR,52.6378,4.74056,1.0101522842639594,http://www.group15_KD_tr_onto/235,De Kooy,235,52.928,4.781,60,161,-1,75,286
1,http://www.group15_KD_tr_onto/ANA,Anna Paulowna railway station,ANA,52.8669,4.81111,1.197674418604651,http://www.group15_KD_tr_onto/235,De Kooy,235,52.928,4.781,60,161,-1,75,286
2,http://www.group15_KD_tr_onto/HDRZ,Den Helder Zuid railway station,HDRZ,52.9331,4.76389,1.0116279069767442,http://www.group15_KD_tr_onto/235,De Kooy,235,52.928,4.781,60,161,-1,75,286
3,http://www.group15_KD_tr_onto/HDR,Den Helder railway station,HDR,52.9564,4.76083,1.6,http://www.group15_KD_tr_onto/235,De Kooy,235,52.928,4.781,60,161,-1,75,286
4,http://www.group15_KD_tr_onto/HWD,Heerhugowaard railway station,HWD,52.67,4.82361,0.6455696202531646,http://www.group15_KD_tr_onto/235,De Kooy,235,52.928,4.781,60,161,-1,75,286
5,http://www.group15_KD_tr_onto/OBD,Obdam railway station,OBD,52.6781,4.90833,0.5757575757575758,http://www.group15_KD_tr_onto/235,De Kooy,235,52.928,4.781,60,161,-1,75,286
6,http://www.group15_KD_tr_onto/SGN,Schagen railway station,SGN,52.7861,4.80528,1.0909090909090908,http://www.group15_KD_tr_onto/235,De Kooy,235,52.928,4.781,60,161,-1,75,286
7,http://www.group15_KD_tr_onto/AC,Abcoude railway station,AC,52.2744,4.98222,0.8656716417910447,http://www.group15_KD_tr_onto/240,Schiphol,240,52.318,4.79,80,161,0,70,295
8,http://www.group15_KD_tr_onto/AMPO,Almere Poort railway station,AMPO,52.3428,5.15194,0.3623853211009174,http://www.group15_KD_tr_onto/240,Schiphol,240,52.318,4.79,80,161,0,70,295
9,http://www.group15_KD_tr_onto/ASA,Amsterdam Amstel station,ASA,52.3464,4.91778,0.9861111111111112,http://www.group15_KD_tr_onto/240,Schiphol,240,52.318,4.79,80,161,0,70,295
10,http://www.group15_KD_tr_onto/ASB,Amsterdam Bijlmer ArenA station,ASB,52.3131,4.94611,0.899641577060932,http://www.group15_KD_tr_onto/240,Schiphol,240,52.318,4.79,80,161,0,70,295
11,http://www.group15_KD_tr_onto/ASDL,Amsterdam Lelylaan station,ASDL,52.3572,4.83389,0.8547008547008547,http://www.group15_KD_tr_onto/240,Schiphol,240,52.318,4.79,80,161,0,70,295
12,http://www.group15_KD_tr_onto/ASDM,Amsterdam Muiderpoort railway station,ASDM,52.3608,4.93111,0.8934707903780069,http://www.group15_KD_tr_onto/240,Schiphol,240,52.318,4.79,80,161,0,70,295
13,http://www.group15_KD_tr_onto/ASDZ,Amsterdam Zuid station,ASDZ,52.3389,4.87306,0.7331932773109243,http://www.group15_KD_tr_onto/240,Schiphol,240,52.318,4.79,80,161,0,70,295
14,http://www.group15_KD_tr_onto/ASD,Amsterdam Centraal station,ASD,52.3783,4.9,1.3349753694581281,http://www.group15_KD_tr_onto/240,Schiphol,240,52.318,4.79,80,161,0,70,295
15,http://www.group15_KD_tr_onto/ASSP,Amsterdam Science Park railway station,ASSP,52.3525,4.94861,0.7948717948717948,http://www.group15_KD_tr_onto/240,Schiphol,240,52.318,4.79,80,161,0,70,295
16,http://www.group15_KD_tr_onto/ASS,Amsterdam Sloterdijk station,ASS,52.3892,4.83806,0.715765247410817,http://www.group15_KD_tr_onto/240,Schiphol,240,52.318,4.79,80,161,0,70,295
17,http://www.group15_KD_tr_onto/BLL,Bloemendaal railway station,BLL,52.4042,4.6275,0.5974025974025974,http://www.group15_KD_tr_onto/240,Schiphol,240,52.318,4.79,80,161,0,70,295
18,http://www.group15_KD_tr_onto/BV,Beverwijk railway station,BV,52.4783,4.65611,0.18811881188118812,http://www.group15_KD_tr_onto/240,Schiphol,240,52.318,4.79,80,161,0,70,295
19,http://www.group15_KD_tr_onto/CAS,Castricum railway station,CAS,52.5456,4.65889,0.8425531914893617,http://www.group15_KD_tr_onto/240,Schiphol,240,52.318,4.79,80,161,0,70,295
20,http://www.group15_KD_tr_onto/DMNZ,Diemen Zuid station,DMNZ,52.3303,4.95639,0.6343283582089553,http://www.group15_KD_tr_onto/240,Schiphol,240,52.318,4.79,80,161,0,70,295
21,http://www.group15_KD_tr_onto/DMN,Diemen railway station,DMN,52.3453,4.96694,0.7307692307692307,http://www.group15_KD_tr_onto/240,Schiphol,240,52.318,4.79,80,161,0,70,295
22,http://www.group15_KD_tr_onto/HAD,Heemstede-Aerdenhout railway station,HAD,52.3597,4.60694,0.273542600896861,http://www.group15_KD_tr_onto/240,Schiphol,240,52.318,4.79,80,161,0,70,295
23,http://www.group15_KD_tr_onto/HFD,Hoofddorp railway station,HFD,52.2933,4.7,0.6811023622047244,http://www.group15_KD_tr_onto/240,Schiphol,240,52.318,4.79,80,161,0,70,295
24,http://www.group15_KD_tr_onto/HIL,Hillegom railway station,HIL,52.3028,4.56583,0.189873417721519,http://www.group15_KD_tr_onto/240,Schiphol,240,52.318,4.79,80,161,0,70,295
25,http://www.group15_KD_tr_onto/HK,Heemskerk railway station,HK,52.4947,4.68611,0.07792207792207792,http://www.group15_KD_tr_onto/240,Schiphol,240,52.318,4.79,80,161,0,70,295
26,http://www.group15_KD_tr_onto/HLMS,Haarlem Spaarnwoude railway station,HLMS,52.3828,4.67111,0.4868421052631579,http://www.group15_KD_tr_onto/240,Schiphol,240,52.318,4.79,80,161,0,70,295
27,http://www.group15_KD_tr_onto/HLM,Haarlem railway station,HLM,52.3878,4.63889,0.27873563218390807,http://www.group15_KD_tr_onto/240,Schiphol,240,52.318,4.79,80,161,0,70,295
28,http://www.group15_KD_tr_onto/HLO,Heiloo railway station,HLO,52.6,4.70083,0.7540983606557377,http://www.group15_KD_tr_onto/240,Schiphol,240,52.318,4.79,80,161,0,70,295
29,http://www.group15_KD_tr_onto/HWZB,Halfweg-Zwanenburg railway station,HWZB,52.3847,4.75167,0.3881578947368421,http://www.group15_KD_tr_onto/240,Schiphol,240,52.318,4.79,80,161,0,70,295
30,http://www.group15_KD_tr_onto/NVP,Nieuw-Vennep railway station,NVP,52.2597,4.64556,0.5144927536231884,http://www.group15_KD_tr_onto/240,Schiphol,240,52.318,4.79,80,161,0,70,295
31,http://www.group15_KD_tr_onto/OVN,Overveen railway station,OVN,52.3908,4.60778,0.39473684210526316,http://www.group15_KD_tr_onto/240,Schiphol,240,52.318,4.79,80,161,0,70,295
32,http://www.group15_KD_tr_onto/PMR,Purmerend railway station,PMR,52.5033,4.95417,0.275,http://www.group15_KD_tr_onto/240,Schiphol,240,52.318,4.79,80,161,0,70,295
33,http://www.group15_KD_tr_onto/PMW,Purmerend Weidevenne railway station,PMW,52.4967,4.93667,0.3125,http://www.group15_KD_tr_onto/240,Schiphol,240,52.318,4.79,80,161,0,70,295
34,http://www.group15_KD_tr_onto/RAI,Amsterdam RAI station,RAI,52.3367,4.89056,0.5,http://www.group15_KD_tr_onto/240,Schiphol,240,52.318,4.79,80,161,0,70,295
35,http://www.group15_KD_tr_onto/SHL,Schiphol Airport railway station,SHL,52.3089,4.76167,1.1402439024390243,http://www.group15_KD_tr_onto/240,Schiphol,240,52.318,4.79,80,161,0,70,295
36,http://www.group15_KD_tr_onto/SPTN,Santpoort Noord railway station,SPTN,52.4428,4.63917,0.19480519480519481,http://www.group15_KD_tr_onto/240,Schiphol,240,52.318,4.79,80,161,0,70,295
37,http://www.group15_KD_tr_onto/SPTZ,Santpoort Zuid railway station,SPTZ,52.4194,4.63167,0.2077922077922078,http://www.group15_KD_tr_onto/240,Schiphol,240,52.318,4.79,80,161,0,70,295
38,http://www.group15_KD_tr_onto/UTG,Uitgeest railway station,UTG,52.5219,4.70278,0.7034482758620689,http://www.group15_KD_tr_onto/240,Schiphol,240,52.318,4.79,80,161,0,70,295
39,http://www.group15_KD_tr_onto/WM,Wormerveer railway station,WM,52.4892,4.79278,1.1044776119402986,http://www.group15_KD_tr_onto/240,Schiphol,240,52.318,4.79,80,161,0,70,295
40,http://www.group15_KD_tr_onto/WP,Weesp railway station,WP,52.3131,5.04361,0.596551724137931,http://www.group15_KD_tr_onto/240,Schiphol,240,52.318,4.79,80,161,0,70,295
41,http://www.group15_KD_tr_onto/ZD,Zaandam railway station,ZD,52.4389,4.81472,0.8046647230320699,http://www.group15_KD_tr_onto/240,Schiphol,240,52.318,4.79,80,161,0,70,295
42,http://www.group15_KD_tr_onto/ZVT,Zandvoort aan Zee railway station,ZVT,52.3758,4.53139,0.5,http://www.group15_KD_tr_onto/240,Schiphol,240,52.318,4.79,80,161,0,70,295
43,http://www.group15_KD_tr_onto/AKL,Arkel railway station,AKL,51.8719,4.99278,0.10256410256410256,http://www.group15_KD_tr_onto/260,De Bilt,260,52.1,5.18,50,157,0,3,289
44,http://www.group15_KD_tr_onto/BHV,Bilthoven railway station,BHV,52.13,5.20528,0.6040268456375839,http://www.group15_KD_tr_onto/260,De Bilt,260,52.1,5.18,50,157,0,3,289
45,http://www.group15_KD_tr_onto/BKL,Breukelen railway station,BKL,52.17,4.99056,0.5672514619883041,http://www.group15_KD_tr_onto/260,De Bilt,260,52.1,5.18,50,157,0,3,289
46,http://www.group15_KD_tr_onto/BNK,Bunnik railway station,BNK,52.0631,5.19556,0.376,http://www.group15_KD_tr_onto/260,De Bilt,260,52.1,5.18,50,157,0,3,289
47,http://www.group15_KD_tr_onto/BSD,Beesd railway station,BSD,51.8992,5.195,0.24358974358974358,http://www.group15_KD_tr_onto/260,De Bilt,260,52.1,5.18,50,157,0,3,289
48,http://www.group15_KD_tr_onto/CL,Culemborg railway station,CL,51.9472,5.22722,0.2792207792207792,http://www.group15_KD_tr_onto/260,De Bilt,260,52.1,5.18,50,157,0,3,289
49,http://www.group15_KD_tr_onto/DB,Driebergen-Zeist railway station,DB,52.065,5.26,0.5888324873096447,http://www.group15_KD_tr_onto/260,De Bilt,260,52.1,5.18,50,157,0,3,289
50,http://www.group15_KD_tr_onto/GDM,Geldermalsen railway station,GDM,51.8839,5.27083,0.46632124352331605,http://www.group15_KD_tr_onto/260,De Bilt,260,52.1,5.18,50,157,0,3,289
51,http://www.group15_KD_tr_onto/HTN,Houten railway station,HTN,52.0344,5.16778,0.3967391304347826,http://www.group15_KD_tr_onto/260,De Bilt,260,52.1,5.18,50,157,0,3,289
52,http://www.group15_KD_tr_onto/LDM,Leerdam railway station,LDM,51.8947,5.09333,0.19230769230769232,http://www.group15_KD_tr_onto/260,De Bilt,260,52.1,5.18,50,157,0,3,289
53,http://www.group15_KD_tr_onto/MAS,Maarssen railway station,MAS,52.1358,5.03306,0.3893129770992366,http://www.group15_KD_tr_onto/260,De Bilt,260,52.1,5.18,50,157,0,3,289
54,http://www.group15_KD_tr_onto/UTLR,Utrecht Leidsche Rijn railway station,UTLR,52.0983,5.06917,0.4740740740740741,http://www.group15_KD_tr_onto/260,De Bilt,260,52.1,5.18,50,157,0,3,289
55,http://www.group15_KD_tr_onto/UTO,Utrecht Overvecht railway station,UTO,52.11,5.12528,0.5159010600706714,http://www.group15_KD_tr_onto/260,De Bilt,260,52.1,5.18,50,157,0,3,289
56,http://www.group15_KD_tr_onto/UTT,Utrecht Terwijde railway station,UTT,52.1008,5.04306,0.4074074074074074,http://www.group15_KD_tr_onto/260,De Bilt,260,52.1,5.18,50,157,0,3,289
57,http://www.group15_KD_tr_onto/UTVR,Utrecht Vaartsche Rijn railway station,UTVR,52.0786,5.1225,0.3300970873786408,http://www.group15_KD_tr_onto/260,De Bilt,260,52.1,5.18,50,157,0,3,289
58,http://www.group15_KD_tr_onto/UTZL,Utrecht Zuilen railway station,UTZL,52.1031,5.08917,0.35877862595419846,http://www.group15_KD_tr_onto/260,De Bilt,260,52.1,5.18,50,157,0,3,289
59,http://www.group15_KD_tr_onto/UT,Utrecht Centraal railway station,UT,52.0892,5.10972,0.7829010566762729,http://www.group15_KD_tr_onto/260,De Bilt,260,52.1,5.18,50,157,0,3,289
60,http://www.group15_KD_tr_onto/VTN,Vleuten railway station,VTN,52.1031,5.01194,0.4148148148148148,http://www.group15_KD_tr_onto/260,De Bilt,260,52.1,5.18,50,157,0,3,289
61,http://www.group15_KD_tr_onto/WD,Woerden railway station,WD,52.0847,4.89306,0.5072463768115942,http://www.group15_KD_tr_onto/260,De Bilt,260,52.1,5.18,50,157,0,3,289
62,http://www.group15_KD_tr_onto/ZBM,Zaltbommel railway station,ZBM,51.8069,5.26472,0.15789473684210525,http://www.group15_KD_tr_onto/260,De Bilt,260,52.1,5.18,50,157,0,3,289
63,http://www.group15_KD_tr_onto/BKF,Bovenkarspel Flora railway station,BKF,52.6958,5.25306,0.11842105263157894,http://www.group15_KD_tr_onto/267,Stavoren,267,52.898,5.384,80,164,-1,75,290
64,http://www.group15_KD_tr_onto/BKG,Bovenkarspel-Grootebroek railway station,BKG,52.695,5.23611,0.11842105263157894,http://www.group15_KD_tr_onto/267,Stavoren,267,52.898,5.384,80,164,-1,75,290
65,http://www.group15_KD_tr_onto/EKZ,Enkhuizen railway station,EKZ,52.6994,5.28778,0.2777777777777778,http://www.group15_KD_tr_onto/267,Stavoren,267,52.898,5.384,80,164,-1,75,290
66,http://www.group15_KD_tr_onto/HKS,Hoogkarspel railway station,HKS,52.6906,5.18389,0.13157894736842105,http://www.group15_KD_tr_onto/267,Stavoren,267,52.898,5.384,80,164,-1,75,290
67,http://www.group15_KD_tr_onto/HNP,Hindeloopen railway station,HNP,52.9461,5.42306,1.3695652173913044,http://www.group15_KD_tr_onto/267,Stavoren,267,52.898,5.384,80,164,-1,75,290
68,http://www.group15_KD_tr_onto/HN,Hoorn railway station,HN,52.645,5.05472,0.24064171122994651,http://www.group15_KD_tr_onto/267,Stavoren,267,52.898,5.384,80,164,-1,75,290
69,http://www.group15_KD_tr_onto/IJT,IJlst railway station,IJT,53.0147,5.61639,1.173913043478261,http://www.group15_KD_tr_onto/267,Stavoren,267,52.898,5.384,80,164,-1,75,290
70,http://www.group15_KD_tr_onto/KMW,Koudum-Molkwerum railway station,KMW,52.9022,5.41056,0.9565217391304348,http://www.group15_KD_tr_onto/267,Stavoren,267,52.898,5.384,80,164,-1,75,290
71,http://www.group15_KD_tr_onto/STV,Stavoren railway station,STV,52.8867,5.35972,1.6521739130434783,http://www.group15_KD_tr_onto/267,Stavoren,267,52.898,5.384,80,164,-1,75,290
72,http://www.group15_KD_tr_onto/WK,Workum railway station,WK,52.9714,5.45583,1.391304347826087,http://www.group15_KD_tr_onto/267,Stavoren,267,52.898,5.384,80,164,-1,75,290
73,http://www.group15_KD_tr_onto/WV,Wolvega railway station,WV,52.8797,6.00472,2.159090909090909,http://www.group15_KD_tr_onto/267,Stavoren,267,52.898,5.384,80,164,-1,75,290
74,http://www.group15_KD_tr_onto/ALMB,Almere Buiten railway station,ALMB,52.3942,5.27778,0.37438423645320196,http://www.group15_KD_tr_onto/269,Lelystad,269,52.458,5.52,60,162,0,64,285
75,http://www.group15_KD_tr_onto/ALMM,Almere Muziekwijk railway station,ALMM,52.3675,5.19028,0.3669724770642202,http://www.group15_KD_tr_onto/269,Lelystad,269,52.458,5.52,60,162,0,64,285
76,http://www.group15_KD_tr_onto/ALMO,Almere Oostvaarders railway station,ALMO,52.4028,5.3,0.2,http://www.group15_KD_tr_onto/269,Lelystad,269,52.458,5.52,60,162,0,64,285
77,http://www.group15_KD_tr_onto/ALMP,Almere Parkwijk railway station,ALMP,52.3767,5.24444,0.26973684210526316,http://www.group15_KD_tr_onto/269,Lelystad,269,52.458,5.52,60,162,0,64,285
78,http://www.group15_KD_tr_onto/ALM,Almere Centrum railway station,ALM,52.375,5.21778,0.652542372881356,http://www.group15_KD_tr_onto/269,Lelystad,269,52.458,5.52,60,162,0,64,285
79,http://www.group15_KD_tr_onto/DL,Dalfsen railway station,DL,52.4981,6.25861,0.03260869565217391,http://www.group15_KD_tr_onto/269,Lelystad,269,52.458,5.52,60,162,0,64,285
80,http://www.group15_KD_tr_onto/DRON,Dronten railway station,DRON,52.5339,5.72306,0.02666666666666667,http://www.group15_KD_tr_onto/269,Lelystad,269,52.458,5.52,60,162,0,64,285
81,http://www.group15_KD_tr_onto/EML,Ermelo railway station,EML,52.3011,5.61444,0.4794520547945205,http://www.group15_KD_tr_onto/269,Lelystad,269,52.458,5.52,60,162,0,64,285
82,http://www.group15_KD_tr_onto/HDE,'t Harde railway station,HDE,52.4089,5.89306,0.2465753424657534,http://www.group15_KD_tr_onto/269,Lelystad,269,52.458,5.52,60,162,0,64,285
83,http://www.group15_KD_tr_onto/HD,Harderwijk railway station,HD,52.3375,5.61972,0.34615384615384615,http://www.group15_KD_tr_onto/269,Lelystad,269,52.458,5.52,60,162,0,64,285
84,http://www.group15_KD_tr_onto/KPNZ,Kampen Zuid railway station,KPNZ,52.5342,5.91583,0.0,http://www.group15_KD_tr_onto/269,Lelystad,269,52.458,5.52,60,162,0,64,285
85,http://www.group15_KD_tr_onto/KPN,Kampen railway station,KPN,52.5597,5.92111,0.02631578947368421,http://www.group15_KD_tr_onto/269,Lelystad,269,52.458,5.52,60,162,0,64,285
86,http://www.group15_KD_tr_onto/LLS,Lelystad Centrum railway station,LLS,52.5078,5.47333,0.546448087431694,http://www.group15_KD_tr_onto/269,Lelystad,269,52.458,5.52,60,162,0,64,285
87,http://www.group15_KD_tr_onto/MP,Meppel railway station,MP,52.6914,6.1975,0.6709401709401709,http://www.group15_KD_tr_onto/269,Lelystad,269,52.458,5.52,60,162,0,64,285
88,http://www.group15_KD_tr_onto/NS,Nunspeet railway station,NS,52.3708,5.78472,0.3150684931506849,http://www.group15_KD_tr_onto/269,Lelystad,269,52.458,5.52,60,162,0,64,285
89,http://www.group15_KD_tr_onto/OMN,Ommen railway station,OMN,52.5094,6.41694,0.40217391304347827,http://www.group15_KD_tr_onto/269,Lelystad,269,52.458,5.52,60,162,0,64,285
90,http://www.group15_KD_tr_onto/PT,Putten railway station,PT,52.2653,5.57611,0.2465753424657534,http://www.group15_KD_tr_onto/269,Lelystad,269,52.458,5.52,60,162,0,64,285
91,http://www.group15_KD_tr_onto/WZ,Wezep railway station,WZ,52.4536,6.00222,0.2328767123287671,http://www.group15_KD_tr_onto/269,Lelystad,269,52.458,5.52,60,162,0,64,285
92,http://www.group15_KD_tr_onto/ZLSH,Zwolle Stadshagen railway station,ZLSH,52.5279,6.05108,0.02631578947368421,http://www.group15_KD_tr_onto/269,Lelystad,269,52.458,5.52,60,162,0,64,285
93,http://www.group15_KD_tr_onto/ZL,Zwolle railway station,ZL,52.5053,6.09056,0.6887966804979253,http://www.group15_KD_tr_onto/269,Lelystad,269,52.458,5.52,60,162,0,64,285
94,http://www.group15_KD_tr_onto/AKM,Akkrum railway station,AKM,53.0472,5.84306,0.9358974358974359,http://www.group15_KD_tr_onto/270,Leeuwarden,270,53.224,5.752,70,156,0,70,281
95,http://www.group15_KD_tr_onto/DEI,Deinum railway station,DEI,53.1886,5.72778,0.11764705882352941,http://www.group15_KD_tr_onto/270,Leeuwarden,270,53.224,5.752,70,156,0,70,281
96,http://www.group15_KD_tr_onto/DRP,Dronryp railway station,DRP,53.1775,5.63472,0.08823529411764706,http://www.group15_KD_tr_onto/270,Leeuwarden,270,53.224,5.752,70,156,0,70,281
97,http://www.group15_KD_tr_onto/FN,Franeker railway station,FN,53.1822,5.54944,0.0,http://www.group15_KD_tr_onto/270,Leeuwarden,270,53.224,5.752,70,156,0,70,281
98,http://www.group15_KD_tr_onto/GW,Grou-Jirnsum railway station,GW,53.0897,5.82222,0.9230769230769231,http://www.group15_KD_tr_onto/270,Leeuwarden,270,53.224,5.752,70,156,0,70,281
99,http://www.group15_KD_tr_onto/HDG,Hurdegaryp railway station,HDG,53.2186,5.93472,0.8235294117647058,http://www.group15_KD_tr_onto/270,Leeuwarden,270,53.224,5.752,70,156,0,70,281
100,http://www.group15_KD_tr_onto/HLG,Harlingen railway station,HLG,53.1703,5.42528,0.0,http://www.group15_KD_tr_onto/270,Leeuwarden,270,53.224,5.752,70,156,0,70,281
101,http://www.group15_KD_tr_onto/HR,Heerenveen railway station,HR,52.9606,5.91528,1.2732919254658386,http://www.group15_KD_tr_onto/270,Leeuwarden,270,53.224,5.752,70,156,0,70,281
102,http://www.group15_KD_tr_onto/LW,Leeuwarden railway station,LW,53.1958,5.79111,0.9154929577464789,http://www.group15_KD_tr_onto/270,Leeuwarden,270,53.224,5.752,70,156,0,70,281
103,http://www.group15_KD_tr_onto/MG,Mantgum railway station,MG,53.1297,5.71333,0.4375,http://www.group15_KD_tr_onto/270,Leeuwarden,270,53.224,5.752,70,156,0,70,281
104,http://www.group15_KD_tr_onto/SK,Sneek railway station,SK,53.0322,5.65167,0.7090909090909091,http://www.group15_KD_tr_onto/270,Leeuwarden,270,53.224,5.752,70,156,0,70,281
105,http://www.group15_KD_tr_onto/AHPR,Arnhem Presikhaaf railway station,AHPR,51.9875,5.94306,0.647887323943662,http://www.group15_KD_tr_onto/275,Deelen,275,52.056,5.873,60,152,0,61,294
106,http://www.group15_KD_tr_onto/AHZ,Arnhem Zuid railway station,AHZ,51.9542,5.85167,0.39552238805970147,http://www.group15_KD_tr_onto/275,Deelen,275,52.056,5.873,60,152,0,61,294
107,http://www.group15_KD_tr_onto/AML,Almelo railway station,AML,52.3572,6.655,0.42696629213483145,http://www.group15_KD_tr_onto/275,Deelen,275,52.056,5.873,60,152,0,61,294
108,http://www.group15_KD_tr_onto/APD,Apeldoorn railway station,APD,52.2092,5.96944,0.6397849462365591,http://www.group15_KD_tr_onto/275,Deelen,275,52.056,5.873,60,152,0,61,294
109,http://www.group15_KD_tr_onto/ATN,Aalten railway station,ATN,51.9211,6.57806,0.05405405405405406,http://www.group15_KD_tr_onto/275,Deelen,275,52.056,5.873,60,152,0,61,294
110,http://www.group15_KD_tr_onto/BMN,Brummen railway station,BMN,52.0908,6.14694,0.4225352112676056,http://www.group15_KD_tr_onto/275,Deelen,275,52.056,5.873,60,152,0,61,294
111,http://www.group15_KD_tr_onto/BN,Borne railway station,BN,52.2983,6.74833,0.1276595744680851,http://www.group15_KD_tr_onto/275,Deelen,275,52.056,5.873,60,152,0,61,294
112,http://www.group15_KD_tr_onto/CK,Cuijk railway station,CK,51.7264,5.87417,0.34615384615384615,http://www.group15_KD_tr_onto/275,Deelen,275,52.056,5.873,60,152,0,61,294
113,http://www.group15_KD_tr_onto/DA,Daarlerveen railway station,DA,52.4411,6.57583,0.3888888888888889,http://www.group15_KD_tr_onto/275,Deelen,275,52.056,5.873,60,152,0,61,294
114,http://www.group15_KD_tr_onto/DDN,Delden railway station,DDN,52.26,6.71444,0.4189189189189189,http://www.group15_KD_tr_onto/275,Deelen,275,52.056,5.873,60,152,0,61,294
115,http://www.group15_KD_tr_onto/DID,Didam railway station,DID,51.9333,6.13222,0.12403100775193798,http://www.group15_KD_tr_onto/275,Deelen,275,52.056,5.873,60,152,0,61,294
116,http://www.group15_KD_tr_onto/DR,Dieren railway station,DR,52.045,6.10333,0.5472972972972973,http://www.group15_KD_tr_onto/275,Deelen,275,52.056,5.873,60,152,0,61,294
117,http://www.group15_KD_tr_onto/DTC,Doetinchem railway station,DTC,51.9583,6.29528,0.17,http://www.group15_KD_tr_onto/275,Deelen,275,52.056,5.873,60,152,0,61,294
118,http://www.group15_KD_tr_onto/DVN,Duiven railway station,DVN,51.9433,6.01417,0.27906976744186046,http://www.group15_KD_tr_onto/275,Deelen,275,52.056,5.873,60,152,0,61,294
119,http://www.group15_KD_tr_onto/DV,Deventer railway station,DV,52.2572,6.16083,0.9254901960784314,http://www.group15_KD_tr_onto/275,Deelen,275,52.056,5.873,60,152,0,61,294
120,http://www.group15_KD_tr_onto/ED,Ede-Wageningen railway station,ED,52.0278,5.67194,0.2590909090909091,http://www.group15_KD_tr_onto/275,Deelen,275,52.056,5.873,60,152,0,61,294
121,http://www.group15_KD_tr_onto/EST,Elst railway station,EST,51.9167,5.855,0.31794871794871793,http://www.group15_KD_tr_onto/275,Deelen,275,52.056,5.873,60,152,0,61,294
122,http://www.group15_KD_tr_onto/ES,Enschede railway station,ES,52.2222,6.89,0.3383458646616541,http://www.group15_KD_tr_onto/275,Deelen,275,52.056,5.873,60,152,0,61,294
123,http://www.group15_KD_tr_onto/GBR,Glanerbrug railway station,GBR,52.2186,6.97389,0.0,http://www.group15_KD_tr_onto/275,Deelen,275,52.056,5.873,60,152,0,61,294
124,http://www.group15_KD_tr_onto/GDR,Gaanderen railway station,GDR,51.9308,6.34778,0.14864864864864866,http://www.group15_KD_tr_onto/275,Deelen,275,52.056,5.873,60,152,0,61,294
125,http://www.group15_KD_tr_onto/GO,Goor railway station,GO,52.2303,6.58444,0.3287671232876712,http://www.group15_KD_tr_onto/275,Deelen,275,52.056,5.873,60,152,0,61,294
126,http://www.group15_KD_tr_onto/HGL,Hengelo railway station,HGL,52.2619,6.79417,0.36156351791530944,http://www.group15_KD_tr_onto/275,Deelen,275,52.056,5.873,60,152,0,61,294
127,http://www.group15_KD_tr_onto/HMN,Hemmen-Dodewaard railway station,HMN,51.9222,5.67333,0.0,http://www.group15_KD_tr_onto/275,Deelen,275,52.056,5.873,60,152,0,61,294
128,http://www.group15_KD_tr_onto/HNO,Heino railway station,HNO,52.4269,6.22194,0.15789473684210525,http://www.group15_KD_tr_onto/275,Deelen,275,52.056,5.873,60,152,0,61,294
129,http://www.group15_KD_tr_onto/HON,Holten railway station,HON,52.2839,6.42056,0.7432432432432432,http://www.group15_KD_tr_onto/275,Deelen,275,52.056,5.873,60,152,0,61,294
130,http://www.group15_KD_tr_onto/KBK,Klarenbeek railway station,KBK,52.1778,6.08417,0.03125,http://www.group15_KD_tr_onto/275,Deelen,275,52.056,5.873,60,152,0,61,294
131,http://www.group15_KD_tr_onto/KLP,Veenendaal-De Klomp railway station,KLP,52.0458,5.57389,0.691358024691358,http://www.group15_KD_tr_onto/275,Deelen,275,52.056,5.873,60,152,0,61,294
132,http://www.group15_KD_tr_onto/KTR,Kesteren railway station,KTR,51.9314,5.58361,0.0,http://www.group15_KD_tr_onto/275,Deelen,275,52.056,5.873,60,152,0,61,294
133,http://www.group15_KD_tr_onto/LC,Lochem railway station,LC,52.1667,6.42583,0.18055555555555555,http://www.group15_KD_tr_onto/275,Deelen,275,52.056,5.873,60,152,0,61,294
134,http://www.group15_KD_tr_onto/LTV,Lichtenvoorde-Groenlo railway station,LTV,52.0117,6.59639,0.08695652173913043,http://www.group15_KD_tr_onto/275,Deelen,275,52.056,5.873,60,152,0,61,294
135,http://www.group15_KD_tr_onto/MMLH,Mook-Molenhoek railway station,MMLH,51.7647,5.8775,0.5375,http://www.group15_KD_tr_onto/275,Deelen,275,52.056,5.873,60,152,0,61,294
136,http://www.group15_KD_tr_onto/NM,Nijmegen railway station,NM,51.8433,5.8525,0.43167701863354035,http://www.group15_KD_tr_onto/275,Deelen,275,52.056,5.873,60,152,0,61,294
137,http://www.group15_KD_tr_onto/NVD,Nijverdal railway station,NVD,52.3656,6.47028,0.3235294117647059,http://www.group15_KD_tr_onto/275,Deelen,275,52.056,5.873,60,152,0,61,294
138,http://www.group15_KD_tr_onto/ODZ,Oldenzaal railway station,ODZ,52.3061,6.93361,0.19480519480519481,http://www.group15_KD_tr_onto/275,Deelen,275,52.056,5.873,60,152,0,61,294
139,http://www.group15_KD_tr_onto/OP,Opheusden railway station,OP,51.9261,5.63694,0.0,http://www.group15_KD_tr_onto/275,Deelen,275,52.056,5.873,60,152,0,61,294
140,http://www.group15_KD_tr_onto/OST,Olst railway station,OST,52.335,6.11306,0.3924050632911392,http://www.group15_KD_tr_onto/275,Deelen,275,52.056,5.873,60,152,0,61,294
141,http://www.group15_KD_tr_onto/OTB,Oosterbeek railway station,OTB,51.9947,5.84,0.24242424242424243,http://www.group15_KD_tr_onto/275,Deelen,275,52.056,5.873,60,152,0,61,294
142,http://www.group15_KD_tr_onto/RAT,Raalte railway station,RAT,52.3908,6.27861,0.1568627450980392,http://www.group15_KD_tr_onto/275,Deelen,275,52.056,5.873,60,152,0,61,294
143,http://www.group15_KD_tr_onto/RHN,Rhenen railway station,RHN,51.9578,5.57833,0.10810810810810811,http://www.group15_KD_tr_onto/275,Deelen,275,52.056,5.873,60,152,0,61,294
144,http://www.group15_KD_tr_onto/RH,Rheden railway station,RH,52.0097,6.02972,0.4507042253521127,http://www.group15_KD_tr_onto/275,Deelen,275,52.056,5.873,60,152,0,61,294
145,http://www.group15_KD_tr_onto/RL,Ruurlo railway station,RL,52.0806,6.45,0.0,http://www.group15_KD_tr_onto/275,Deelen,275,52.056,5.873,60,152,0,61,294
146,http://www.group15_KD_tr_onto/RSN,Rijssen railway station,RSN,52.3117,6.51917,0.64,http://www.group15_KD_tr_onto/275,Deelen,275,52.056,5.873,60,152,0,61,294
147,http://www.group15_KD_tr_onto/RVS,Ravenstein railway station,RVS,51.7947,5.63722,0.3333333333333333,http://www.group15_KD_tr_onto/275,Deelen,275,52.056,5.873,60,152,0,61,294
148,http://www.group15_KD_tr_onto/TWL,Twello railway station,TWL,52.2381,6.1,0.3283582089552239,http://www.group15_KD_tr_onto/275,Deelen,275,52.056,5.873,60,152,0,61,294
149,http://www.group15_KD_tr_onto/VEM,Voorst-Empe railway station,VEM,52.1578,6.14278,0.25,http://www.group15_KD_tr_onto/275,Deelen,275,52.056,5.873,60,152,0,61,294
150,http://www.group15_KD_tr_onto/VHP,Vroomshoop railway station,VHP,52.4411,6.57583,0.3148148148148148,http://www.group15_KD_tr_onto/275,Deelen,275,52.056,5.873,60,152,0,61,294
151,http://www.group15_KD_tr_onto/VP,Arnhem Velperpoort railway station,VP,51.985,5.92,0.4225352112676056,http://www.group15_KD_tr_onto/275,Deelen,275,52.056,5.873,60,152,0,61,294
152,http://www.group15_KD_tr_onto/VSV,Varsseveld railway station,VSV,51.9369,6.45806,0.05405405405405406,http://www.group15_KD_tr_onto/275,Deelen,275,52.056,5.873,60,152,0,61,294
153,http://www.group15_KD_tr_onto/VZ,Vriezenveen railway station,VZ,52.4019,6.60028,0.5,http://www.group15_KD_tr_onto/275,Deelen,275,52.056,5.873,60,152,0,61,294
154,http://www.group15_KD_tr_onto/WC,Wijchen railway station,WC,51.8111,5.72944,0.3269230769230769,http://www.group15_KD_tr_onto/275,Deelen,275,52.056,5.873,60,152,0,61,294
155,http://www.group15_KD_tr_onto/WDN,Wierden railway station,WDN,52.3614,6.59111,0.32,http://www.group15_KD_tr_onto/275,Deelen,275,52.056,5.873,60,152,0,61,294
156,http://www.group15_KD_tr_onto/WF,Wolfheze railway station,WF,52.0053,5.79361,0.15151515151515152,http://www.group15_KD_tr_onto/275,Deelen,275,52.056,5.873,60,152,0,61,294
157,http://www.group15_KD_tr_onto/WH,Wijhe railway station,WH,52.3936,6.14083,0.7721518987341772,http://www.group15_KD_tr_onto/275,Deelen,275,52.056,5.873,60,152,0,61,294
158,http://www.group15_KD_tr_onto/WL,Wehl railway station,WL,51.9567,6.2125,0.20155038759689922,http://www.group15_KD_tr_onto/275,Deelen,275,52.056,5.873,60,152,0,61,294
159,http://www.group15_KD_tr_onto/WWW,Winterswijk West railway station,WWW,51.9744,6.70361,0.0,http://www.group15_KD_tr_onto/275,Deelen,275,52.056,5.873,60,152,0,61,294
160,http://www.group15_KD_tr_onto/WW,Winterswijk railway station,WW,51.9675,6.71556,0.125,http://www.group15_KD_tr_onto/275,Deelen,275,52.056,5.873,60,152,0,61,294
161,http://www.group15_KD_tr_onto/ZA,Zetten-Andelst railway station,ZA,51.9194,5.72306,0.015625,http://www.group15_KD_tr_onto/275,Deelen,275,52.056,5.873,60,152,0,61,294
162,http://www.group15_KD_tr_onto/ZP,Zutphen railway station,ZP,52.1444,6.19389,0.4840182648401826,http://www.group15_KD_tr_onto/275,Deelen,275,52.056,5.873,60,152,0,61,294
163,http://www.group15_KD_tr_onto/ZV,Zevenaar railway station,ZV,51.9231,6.07278,0.8242424242424242,http://www.group15_KD_tr_onto/275,Deelen,275,52.056,5.873,60,152,0,61,294
164,http://www.group15_KD_tr_onto/ASN,Assen railway station,ASN,52.9917,6.57056,1.1483870967741936,http://www.group15_KD_tr_onto/280,Eelde,280,53.125,6.585,70,151,-1,64,271
165,http://www.group15_KD_tr_onto/BF,Baflo railway station,BF,53.3608,6.51833,0.1891891891891892,http://www.group15_KD_tr_onto/280,Eelde,280,53.125,6.585,70,151,-1,64,271
166,http://www.group15_KD_tr_onto/BL,Beilen railway station,BL,52.8547,6.52083,0.8783783783783784,http://www.group15_KD_tr_onto/280,Eelde,280,53.125,6.585,70,151,-1,64,271
167,http://www.group15_KD_tr_onto/DLN,Dalen railway station,DLN,52.6944,6.75806,0.0,http://www.group15_KD_tr_onto/280,Eelde,280,53.125,6.585,70,151,-1,64,271
168,http://www.group15_KD_tr_onto/EMNZ,Emmen Zuid railway station,EMNZ,52.7489,6.87472,0.012195121951219513,http://www.group15_KD_tr_onto/280,Eelde,280,53.125,6.585,70,151,-1,64,271
169,http://www.group15_KD_tr_onto/EMN,Emmen railway station,EMN,52.7903,6.89917,0.024390243902439025,http://www.group15_KD_tr_onto/280,Eelde,280,53.125,6.585,70,151,-1,64,271
170,http://www.group15_KD_tr_onto/GBG,Gramsbergen railway station,GBG,52.6094,6.67583,0.23404255319148937,http://www.group15_KD_tr_onto/280,Eelde,280,53.125,6.585,70,151,-1,64,271
171,http://www.group15_KD_tr_onto/GK,Grijpskerk railway station,GK,53.2556,6.31056,0.38235294117647056,http://www.group15_KD_tr_onto/280,Eelde,280,53.125,6.585,70,151,-1,64,271
172,http://www.group15_KD_tr_onto/GN,Groningen railway station,GN,53.2106,6.56472,0.6151315789473685,http://www.group15_KD_tr_onto/280,Eelde,280,53.125,6.585,70,151,-1,64,271
173,http://www.group15_KD_tr_onto/HDB,Hardenberg railway station,HDB,52.5722,6.62778,0.06779661016949153,http://www.group15_KD_tr_onto/280,Eelde,280,53.125,6.585,70,151,-1,64,271
174,http://www.group15_KD_tr_onto/HGV,Hoogeveen railway station,HGV,52.7333,6.4725,0.2702702702702703,http://www.group15_KD_tr_onto/280,Eelde,280,53.125,6.585,70,151,-1,64,271
175,http://www.group15_KD_tr_onto/HRN,Haren (NL) railway station,HRN,53.175,6.61778,0.6836734693877551,http://www.group15_KD_tr_onto/280,Eelde,280,53.125,6.585,70,151,-1,64,271
176,http://www.group15_KD_tr_onto/KW,Kropswolde railway station,KW,53.1617,6.72139,0.42857142857142855,http://www.group15_KD_tr_onto/280,Eelde,280,53.125,6.585,70,151,-1,64,271
177,http://www.group15_KD_tr_onto/NA,Nieuw Amsterdam railway station,NA,52.7186,6.84861,0.17105263157894737,http://www.group15_KD_tr_onto/280,Eelde,280,53.125,6.585,70,151,-1,64,271
178,http://www.group15_KD_tr_onto/NSCH,Bad Nieuweschans railway station,NSCH,53.1842,7.19944,1.0512820512820513,http://www.group15_KD_tr_onto/280,Eelde,280,53.125,6.585,70,151,-1,64,271
179,http://www.group15_KD_tr_onto/SWK,Steenwijk railway station,SWK,52.7908,6.11611,0.8571428571428571,http://www.group15_KD_tr_onto/280,Eelde,280,53.125,6.585,70,151,-1,64,271
180,http://www.group15_KD_tr_onto/VDM,Veendam railway station,VDM,53.1036,6.88472,0.11428571428571428,http://www.group15_KD_tr_onto/280,Eelde,280,53.125,6.585,70,151,-1,64,271
181,http://www.group15_KD_tr_onto/VD,Coevorden railway station,VD,52.6631,6.73556,0.2463768115942029,http://www.group15_KD_tr_onto/280,Eelde,280,53.125,6.585,70,151,-1,64,271
182,http://www.group15_KD_tr_onto/BGN,Bergen op Zoom railway station,BGN,51.4947,4.29611,1.471698113207547,http://www.group15_KD_tr_onto/340,Woensdrecht,340,51.449,4.342,70,161,0,61,296
183,http://www.group15_KD_tr_onto/KBD,Krabbendijke railway station,KBD,51.4333,4.11694,1.4864864864864864,http://www.group15_KD_tr_onto/340,Woensdrecht,340,51.449,4.342,70,161,0,61,296
184,http://www.group15_KD_tr_onto/KRG,Kruiningen-Yerseke railway station,KRG,51.4653,4.03694,0.9054054054054054,http://www.group15_KD_tr_onto/340,Woensdrecht,340,51.449,4.342,70,161,0,61,296
185,http://www.group15_KD_tr_onto/ODB,Oudenbosch railway station,ODB,51.5881,4.53361,0.37681159420289856,http://www.group15_KD_tr_onto/340,Woensdrecht,340,51.449,4.342,70,161,0,61,296
186,http://www.group15_KD_tr_onto/RB,Rilland-Bath railway station,RB,51.4222,4.16111,1.7837837837837838,http://www.group15_KD_tr_onto/340,Woensdrecht,340,51.449,4.342,70,161,0,61,296
187,http://www.group15_KD_tr_onto/RSD,Roosendaal railway station,RSD,51.5403,4.45889,0.8524590163934426,http://www.group15_KD_tr_onto/340,Woensdrecht,340,51.449,4.342,70,161,0,61,296
188,http://www.group15_KD_tr_onto/BSKS,Boskoop Snijdelwijk railway station,BSKS,52.0676,4.6462,0.06923076923076923,http://www.group15_KD_tr_onto/344,Rotterdam,344,51.962,4.447,60,162,0,5,298
189,http://www.group15_KD_tr_onto/CPS,Capelle Schollevaar railway station,CPS,51.9533,4.58417,0.8125,http://www.group15_KD_tr_onto/344,Rotterdam,344,51.962,4.447,60,162,0,5,298
190,http://www.group15_KD_tr_onto/DT,Rotterdam Delftsche Poort railway station,DT,51.9253,4.47361,0.45604395604395603,http://www.group15_KD_tr_onto/344,Rotterdam,344,51.962,4.447,60,162,0,5,298
191,http://www.group15_KD_tr_onto/EC,Dordrecht railway station,EC,51.8075,4.66778,0.25675675675675674,http://www.group15_KD_tr_onto/344,Rotterdam,344,51.962,4.447,60,162,0,5,298
192,http://www.group15_KD_tr_onto/GD,Gouda railway station,GD,52.0175,4.70556,0.650887573964497,http://www.group15_KD_tr_onto/344,Rotterdam,344,51.962,4.447,60,162,0,5,298
193,http://www.group15_KD_tr_onto/GVMW,Den Haag Moerwijk railway station,GVMW,52.0533,4.30861,0.19424460431654678,http://www.group15_KD_tr_onto/344,Rotterdam,344,51.962,4.447,60,162,0,5,298
194,http://www.group15_KD_tr_onto/NWK,Nieuwerkerk aan den IJssel railway station,NWK,51.9653,4.61694,0.8875,http://www.group15_KD_tr_onto/344,Rotterdam,344,51.962,4.447,60,162,0,5,298
195,http://www.group15_KD_tr_onto/RLB,Rotterdam Lombardijen railway station,RLB,51.8797,4.53111,0.37037037037037035,http://www.group15_KD_tr_onto/344,Rotterdam,344,51.962,4.447,60,162,0,5,298
196,http://www.group15_KD_tr_onto/RSW,Rijswijk railway station,RSW,52.0394,4.31972,0.1510791366906475,http://www.group15_KD_tr_onto/344,Rotterdam,344,51.962,4.447,60,162,0,5,298
197,http://www.group15_KD_tr_onto/RTA,Rotterdam Alexander station,RTA,51.9519,4.55278,0.8251121076233184,http://www.group15_KD_tr_onto/344,Rotterdam,344,51.962,4.447,60,162,0,5,298
198,http://www.group15_KD_tr_onto/RTB,Rotterdam Blaak station,RTB,51.92,4.48917,0.3885542168674699,http://www.group15_KD_tr_onto/344,Rotterdam,344,51.962,4.447,60,162,0,5,298
199,http://www.group15_KD_tr_onto/RTD,Rotterdam Centraal station,RTD,51.9244,4.46944,1.0317700453857792,http://www.group15_KD_tr_onto/344,Rotterdam,344,51.962,4.447,60,162,0,5,298
200,http://www.group15_KD_tr_onto/RTN,Rotterdam Noord railway station,RTN,51.9422,4.48139,1.025,http://www.group15_KD_tr_onto/344,Rotterdam,344,51.962,4.447,60,162,0,5,298
201,http://www.group15_KD_tr_onto/RTZ,Rotterdam Zuid railway station,RTZ,51.9094,4.50944,0.31216931216931215,http://www.group15_KD_tr_onto/344,Rotterdam,344,51.962,4.447,60,162,0,5,298
202,http://www.group15_KD_tr_onto/SDM,Schiedam Centrum station,SDM,51.9219,4.41,0.2640845070422535,http://www.group15_KD_tr_onto/344,Rotterdam,344,51.962,4.447,60,162,0,5,298
203,http://www.group15_KD_tr_onto/SDT,Sliedrecht Baanhoek railway station,SDT,51.8297,4.74333,0.18518518518518517,http://www.group15_KD_tr_onto/344,Rotterdam,344,51.962,4.447,60,162,0,5,298
204,http://www.group15_KD_tr_onto/YPB,Den Haag Ypenburg railway station,YPB,52.0592,4.38972,0.35802469135802467,http://www.group15_KD_tr_onto/344,Rotterdam,344,51.962,4.447,60,162,0,5,298
205,http://www.group15_KD_tr_onto/ZTM,Lansingerland-Zoetermeer railway station,ZTM,52.0394,4.52556,0.41975308641975306,http://www.group15_KD_tr_onto/344,Rotterdam,344,51.962,4.447,60,162,0,5,298
206,http://www.group15_KD_tr_onto/ZWD,Zwijndrecht railway station,ZWD,51.8147,4.64222,0.291005291005291,http://www.group15_KD_tr_onto/344,Rotterdam,344,51.962,4.447,60,162,0,5,298
207,http://www.group15_KD_tr_onto/BD,Breda railway station,BD,51.595,4.78,0.9273927392739274,http://www.group15_KD_tr_onto/350,Gilze-Rijen,350,51.566,4.936,60,160,0,60,295
208,http://www.group15_KD_tr_onto/BHDV,Boven Hardinxveld railway station,BHDV,51.8319,4.87472,0.1111111111111111,http://www.group15_KD_tr_onto/350,Gilze-Rijen,350,51.566,4.936,60,160,0,60,295
209,http://www.group15_KD_tr_onto/ETN,Etten-Leur railway station,ETN,51.5753,4.63694,0.5802469135802469,http://www.group15_KD_tr_onto/350,Gilze-Rijen,350,51.566,4.936,60,160,0,60,295
210,http://www.group15_KD_tr_onto/GND,Hardinxveld-Giessendam railway station,GND,51.8303,4.83528,0.2222222222222222,http://www.group15_KD_tr_onto/350,Gilze-Rijen,350,51.566,4.936,60,160,0,60,295
211,http://www.group15_KD_tr_onto/GR,Gorinchem railway station,GR,51.8336,4.9675,0.20253164556962025,http://www.group15_KD_tr_onto/350,Gilze-Rijen,350,51.566,4.936,60,160,0,60,295
212,http://www.group15_KD_tr_onto/GZ,Gilze-Rijen railway station,GZ,51.5839,4.925,0.45454545454545453,http://www.group15_KD_tr_onto/350,Gilze-Rijen,350,51.566,4.936,60,160,0,60,295
213,http://www.group15_KD_tr_onto/OT,Oisterwijk railway station,OT,51.5822,5.19444,0.17142857142857143,http://www.group15_KD_tr_onto/350,Gilze-Rijen,350,51.566,4.936,60,160,0,60,295
214,http://www.group15_KD_tr_onto/TBR,Tilburg Reeshof railway station,TBR,51.5739,4.99278,0.5714285714285714,http://www.group15_KD_tr_onto/350,Gilze-Rijen,350,51.566,4.936,60,160,0,60,295
215,http://www.group15_KD_tr_onto/TBU,Tilburg Universiteit railway station,TBU,51.5653,5.05139,0.3963963963963964,http://www.group15_KD_tr_onto/350,Gilze-Rijen,350,51.566,4.936,60,160,0,60,295
216,http://www.group15_KD_tr_onto/TB,Tilburg railway station,TB,51.5606,5.08278,0.6601307189542484,http://www.group15_KD_tr_onto/350,Gilze-Rijen,350,51.566,4.936,60,160,0,60,295
217,http://www.group15_KD_tr_onto/ZLW,Lage Zwaluwe railway station,ZLW,51.6906,4.66333,0.4794520547945205,http://www.group15_KD_tr_onto/350,Gilze-Rijen,350,51.566,4.936,60,160,0,60,295
218,http://www.group15_KD_tr_onto/ZVB,Zevenbergen railway station,ZVB,51.6414,4.60972,0.8840579710144928,http://www.group15_KD_tr_onto/350,Gilze-Rijen,350,51.566,4.936,60,160,0,60,295
219,http://www.group15_KD_tr_onto/BET,Best railway station,BET,51.5097,5.38889,0.20945945945945946,http://www.group15_KD_tr_onto/370,Eindhoven,370,51.451,5.377,60,161,0,63,292
220,http://www.group15_KD_tr_onto/BMR,Boxmeer railway station,BMR,51.6444,5.93944,0.21052631578947367,http://www.group15_KD_tr_onto/370,Eindhoven,370,51.451,5.377,60,161,0,63,292
221,http://www.group15_KD_tr_onto/BR,Blerick railway station,BR,51.3725,6.155,0.39864864864864863,http://www.group15_KD_tr_onto/370,Eindhoven,370,51.451,5.377,60,161,0,63,292
222,http://www.group15_KD_tr_onto/BTL,Boxtel railway station,BTL,51.5844,5.31889,0.3355263157894737,http://www.group15_KD_tr_onto/370,Eindhoven,370,51.451,5.377,60,161,0,63,292
223,http://www.group15_KD_tr_onto/DN,Deurne railway station,DN,51.4558,5.78833,0.7523809523809524,http://www.group15_KD_tr_onto/370,Eindhoven,370,51.451,5.377,60,161,0,63,292
224,http://www.group15_KD_tr_onto/EHS,Eindhoven Stadion railway station,EHS,51.443,5.46731,0.12837837837837837,http://www.group15_KD_tr_onto/370,Eindhoven,370,51.451,5.377,60,161,0,63,292
225,http://www.group15_KD_tr_onto/EHV,Eindhoven Centraal railway station,EHV,51.4428,5.48028,0.4692737430167598,http://www.group15_KD_tr_onto/370,Eindhoven,370,51.451,5.377,60,161,0,63,292
226,http://www.group15_KD_tr_onto/GP,Geldrop railway station,GP,51.42,5.55111,0.47058823529411764,http://www.group15_KD_tr_onto/370,Eindhoven,370,51.451,5.377,60,161,0,63,292
227,http://www.group15_KD_tr_onto/HMH,Helmond 't Hout railway station,HMH,51.4678,5.63083,0.26865671641791045,http://www.group15_KD_tr_onto/370,Eindhoven,370,51.451,5.377,60,161,0,63,292
228,http://www.group15_KD_tr_onto/HM,Helmond railway station,HM,51.4756,5.66167,0.3669064748201439,http://www.group15_KD_tr_onto/370,Eindhoven,370,51.451,5.377,60,161,0,63,292
229,http://www.group15_KD_tr_onto/HRT,Horst-Sevenum railway station,HRT,51.4267,6.04194,0.3472222222222222,http://www.group15_KD_tr_onto/370,Eindhoven,370,51.451,5.377,60,161,0,63,292
230,http://www.group15_KD_tr_onto/HT,'s-Hertogenbosch railway station,HT,51.69,5.29333,0.45287958115183247,http://www.group15_KD_tr_onto/370,Eindhoven,370,51.451,5.377,60,161,0,63,292
231,http://www.group15_KD_tr_onto/HZ,Heeze railway station,HZ,51.385,5.56944,2.789473684210526,http://www.group15_KD_tr_onto/370,Eindhoven,370,51.451,5.377,60,161,0,63,292
232,http://www.group15_KD_tr_onto/MZ,Maarheeze railway station,MZ,51.3039,5.63028,0.6176470588235294,http://www.group15_KD_tr_onto/370,Eindhoven,370,51.451,5.377,60,161,0,63,292
233,http://www.group15_KD_tr_onto/OW,Oss West railway station,OW,51.7581,5.50611,0.20481927710843373,http://www.group15_KD_tr_onto/370,Eindhoven,370,51.451,5.377,60,161,0,63,292
234,http://www.group15_KD_tr_onto/O,Oss railway station,O,51.7653,5.53167,0.691358024691358,http://www.group15_KD_tr_onto/370,Eindhoven,370,51.451,5.377,60,161,0,63,292
235,http://www.group15_KD_tr_onto/RS,Rosmalen railway station,RS,51.715,5.36889,0.1686746987951807,http://www.group15_KD_tr_onto/370,Eindhoven,370,51.451,5.377,60,161,0,63,292
236,http://www.group15_KD_tr_onto/TG,Tegelen railway station,TG,51.3411,6.14333,0.868421052631579,http://www.group15_KD_tr_onto/370,Eindhoven,370,51.451,5.377,60,161,0,63,292
237,http://www.group15_KD_tr_onto/VG,Vught railway station,VG,51.6547,5.29194,0.2948717948717949,http://www.group15_KD_tr_onto/370,Eindhoven,370,51.451,5.377,60,161,0,63,292
238,http://www.group15_KD_tr_onto/VLB,Vierlingsbeek railway station,VLB,51.5922,5.99667,0.5921052631578947,http://www.group15_KD_tr_onto/370,Eindhoven,370,51.451,5.377,60,161,0,63,292
239,http://www.group15_KD_tr_onto/VL,Venlo railway station,VL,51.3647,6.17139,0.4846153846153846,http://www.group15_KD_tr_onto/370,Eindhoven,370,51.451,5.377,60,161,0,63,292
240,http://www.group15_KD_tr_onto/VRY,Venray railway station,VRY,51.5264,6.01417,0.5789473684210527,http://www.group15_KD_tr_onto/370,Eindhoven,370,51.451,5.377,60,161,0,63,292
241,http://www.group15_KD_tr_onto/WT,Weert railway station,WT,51.2486,5.7025,0.5029940119760479,http://www.group15_KD_tr_onto/370,Eindhoven,370,51.451,5.377,60,161,0,63,292
242,http://www.group15_KD_tr_onto/CVM,Chevremont railway station,CVM,50.8758,6.05944,0.14473684210526316,http://www.group15_KD_tr_onto/380,Maastricht,380,50.906,5.762,50,175,0,66,306
243,http://www.group15_KD_tr_onto/EDN,Eijsden railway station,EDN,50.772,5.71004,0.3888888888888889,http://www.group15_KD_tr_onto/380,Maastricht,380,50.906,5.762,50,175,0,66,306
244,http://www.group15_KD_tr_onto/EGH,Eygelshoven railway station,EGH,50.8903,6.04556,0.05263157894736842,http://www.group15_KD_tr_onto/380,Maastricht,380,50.906,5.762,50,175,0,66,306
245,http://www.group15_KD_tr_onto/GLN,Geleen Oost railway station,GLN,50.9672,5.84306,0.47368421052631576,http://www.group15_KD_tr_onto/380,Maastricht,380,50.906,5.762,50,175,0,66,306
246,http://www.group15_KD_tr_onto/HB,Hoensbroek railway station,HB,50.9053,5.93111,0.8421052631578947,http://www.group15_KD_tr_onto/380,Maastricht,380,50.906,5.762,50,175,0,66,306
247,http://www.group15_KD_tr_onto/HRLW,Heerlen Woonboulevard railway station,HRLW,50.8961,5.95278,0.38461538461538464,http://www.group15_KD_tr_onto/380,Maastricht,380,50.906,5.762,50,175,0,66,306
248,http://www.group15_KD_tr_onto/HRL,Heerlen railway station,HRL,50.8908,5.97472,0.9595959595959596,http://www.group15_KD_tr_onto/380,Maastricht,380,50.906,5.762,50,175,0,66,306
249,http://www.group15_KD_tr_onto/KMR,Klimmen-Ransdaal railway station,KMR,50.8667,5.89056,0.3333333333333333,http://www.group15_KD_tr_onto/380,Maastricht,380,50.906,5.762,50,175,0,66,306
250,http://www.group15_KD_tr_onto/KRD,Kerkrade Centrum railway station,KRD,50.8614,6.0575,0.18421052631578946,http://www.group15_KD_tr_onto/380,Maastricht,380,50.906,5.762,50,175,0,66,306
251,http://www.group15_KD_tr_onto/LG,Landgraaf railway station,LG,50.8964,6.02,0.9385964912280702,http://www.group15_KD_tr_onto/380,Maastricht,380,50.906,5.762,50,175,0,66,306
252,http://www.group15_KD_tr_onto/MT,Maastricht railway station,MT,50.85,5.70528,0.7095435684647303,http://www.group15_KD_tr_onto/380,Maastricht,380,50.906,5.762,50,175,0,66,306
253,http://www.group15_KD_tr_onto/NH,Nuth railway station,NH,50.9197,5.8925,0.5,http://www.group15_KD_tr_onto/380,Maastricht,380,50.906,5.762,50,175,0,66,306
254,http://www.group15_KD_tr_onto/RM,Roermond railway station,RM,51.1933,5.99472,0.46153846153846156,http://www.group15_KD_tr_onto/380,Maastricht,380,50.906,5.762,50,175,0,66,306
255,http://www.group15_KD_tr_onto/RV,Reuver railway station,RV,51.2831,6.07944,0.7368421052631579,http://www.group15_KD_tr_onto/380,Maastricht,380,50.906,5.762,50,175,0,66,306
256,http://www.group15_KD_tr_onto/SBK,Spaubeek railway station,SBK,50.9431,5.84972,0.7236842105263158,http://www.group15_KD_tr_onto/380,Maastricht,380,50.906,5.762,50,175,0,66,306
257,http://www.group15_KD_tr_onto/SM,Swalmen railway station,SM,51.2358,6.0325,0.18421052631578946,http://www.group15_KD_tr_onto/380,Maastricht,380,50.906,5.762,50,175,0,66,306
258,http://www.group15_KD_tr_onto/SN,Schinnen railway station,SN,50.9386,5.87611,0.7894736842105263,http://www.group15_KD_tr_onto/380,Maastricht,380,50.906,5.762,50,175,0,66,306
259,http://www.group15_KD_tr_onto/SRN,Susteren railway station,SRN,51.0608,5.86278,0.2702702702702703,http://www.group15_KD_tr_onto/380,Maastricht,380,50.906,5.762,50,175,0,66,306
260,http://www.group15_KD_tr_onto/STD,Sittard railway station,STD,51.0011,5.85833,0.416,http://www.group15_KD_tr_onto/380,Maastricht,380,50.906,5.762,50,175,0,66,306
261,http://www.group15_KD_tr_onto/VDL,Voerendaal railway station,VDL,50.8867,5.92944,0.358974358974359,http://www.group15_KD_tr_onto/380,Maastricht,380,50.906,5.762,50,175,0,66,306
