,station,station_name,station_code,ts_lat,ts_long,delay,ws,ws_name,ws_code,ws_lat,ws_long,windspeed,mean_temp,percipitation,visibility,wind_direction
0,http://www.group15_KD_tr_onto/AMR,Alkmaar railway station,AMR,52.6378,4.74056,0.9,http://www.group15_KD_tr_onto/235,De Kooy,235,52.928,4.781,90,153,0,70,57
1,http://www.group15_KD_tr_onto/ANA,Anna Paulowna railway station,ANA,52.8669,4.81111,0.3956043956043956,http://www.group15_KD_tr_onto/235,De Kooy,235,52.928,4.781,90,153,0,70,57
2,http://www.group15_KD_tr_onto/HDRZ,Den Helder Zuid railway station,HDRZ,52.9331,4.76389,0.3516483516483517,http://www.group15_KD_tr_onto/235,De Kooy,235,52.928,4.781,90,153,0,70,57
3,http://www.group15_KD_tr_onto/HDR,Den Helder railway station,HDR,52.9564,4.76083,0.4666666666666667,http://www.group15_KD_tr_onto/235,De Kooy,235,52.928,4.781,90,153,0,70,57
4,http://www.group15_KD_tr_onto/HWD,Heerhugowaard railway station,HWD,52.67,4.82361,0.35294117647058826,http://www.group15_KD_tr_onto/235,De Kooy,235,52.928,4.781,90,153,0,70,57
5,http://www.group15_KD_tr_onto/OBD,Obdam railway station,OBD,52.6781,4.90833,0.5492957746478874,http://www.group15_KD_tr_onto/235,De Kooy,235,52.928,4.781,90,153,0,70,57
6,http://www.group15_KD_tr_onto/SGN,Schagen railway station,SGN,52.7861,4.80528,0.6702127659574468,http://www.group15_KD_tr_onto/235,De Kooy,235,52.928,4.781,90,153,0,70,57
7,http://www.group15_KD_tr_onto/AC,Abcoude railway station,AC,52.2744,4.98222,0.45454545454545453,http://www.group15_KD_tr_onto/240,Schiphol,240,52.318,4.79,70,169,0,70,54
8,http://www.group15_KD_tr_onto/AMPO,Almere Poort railway station,AMPO,52.3428,5.15194,0.6053811659192825,http://www.group15_KD_tr_onto/240,Schiphol,240,52.318,4.79,70,169,0,70,54
9,http://www.group15_KD_tr_onto/ASA,Amsterdam Amstel station,ASA,52.3464,4.91778,0.74,http://www.group15_KD_tr_onto/240,Schiphol,240,52.318,4.79,70,169,0,70,54
10,http://www.group15_KD_tr_onto/ASB,Amsterdam Bijlmer ArenA station,ASB,52.3131,4.94611,0.4316109422492401,http://www.group15_KD_tr_onto/240,Schiphol,240,52.318,4.79,70,169,0,70,54
11,http://www.group15_KD_tr_onto/ASDL,Amsterdam Lelylaan station,ASDL,52.3572,4.83389,1.0378151260504203,http://www.group15_KD_tr_onto/240,Schiphol,240,52.318,4.79,70,169,0,70,54
12,http://www.group15_KD_tr_onto/ASDM,Amsterdam Muiderpoort railway station,ASDM,52.3608,4.93111,0.7724137931034483,http://www.group15_KD_tr_onto/240,Schiphol,240,52.318,4.79,70,169,0,70,54
13,http://www.group15_KD_tr_onto/ASDZ,Amsterdam Zuid station,ASDZ,52.3389,4.87306,0.4114285714285714,http://www.group15_KD_tr_onto/240,Schiphol,240,52.318,4.79,70,169,0,70,54
14,http://www.group15_KD_tr_onto/ASD,Amsterdam Centraal station,ASD,52.3783,4.9,1.6898876404494383,http://www.group15_KD_tr_onto/240,Schiphol,240,52.318,4.79,70,169,0,70,54
15,http://www.group15_KD_tr_onto/ASSP,Amsterdam Science Park railway station,ASSP,52.3525,4.94861,0.9810126582278481,http://www.group15_KD_tr_onto/240,Schiphol,240,52.318,4.79,70,169,0,70,54
16,http://www.group15_KD_tr_onto/ASS,Amsterdam Sloterdijk station,ASS,52.3892,4.83806,0.8692307692307693,http://www.group15_KD_tr_onto/240,Schiphol,240,52.318,4.79,70,169,0,70,54
17,http://www.group15_KD_tr_onto/BLL,Bloemendaal railway station,BLL,52.4042,4.6275,0.4878048780487805,http://www.group15_KD_tr_onto/240,Schiphol,240,52.318,4.79,70,169,0,70,54
18,http://www.group15_KD_tr_onto/BV,Beverwijk railway station,BV,52.4783,4.65611,0.19811320754716982,http://www.group15_KD_tr_onto/240,Schiphol,240,52.318,4.79,70,169,0,70,54
19,http://www.group15_KD_tr_onto/CAS,Castricum railway station,CAS,52.5456,4.65889,0.8835341365461847,http://www.group15_KD_tr_onto/240,Schiphol,240,52.318,4.79,70,169,0,70,54
20,http://www.group15_KD_tr_onto/DMNZ,Diemen Zuid station,DMNZ,52.3303,4.95639,0.49635036496350365,http://www.group15_KD_tr_onto/240,Schiphol,240,52.318,4.79,70,169,0,70,54
21,http://www.group15_KD_tr_onto/DMN,Diemen railway station,DMN,52.3453,4.96694,0.8987341772151899,http://www.group15_KD_tr_onto/240,Schiphol,240,52.318,4.79,70,169,0,70,54
22,http://www.group15_KD_tr_onto/HAD,Heemstede-Aerdenhout railway station,HAD,52.3597,4.60694,0.34334763948497854,http://www.group15_KD_tr_onto/240,Schiphol,240,52.318,4.79,70,169,0,70,54
23,http://www.group15_KD_tr_onto/HFD,Hoofddorp railway station,HFD,52.2933,4.7,0.7159533073929961,http://www.group15_KD_tr_onto/240,Schiphol,240,52.318,4.79,70,169,0,70,54
24,http://www.group15_KD_tr_onto/HIL,Hillegom railway station,HIL,52.3028,4.56583,0.1518987341772152,http://www.group15_KD_tr_onto/240,Schiphol,240,52.318,4.79,70,169,0,70,54
25,http://www.group15_KD_tr_onto/HK,Heemskerk railway station,HK,52.4947,4.68611,0.17073170731707318,http://www.group15_KD_tr_onto/240,Schiphol,240,52.318,4.79,70,169,0,70,54
26,http://www.group15_KD_tr_onto/HLMS,Haarlem Spaarnwoude railway station,HLMS,52.3828,4.67111,0.5668789808917197,http://www.group15_KD_tr_onto/240,Schiphol,240,52.318,4.79,70,169,0,70,54
27,http://www.group15_KD_tr_onto/HLM,Haarlem railway station,HLM,52.3878,4.63889,0.25304136253041365,http://www.group15_KD_tr_onto/240,Schiphol,240,52.318,4.79,70,169,0,70,54
28,http://www.group15_KD_tr_onto/HLO,Heiloo railway station,HLO,52.6,4.70083,0.31958762886597936,http://www.group15_KD_tr_onto/240,Schiphol,240,52.318,4.79,70,169,0,70,54
29,http://www.group15_KD_tr_onto/HWZB,Halfweg-Zwanenburg railway station,HWZB,52.3847,4.75167,0.5159235668789809,http://www.group15_KD_tr_onto/240,Schiphol,240,52.318,4.79,70,169,0,70,54
30,http://www.group15_KD_tr_onto/NVP,Nieuw-Vennep railway station,NVP,52.2597,4.64556,0.841726618705036,http://www.group15_KD_tr_onto/240,Schiphol,240,52.318,4.79,70,169,0,70,54
31,http://www.group15_KD_tr_onto/OVN,Overveen railway station,OVN,52.3908,4.60778,0.32592592592592595,http://www.group15_KD_tr_onto/240,Schiphol,240,52.318,4.79,70,169,0,70,54
32,http://www.group15_KD_tr_onto/PMR,Purmerend railway station,PMR,52.5033,4.95417,1.3493975903614457,http://www.group15_KD_tr_onto/240,Schiphol,240,52.318,4.79,70,169,0,70,54
33,http://www.group15_KD_tr_onto/PMW,Purmerend Weidevenne railway station,PMW,52.4967,4.93667,1.3493975903614457,http://www.group15_KD_tr_onto/240,Schiphol,240,52.318,4.79,70,169,0,70,54
34,http://www.group15_KD_tr_onto/RAI,Amsterdam RAI station,RAI,52.3367,4.89056,0.3357664233576642,http://www.group15_KD_tr_onto/240,Schiphol,240,52.318,4.79,70,169,0,70,54
35,http://www.group15_KD_tr_onto/SHL,Schiphol Airport railway station,SHL,52.3089,4.76167,1.0719026548672566,http://www.group15_KD_tr_onto/240,Schiphol,240,52.318,4.79,70,169,0,70,54
36,http://www.group15_KD_tr_onto/SPTN,Santpoort Noord railway station,SPTN,52.4428,4.63917,0.15853658536585366,http://www.group15_KD_tr_onto/240,Schiphol,240,52.318,4.79,70,169,0,70,54
37,http://www.group15_KD_tr_onto/SPTZ,Santpoort Zuid railway station,SPTZ,52.4194,4.63167,0.18292682926829268,http://www.group15_KD_tr_onto/240,Schiphol,240,52.318,4.79,70,169,0,70,54
38,http://www.group15_KD_tr_onto/UTG,Uitgeest railway station,UTG,52.5219,4.70278,0.6644295302013423,http://www.group15_KD_tr_onto/240,Schiphol,240,52.318,4.79,70,169,0,70,54
39,http://www.group15_KD_tr_onto/WM,Wormerveer railway station,WM,52.4892,4.79278,0.8257575757575758,http://www.group15_KD_tr_onto/240,Schiphol,240,52.318,4.79,70,169,0,70,54
40,http://www.group15_KD_tr_onto/WP,Weesp railway station,WP,52.3131,5.04361,1.2960526315789473,http://www.group15_KD_tr_onto/240,Schiphol,240,52.318,4.79,70,169,0,70,54
41,http://www.group15_KD_tr_onto/ZD,Zaandam railway station,ZD,52.4389,4.81472,0.788135593220339,http://www.group15_KD_tr_onto/240,Schiphol,240,52.318,4.79,70,169,0,70,54
42,http://www.group15_KD_tr_onto/ZVT,Zandvoort aan Zee railway station,ZVT,52.3758,4.53139,0.4235294117647059,http://www.group15_KD_tr_onto/240,Schiphol,240,52.318,4.79,70,169,0,70,54
43,http://www.group15_KD_tr_onto/AKL,Arkel railway station,AKL,51.8719,4.99278,0.14102564102564102,http://www.group15_KD_tr_onto/260,De Bilt,260,52.1,5.18,60,173,0,70,52
44,http://www.group15_KD_tr_onto/BHV,Bilthoven railway station,BHV,52.13,5.20528,0.436241610738255,http://www.group15_KD_tr_onto/260,De Bilt,260,52.1,5.18,60,173,0,70,52
45,http://www.group15_KD_tr_onto/BKL,Breukelen railway station,BKL,52.17,4.99056,0.47337278106508873,http://www.group15_KD_tr_onto/260,De Bilt,260,52.1,5.18,60,173,0,70,52
46,http://www.group15_KD_tr_onto/BNK,Bunnik railway station,BNK,52.0631,5.19556,0.216,http://www.group15_KD_tr_onto/260,De Bilt,260,52.1,5.18,60,173,0,70,52
47,http://www.group15_KD_tr_onto/BSD,Beesd railway station,BSD,51.8992,5.195,0.1794871794871795,http://www.group15_KD_tr_onto/260,De Bilt,260,52.1,5.18,60,173,0,70,52
48,http://www.group15_KD_tr_onto/CL,Culemborg railway station,CL,51.9472,5.22722,0.4117647058823529,http://www.group15_KD_tr_onto/260,De Bilt,260,52.1,5.18,60,173,0,70,52
49,http://www.group15_KD_tr_onto/DB,Driebergen-Zeist railway station,DB,52.065,5.26,0.39303482587064675,http://www.group15_KD_tr_onto/260,De Bilt,260,52.1,5.18,60,173,0,70,52
50,http://www.group15_KD_tr_onto/GDM,Geldermalsen railway station,GDM,51.8839,5.27083,0.3046594982078853,http://www.group15_KD_tr_onto/260,De Bilt,260,52.1,5.18,60,173,0,70,52
51,http://www.group15_KD_tr_onto/HTN,Houten railway station,HTN,52.0344,5.16778,0.7674418604651163,http://www.group15_KD_tr_onto/260,De Bilt,260,52.1,5.18,60,173,0,70,52
52,http://www.group15_KD_tr_onto/LDM,Leerdam railway station,LDM,51.8947,5.09333,0.15384615384615385,http://www.group15_KD_tr_onto/260,De Bilt,260,52.1,5.18,60,173,0,70,52
53,http://www.group15_KD_tr_onto/MAS,Maarssen railway station,MAS,52.1358,5.03306,0.29770992366412213,http://www.group15_KD_tr_onto/260,De Bilt,260,52.1,5.18,60,173,0,70,52
54,http://www.group15_KD_tr_onto/UTLR,Utrecht Leidsche Rijn railway station,UTLR,52.0983,5.06917,0.3208955223880597,http://www.group15_KD_tr_onto/260,De Bilt,260,52.1,5.18,60,173,0,70,52
55,http://www.group15_KD_tr_onto/UTO,Utrecht Overvecht railway station,UTO,52.11,5.12528,0.2912280701754386,http://www.group15_KD_tr_onto/260,De Bilt,260,52.1,5.18,60,173,0,70,52
56,http://www.group15_KD_tr_onto/UTT,Utrecht Terwijde railway station,UTT,52.1008,5.04306,0.2835820895522388,http://www.group15_KD_tr_onto/260,De Bilt,260,52.1,5.18,60,173,0,70,52
57,http://www.group15_KD_tr_onto/UTVR,Utrecht Vaartsche Rijn railway station,UTVR,52.0786,5.1225,0.5353535353535354,http://www.group15_KD_tr_onto/260,De Bilt,260,52.1,5.18,60,173,0,70,52
58,http://www.group15_KD_tr_onto/UTZL,Utrecht Zuilen railway station,UTZL,52.1031,5.08917,0.2595419847328244,http://www.group15_KD_tr_onto/260,De Bilt,260,52.1,5.18,60,173,0,70,52
59,http://www.group15_KD_tr_onto/UT,Utrecht Centraal railway station,UT,52.0892,5.10972,0.936411149825784,http://www.group15_KD_tr_onto/260,De Bilt,260,52.1,5.18,60,173,0,70,52
60,http://www.group15_KD_tr_onto/VTN,Vleuten railway station,VTN,52.1031,5.01194,0.3656716417910448,http://www.group15_KD_tr_onto/260,De Bilt,260,52.1,5.18,60,173,0,70,52
61,http://www.group15_KD_tr_onto/WD,Woerden railway station,WD,52.0847,4.89306,0.5238095238095238,http://www.group15_KD_tr_onto/260,De Bilt,260,52.1,5.18,60,173,0,70,52
62,http://www.group15_KD_tr_onto/ZBM,Zaltbommel railway station,ZBM,51.8069,5.26472,0.37662337662337664,http://www.group15_KD_tr_onto/260,De Bilt,260,52.1,5.18,60,173,0,70,52
63,http://www.group15_KD_tr_onto/BKF,Bovenkarspel Flora railway station,BKF,52.6958,5.25306,0.358695652173913,http://www.group15_KD_tr_onto/267,Stavoren,267,52.898,5.384,90,151,0,61,56
64,http://www.group15_KD_tr_onto/BKG,Bovenkarspel-Grootebroek railway station,BKG,52.695,5.23611,0.40217391304347827,http://www.group15_KD_tr_onto/267,Stavoren,267,52.898,5.384,90,151,0,61,56
65,http://www.group15_KD_tr_onto/EKZ,Enkhuizen railway station,EKZ,52.6994,5.28778,0.5333333333333333,http://www.group15_KD_tr_onto/267,Stavoren,267,52.898,5.384,90,151,0,61,56
66,http://www.group15_KD_tr_onto/HKS,Hoogkarspel railway station,HKS,52.6906,5.18389,0.40217391304347827,http://www.group15_KD_tr_onto/267,Stavoren,267,52.898,5.384,90,151,0,61,56
67,http://www.group15_KD_tr_onto/HNP,Hindeloopen railway station,HNP,52.9461,5.42306,1.0,http://www.group15_KD_tr_onto/267,Stavoren,267,52.898,5.384,90,151,0,61,56
68,http://www.group15_KD_tr_onto/HN,Hoorn railway station,HN,52.645,5.05472,0.7902439024390244,http://www.group15_KD_tr_onto/267,Stavoren,267,52.898,5.384,90,151,0,61,56
69,http://www.group15_KD_tr_onto/IJT,IJlst railway station,IJT,53.0147,5.61639,0.6041666666666666,http://www.group15_KD_tr_onto/267,Stavoren,267,52.898,5.384,90,151,0,61,56
70,http://www.group15_KD_tr_onto/KMW,Koudum-Molkwerum railway station,KMW,52.9022,5.41056,0.6458333333333334,http://www.group15_KD_tr_onto/267,Stavoren,267,52.898,5.384,90,151,0,61,56
71,http://www.group15_KD_tr_onto/STV,Stavoren railway station,STV,52.8867,5.35972,1.3333333333333333,http://www.group15_KD_tr_onto/267,Stavoren,267,52.898,5.384,90,151,0,61,56
72,http://www.group15_KD_tr_onto/WK,Workum railway station,WK,52.9714,5.45583,0.9791666666666666,http://www.group15_KD_tr_onto/267,Stavoren,267,52.898,5.384,90,151,0,61,56
73,http://www.group15_KD_tr_onto/WV,Wolvega railway station,WV,52.8797,6.00472,0.20588235294117646,http://www.group15_KD_tr_onto/267,Stavoren,267,52.898,5.384,90,151,0,61,56
74,http://www.group15_KD_tr_onto/ALMB,Almere Buiten railway station,ALMB,52.3942,5.27778,0.5652173913043478,http://www.group15_KD_tr_onto/269,Lelystad,269,52.458,5.52,90,159,0,68,50
75,http://www.group15_KD_tr_onto/ALMM,Almere Muziekwijk railway station,ALMM,52.3675,5.19028,0.6547085201793722,http://www.group15_KD_tr_onto/269,Lelystad,269,52.458,5.52,90,159,0,68,50
76,http://www.group15_KD_tr_onto/ALMO,Almere Oostvaarders railway station,ALMO,52.4028,5.3,0.8389830508474576,http://www.group15_KD_tr_onto/269,Lelystad,269,52.458,5.52,90,159,0,68,50
77,http://www.group15_KD_tr_onto/ALMP,Almere Parkwijk railway station,ALMP,52.3767,5.24444,0.6346153846153846,http://www.group15_KD_tr_onto/269,Lelystad,269,52.458,5.52,90,159,0,68,50
78,http://www.group15_KD_tr_onto/ALM,Almere Centrum railway station,ALM,52.375,5.21778,0.7053824362606232,http://www.group15_KD_tr_onto/269,Lelystad,269,52.458,5.52,90,159,0,68,50
79,http://www.group15_KD_tr_onto/DL,Dalfsen railway station,DL,52.4981,6.25861,0.6413043478260869,http://www.group15_KD_tr_onto/269,Lelystad,269,52.458,5.52,90,159,0,68,50
80,http://www.group15_KD_tr_onto/DRON,Dronten railway station,DRON,52.5339,5.72306,0.42105263157894735,http://www.group15_KD_tr_onto/269,Lelystad,269,52.458,5.52,90,159,0,68,50
81,http://www.group15_KD_tr_onto/EML,Ermelo railway station,EML,52.3011,5.61444,0.4794520547945205,http://www.group15_KD_tr_onto/269,Lelystad,269,52.458,5.52,90,159,0,68,50
82,http://www.group15_KD_tr_onto/HDE,'t Harde railway station,HDE,52.4089,5.89306,0.3150684931506849,http://www.group15_KD_tr_onto/269,Lelystad,269,52.458,5.52,90,159,0,68,50
83,http://www.group15_KD_tr_onto/HD,Harderwijk railway station,HD,52.3375,5.61972,0.4430379746835443,http://www.group15_KD_tr_onto/269,Lelystad,269,52.458,5.52,90,159,0,68,50
84,http://www.group15_KD_tr_onto/KPNZ,Kampen Zuid railway station,KPNZ,52.5342,5.91583,0.2894736842105263,http://www.group15_KD_tr_onto/269,Lelystad,269,52.458,5.52,90,159,0,68,50
85,http://www.group15_KD_tr_onto/KPN,Kampen railway station,KPN,52.5597,5.92111,0.05263157894736842,http://www.group15_KD_tr_onto/269,Lelystad,269,52.458,5.52,90,159,0,68,50
86,http://www.group15_KD_tr_onto/LLS,Lelystad Centrum railway station,LLS,52.5078,5.47333,0.7,http://www.group15_KD_tr_onto/269,Lelystad,269,52.458,5.52,90,159,0,68,50
87,http://www.group15_KD_tr_onto/MP,Meppel railway station,MP,52.6914,6.1975,0.5285714285714286,http://www.group15_KD_tr_onto/269,Lelystad,269,52.458,5.52,90,159,0,68,50
88,http://www.group15_KD_tr_onto/NS,Nunspeet railway station,NS,52.3708,5.78472,0.410958904109589,http://www.group15_KD_tr_onto/269,Lelystad,269,52.458,5.52,90,159,0,68,50
89,http://www.group15_KD_tr_onto/OMN,Ommen railway station,OMN,52.5094,6.41694,1.076086956521739,http://www.group15_KD_tr_onto/269,Lelystad,269,52.458,5.52,90,159,0,68,50
90,http://www.group15_KD_tr_onto/PT,Putten railway station,PT,52.2653,5.57611,0.2191780821917808,http://www.group15_KD_tr_onto/269,Lelystad,269,52.458,5.52,90,159,0,68,50
91,http://www.group15_KD_tr_onto/WZ,Wezep railway station,WZ,52.4536,6.00222,0.3561643835616438,http://www.group15_KD_tr_onto/269,Lelystad,269,52.458,5.52,90,159,0,68,50
92,http://www.group15_KD_tr_onto/ZLSH,Zwolle Stadshagen railway station,ZLSH,52.5279,6.05108,0.013157894736842105,http://www.group15_KD_tr_onto/269,Lelystad,269,52.458,5.52,90,159,0,68,50
93,http://www.group15_KD_tr_onto/ZL,Zwolle railway station,ZL,52.5053,6.09056,0.5263157894736842,http://www.group15_KD_tr_onto/269,Lelystad,269,52.458,5.52,90,159,0,68,50
94,http://www.group15_KD_tr_onto/AKM,Akkrum railway station,AKM,53.0472,5.84306,0.29411764705882354,http://www.group15_KD_tr_onto/270,Leeuwarden,270,53.224,5.752,90,138,0,65,57
95,http://www.group15_KD_tr_onto/DEI,Deinum railway station,DEI,53.1886,5.72778,0.25,http://www.group15_KD_tr_onto/270,Leeuwarden,270,53.224,5.752,90,138,0,65,57
96,http://www.group15_KD_tr_onto/DRP,Dronryp railway station,DRP,53.1775,5.63472,0.22058823529411764,http://www.group15_KD_tr_onto/270,Leeuwarden,270,53.224,5.752,90,138,0,65,57
97,http://www.group15_KD_tr_onto/FN,Franeker railway station,FN,53.1822,5.54944,0.10294117647058823,http://www.group15_KD_tr_onto/270,Leeuwarden,270,53.224,5.752,90,138,0,65,57
98,http://www.group15_KD_tr_onto/GW,Grou-Jirnsum railway station,GW,53.0897,5.82222,0.2647058823529412,http://www.group15_KD_tr_onto/270,Leeuwarden,270,53.224,5.752,90,138,0,65,57
99,http://www.group15_KD_tr_onto/HDG,Hurdegaryp railway station,HDG,53.2186,5.93472,0.7941176470588235,http://www.group15_KD_tr_onto/270,Leeuwarden,270,53.224,5.752,90,138,0,65,57
100,http://www.group15_KD_tr_onto/HLG,Harlingen railway station,HLG,53.1703,5.42528,0.1323529411764706,http://www.group15_KD_tr_onto/270,Leeuwarden,270,53.224,5.752,90,138,0,65,57
101,http://www.group15_KD_tr_onto/HR,Heerenveen railway station,HR,52.9606,5.91528,0.3161764705882353,http://www.group15_KD_tr_onto/270,Leeuwarden,270,53.224,5.752,90,138,0,65,57
102,http://www.group15_KD_tr_onto/LW,Leeuwarden railway station,LW,53.1958,5.79111,0.681592039800995,http://www.group15_KD_tr_onto/270,Leeuwarden,270,53.224,5.752,90,138,0,65,57
103,http://www.group15_KD_tr_onto/MG,Mantgum railway station,MG,53.1297,5.71333,0.5076923076923077,http://www.group15_KD_tr_onto/270,Leeuwarden,270,53.224,5.752,90,138,0,65,57
104,http://www.group15_KD_tr_onto/SK,Sneek railway station,SK,53.0322,5.65167,0.5892857142857143,http://www.group15_KD_tr_onto/270,Leeuwarden,270,53.224,5.752,90,138,0,65,57
105,http://www.group15_KD_tr_onto/AHPR,Arnhem Presikhaaf railway station,AHPR,51.9875,5.94306,0.3142857142857143,http://www.group15_KD_tr_onto/275,Deelen,275,52.056,5.873,60,174,0,70,48
106,http://www.group15_KD_tr_onto/AHZ,Arnhem Zuid railway station,AHZ,51.9542,5.85167,0.2748091603053435,http://www.group15_KD_tr_onto/275,Deelen,275,52.056,5.873,60,174,0,70,48
107,http://www.group15_KD_tr_onto/AML,Almelo railway station,AML,52.3572,6.655,0.9811320754716981,http://www.group15_KD_tr_onto/275,Deelen,275,52.056,5.873,60,174,0,70,48
108,http://www.group15_KD_tr_onto/APD,Apeldoorn railway station,APD,52.2092,5.96944,0.8681318681318682,http://www.group15_KD_tr_onto/275,Deelen,275,52.056,5.873,60,174,0,70,48
109,http://www.group15_KD_tr_onto/ATN,Aalten railway station,ATN,51.9211,6.57806,1.2972972972972974,http://www.group15_KD_tr_onto/275,Deelen,275,52.056,5.873,60,174,0,70,48
110,http://www.group15_KD_tr_onto/BMN,Brummen railway station,BMN,52.0908,6.14694,0.22857142857142856,http://www.group15_KD_tr_onto/275,Deelen,275,52.056,5.873,60,174,0,70,48
111,http://www.group15_KD_tr_onto/BN,Borne railway station,BN,52.2983,6.74833,0.16842105263157894,http://www.group15_KD_tr_onto/275,Deelen,275,52.056,5.873,60,174,0,70,48
112,http://www.group15_KD_tr_onto/CK,Cuijk railway station,CK,51.7264,5.87417,0.6625,http://www.group15_KD_tr_onto/275,Deelen,275,52.056,5.873,60,174,0,70,48
113,http://www.group15_KD_tr_onto/DA,Daarlerveen railway station,DA,52.4411,6.57583,0.14814814814814814,http://www.group15_KD_tr_onto/275,Deelen,275,52.056,5.873,60,174,0,70,48
114,http://www.group15_KD_tr_onto/DDN,Delden railway station,DDN,52.26,6.71444,0.3194444444444444,http://www.group15_KD_tr_onto/275,Deelen,275,52.056,5.873,60,174,0,70,48
115,http://www.group15_KD_tr_onto/DID,Didam railway station,DID,51.9333,6.13222,1.0852713178294573,http://www.group15_KD_tr_onto/275,Deelen,275,52.056,5.873,60,174,0,70,48
116,http://www.group15_KD_tr_onto/DR,Dieren railway station,DR,52.045,6.10333,0.7605633802816901,http://www.group15_KD_tr_onto/275,Deelen,275,52.056,5.873,60,174,0,70,48
117,http://www.group15_KD_tr_onto/DTC,Doetinchem railway station,DTC,51.9583,6.29528,1.58,http://www.group15_KD_tr_onto/275,Deelen,275,52.056,5.873,60,174,0,70,48
118,http://www.group15_KD_tr_onto/DVN,Duiven railway station,DVN,51.9433,6.01417,1.2093023255813953,http://www.group15_KD_tr_onto/275,Deelen,275,52.056,5.873,60,174,0,70,48
119,http://www.group15_KD_tr_onto/DV,Deventer railway station,DV,52.2572,6.16083,1.1788617886178863,http://www.group15_KD_tr_onto/275,Deelen,275,52.056,5.873,60,174,0,70,48
120,http://www.group15_KD_tr_onto/ED,Ede-Wageningen railway station,ED,52.0278,5.67194,0.09057971014492754,http://www.group15_KD_tr_onto/275,Deelen,275,52.056,5.873,60,174,0,70,48
121,http://www.group15_KD_tr_onto/EST,Elst railway station,EST,51.9167,5.855,0.31443298969072164,http://www.group15_KD_tr_onto/275,Deelen,275,52.056,5.873,60,174,0,70,48
122,http://www.group15_KD_tr_onto/ES,Enschede railway station,ES,52.2222,6.89,0.5298507462686567,http://www.group15_KD_tr_onto/275,Deelen,275,52.056,5.873,60,174,0,70,48
123,http://www.group15_KD_tr_onto/GBR,Glanerbrug railway station,GBR,52.2186,6.97389,0.0,http://www.group15_KD_tr_onto/275,Deelen,275,52.056,5.873,60,174,0,70,48
124,http://www.group15_KD_tr_onto/GDR,Gaanderen railway station,GDR,51.9308,6.34778,1.7837837837837838,http://www.group15_KD_tr_onto/275,Deelen,275,52.056,5.873,60,174,0,70,48
125,http://www.group15_KD_tr_onto/GO,Goor railway station,GO,52.2303,6.58444,0.16901408450704225,http://www.group15_KD_tr_onto/275,Deelen,275,52.056,5.873,60,174,0,70,48
126,http://www.group15_KD_tr_onto/HGL,Hengelo railway station,HGL,52.2619,6.79417,1.0596026490066226,http://www.group15_KD_tr_onto/275,Deelen,275,52.056,5.873,60,174,0,70,48
127,http://www.group15_KD_tr_onto/HMN,Hemmen-Dodewaard railway station,HMN,51.9222,5.67333,0.03125,http://www.group15_KD_tr_onto/275,Deelen,275,52.056,5.873,60,174,0,70,48
128,http://www.group15_KD_tr_onto/HNO,Heino railway station,HNO,52.4269,6.22194,0.3974358974358974,http://www.group15_KD_tr_onto/275,Deelen,275,52.056,5.873,60,174,0,70,48
129,http://www.group15_KD_tr_onto/HON,Holten railway station,HON,52.2839,6.42056,0.3561643835616438,http://www.group15_KD_tr_onto/275,Deelen,275,52.056,5.873,60,174,0,70,48
130,http://www.group15_KD_tr_onto/KBK,Klarenbeek railway station,KBK,52.1778,6.08417,0.109375,http://www.group15_KD_tr_onto/275,Deelen,275,52.056,5.873,60,174,0,70,48
131,http://www.group15_KD_tr_onto/KLP,Veenendaal-De Klomp railway station,KLP,52.0458,5.57389,0.15853658536585366,http://www.group15_KD_tr_onto/275,Deelen,275,52.056,5.873,60,174,0,70,48
132,http://www.group15_KD_tr_onto/KTR,Kesteren railway station,KTR,51.9314,5.58361,0.029850746268656716,http://www.group15_KD_tr_onto/275,Deelen,275,52.056,5.873,60,174,0,70,48
133,http://www.group15_KD_tr_onto/LC,Lochem railway station,LC,52.1667,6.42583,0.08571428571428572,http://www.group15_KD_tr_onto/275,Deelen,275,52.056,5.873,60,174,0,70,48
134,http://www.group15_KD_tr_onto/LTV,Lichtenvoorde-Groenlo railway station,LTV,52.0117,6.59639,0.5652173913043478,http://www.group15_KD_tr_onto/275,Deelen,275,52.056,5.873,60,174,0,70,48
135,http://www.group15_KD_tr_onto/MMLH,Mook-Molenhoek railway station,MMLH,51.7647,5.8775,0.7439024390243902,http://www.group15_KD_tr_onto/275,Deelen,275,52.056,5.873,60,174,0,70,48
136,http://www.group15_KD_tr_onto/NM,Nijmegen railway station,NM,51.8433,5.8525,0.4205607476635514,http://www.group15_KD_tr_onto/275,Deelen,275,52.056,5.873,60,174,0,70,48
137,http://www.group15_KD_tr_onto/NVD,Nijverdal railway station,NVD,52.3656,6.47028,0.6826923076923077,http://www.group15_KD_tr_onto/275,Deelen,275,52.056,5.873,60,174,0,70,48
138,http://www.group15_KD_tr_onto/ODZ,Oldenzaal railway station,ODZ,52.3061,6.93361,2.0405405405405403,http://www.group15_KD_tr_onto/275,Deelen,275,52.056,5.873,60,174,0,70,48
139,http://www.group15_KD_tr_onto/OP,Opheusden railway station,OP,51.9261,5.63694,0.015625,http://www.group15_KD_tr_onto/275,Deelen,275,52.056,5.873,60,174,0,70,48
140,http://www.group15_KD_tr_onto/OST,Olst railway station,OST,52.335,6.11306,1.2702702702702702,http://www.group15_KD_tr_onto/275,Deelen,275,52.056,5.873,60,174,0,70,48
141,http://www.group15_KD_tr_onto/OTB,Oosterbeek railway station,OTB,51.9947,5.84,0.25757575757575757,http://www.group15_KD_tr_onto/275,Deelen,275,52.056,5.873,60,174,0,70,48
142,http://www.group15_KD_tr_onto/RAT,Raalte railway station,RAT,52.3908,6.27861,0.5673076923076923,http://www.group15_KD_tr_onto/275,Deelen,275,52.056,5.873,60,174,0,70,48
143,http://www.group15_KD_tr_onto/RHN,Rhenen railway station,RHN,51.9578,5.57833,0.5135135135135135,http://www.group15_KD_tr_onto/275,Deelen,275,52.056,5.873,60,174,0,70,48
144,http://www.group15_KD_tr_onto/RH,Rheden railway station,RH,52.0097,6.02972,0.22857142857142856,http://www.group15_KD_tr_onto/275,Deelen,275,52.056,5.873,60,174,0,70,48
145,http://www.group15_KD_tr_onto/RL,Ruurlo railway station,RL,52.0806,6.45,0.6376811594202898,http://www.group15_KD_tr_onto/275,Deelen,275,52.056,5.873,60,174,0,70,48
146,http://www.group15_KD_tr_onto/RSN,Rijssen railway station,RSN,52.3117,6.51917,0.2602739726027397,http://www.group15_KD_tr_onto/275,Deelen,275,52.056,5.873,60,174,0,70,48
147,http://www.group15_KD_tr_onto/RVS,Ravenstein railway station,RVS,51.7947,5.63722,0.4444444444444444,http://www.group15_KD_tr_onto/275,Deelen,275,52.056,5.873,60,174,0,70,48
148,http://www.group15_KD_tr_onto/TWL,Twello railway station,TWL,52.2381,6.1,0.12121212121212122,http://www.group15_KD_tr_onto/275,Deelen,275,52.056,5.873,60,174,0,70,48
149,http://www.group15_KD_tr_onto/VEM,Voorst-Empe railway station,VEM,52.1578,6.14278,0.171875,http://www.group15_KD_tr_onto/275,Deelen,275,52.056,5.873,60,174,0,70,48
150,http://www.group15_KD_tr_onto/VHP,Vroomshoop railway station,VHP,52.4411,6.57583,0.18518518518518517,http://www.group15_KD_tr_onto/275,Deelen,275,52.056,5.873,60,174,0,70,48
151,http://www.group15_KD_tr_onto/VP,Arnhem Velperpoort railway station,VP,51.985,5.92,0.22857142857142856,http://www.group15_KD_tr_onto/275,Deelen,275,52.056,5.873,60,174,0,70,48
152,http://www.group15_KD_tr_onto/VSV,Varsseveld railway station,VSV,51.9369,6.45806,1.4324324324324325,http://www.group15_KD_tr_onto/275,Deelen,275,52.056,5.873,60,174,0,70,48
153,http://www.group15_KD_tr_onto/VZ,Vriezenveen railway station,VZ,52.4019,6.60028,0.14814814814814814,http://www.group15_KD_tr_onto/275,Deelen,275,52.056,5.873,60,174,0,70,48
154,http://www.group15_KD_tr_onto/WC,Wijchen railway station,WC,51.8111,5.72944,0.2376237623762376,http://www.group15_KD_tr_onto/275,Deelen,275,52.056,5.873,60,174,0,70,48
155,http://www.group15_KD_tr_onto/WDN,Wierden railway station,WDN,52.3614,6.59111,0.23178807947019867,http://www.group15_KD_tr_onto/275,Deelen,275,52.056,5.873,60,174,0,70,48
156,http://www.group15_KD_tr_onto/WF,Wolfheze railway station,WF,52.0053,5.79361,0.16666666666666666,http://www.group15_KD_tr_onto/275,Deelen,275,52.056,5.873,60,174,0,70,48
157,http://www.group15_KD_tr_onto/WH,Wijhe railway station,WH,52.3936,6.14083,1.3513513513513513,http://www.group15_KD_tr_onto/275,Deelen,275,52.056,5.873,60,174,0,70,48
158,http://www.group15_KD_tr_onto/WL,Wehl railway station,WL,51.9567,6.2125,1.4728682170542635,http://www.group15_KD_tr_onto/275,Deelen,275,52.056,5.873,60,174,0,70,48
159,http://www.group15_KD_tr_onto/WWW,Winterswijk West railway station,WWW,51.9744,6.70361,0.5942028985507246,http://www.group15_KD_tr_onto/275,Deelen,275,52.056,5.873,60,174,0,70,48
160,http://www.group15_KD_tr_onto/WW,Winterswijk railway station,WW,51.9675,6.71556,1.7222222222222223,http://www.group15_KD_tr_onto/275,Deelen,275,52.056,5.873,60,174,0,70,48
161,http://www.group15_KD_tr_onto/ZA,Zetten-Andelst railway station,ZA,51.9194,5.72306,0.046875,http://www.group15_KD_tr_onto/275,Deelen,275,52.056,5.873,60,174,0,70,48
162,http://www.group15_KD_tr_onto/ZP,Zutphen railway station,ZP,52.1444,6.19389,0.7688679245283019,http://www.group15_KD_tr_onto/275,Deelen,275,52.056,5.873,60,174,0,70,48
163,http://www.group15_KD_tr_onto/ZV,Zevenaar railway station,ZV,51.9231,6.07278,5.036144578313253,http://www.group15_KD_tr_onto/275,Deelen,275,52.056,5.873,60,174,0,70,48
164,http://www.group15_KD_tr_onto/ASN,Assen railway station,ASN,52.9917,6.57056,0.6346153846153846,http://www.group15_KD_tr_onto/280,Eelde,280,53.125,6.585,70,142,0,59,48
165,http://www.group15_KD_tr_onto/BF,Baflo railway station,BF,53.3608,6.51833,0.6027397260273972,http://www.group15_KD_tr_onto/280,Eelde,280,53.125,6.585,70,142,0,59,48
166,http://www.group15_KD_tr_onto/BL,Beilen railway station,BL,52.8547,6.52083,0.8947368421052632,http://www.group15_KD_tr_onto/280,Eelde,280,53.125,6.585,70,142,0,59,48
167,http://www.group15_KD_tr_onto/DLN,Dalen railway station,DLN,52.6944,6.75806,0.5531914893617021,http://www.group15_KD_tr_onto/280,Eelde,280,53.125,6.585,70,142,0,59,48
168,http://www.group15_KD_tr_onto/EMNZ,Emmen Zuid railway station,EMNZ,52.7489,6.87472,0.9634146341463414,http://www.group15_KD_tr_onto/280,Eelde,280,53.125,6.585,70,142,0,59,48
169,http://www.group15_KD_tr_onto/EMN,Emmen railway station,EMN,52.7903,6.89917,1.8048780487804879,http://www.group15_KD_tr_onto/280,Eelde,280,53.125,6.585,70,142,0,59,48
170,http://www.group15_KD_tr_onto/GBG,Gramsbergen railway station,GBG,52.6094,6.67583,1.2765957446808511,http://www.group15_KD_tr_onto/280,Eelde,280,53.125,6.585,70,142,0,59,48
171,http://www.group15_KD_tr_onto/GK,Grijpskerk railway station,GK,53.2556,6.31056,0.5588235294117647,http://www.group15_KD_tr_onto/280,Eelde,280,53.125,6.585,70,142,0,59,48
172,http://www.group15_KD_tr_onto/GN,Groningen railway station,GN,53.2106,6.56472,0.6085526315789473,http://www.group15_KD_tr_onto/280,Eelde,280,53.125,6.585,70,142,0,59,48
173,http://www.group15_KD_tr_onto/HDB,Hardenberg railway station,HDB,52.5722,6.62778,0.6271186440677966,http://www.group15_KD_tr_onto/280,Eelde,280,53.125,6.585,70,142,0,59,48
174,http://www.group15_KD_tr_onto/HGV,Hoogeveen railway station,HGV,52.7333,6.4725,0.42105263157894735,http://www.group15_KD_tr_onto/280,Eelde,280,53.125,6.585,70,142,0,59,48
175,http://www.group15_KD_tr_onto/HRN,Haren (NL) railway station,HRN,53.175,6.61778,0.5643564356435643,http://www.group15_KD_tr_onto/280,Eelde,280,53.125,6.585,70,142,0,59,48
176,http://www.group15_KD_tr_onto/KW,Kropswolde railway station,KW,53.1617,6.72139,0.4928571428571429,http://www.group15_KD_tr_onto/280,Eelde,280,53.125,6.585,70,142,0,59,48
177,http://www.group15_KD_tr_onto/NA,Nieuw Amsterdam railway station,NA,52.7186,6.84861,0.8157894736842105,http://www.group15_KD_tr_onto/280,Eelde,280,53.125,6.585,70,142,0,59,48
178,http://www.group15_KD_tr_onto/NSCH,Bad Nieuweschans railway station,NSCH,53.1842,7.19944,0.9487179487179487,http://www.group15_KD_tr_onto/280,Eelde,280,53.125,6.585,70,142,0,59,48
179,http://www.group15_KD_tr_onto/SWK,Steenwijk railway station,SWK,52.7908,6.11611,0.33088235294117646,http://www.group15_KD_tr_onto/280,Eelde,280,53.125,6.585,70,142,0,59,48
180,http://www.group15_KD_tr_onto/VDM,Veendam railway station,VDM,53.1036,6.88472,0.2571428571428571,http://www.group15_KD_tr_onto/280,Eelde,280,53.125,6.585,70,142,0,59,48
181,http://www.group15_KD_tr_onto/VD,Coevorden railway station,VD,52.6631,6.73556,0.7246376811594203,http://www.group15_KD_tr_onto/280,Eelde,280,53.125,6.585,70,142,0,59,48
182,http://www.group15_KD_tr_onto/BGN,Bergen op Zoom railway station,BGN,51.4947,4.29611,1.2782608695652173,http://www.group15_KD_tr_onto/340,Woensdrecht,340,51.449,4.342,60,186,0,70,58
183,http://www.group15_KD_tr_onto/KBD,Krabbendijke railway station,KBD,51.4333,4.11694,0.9259259259259259,http://www.group15_KD_tr_onto/340,Woensdrecht,340,51.449,4.342,60,186,0,70,58
184,http://www.group15_KD_tr_onto/KRG,Kruiningen-Yerseke railway station,KRG,51.4653,4.03694,0.6666666666666666,http://www.group15_KD_tr_onto/340,Woensdrecht,340,51.449,4.342,60,186,0,70,58
185,http://www.group15_KD_tr_onto/ODB,Oudenbosch railway station,ODB,51.5881,4.53361,0.36231884057971014,http://www.group15_KD_tr_onto/340,Woensdrecht,340,51.449,4.342,60,186,0,70,58
186,http://www.group15_KD_tr_onto/RB,Rilland-Bath railway station,RB,51.4222,4.16111,1.0617283950617284,http://www.group15_KD_tr_onto/340,Woensdrecht,340,51.449,4.342,60,186,0,70,58
187,http://www.group15_KD_tr_onto/RSD,Roosendaal railway station,RSD,51.5403,4.45889,1.1587301587301588,http://www.group15_KD_tr_onto/340,Woensdrecht,340,51.449,4.342,60,186,0,70,58
188,http://www.group15_KD_tr_onto/BSKS,Boskoop Snijdelwijk railway station,BSKS,52.0676,4.6462,0.35384615384615387,http://www.group15_KD_tr_onto/344,Rotterdam,344,51.962,4.447,70,175,0,70,54
189,http://www.group15_KD_tr_onto/CPS,Capelle Schollevaar railway station,CPS,51.9533,4.58417,0.7570093457943925,http://www.group15_KD_tr_onto/344,Rotterdam,344,51.962,4.447,70,175,0,70,54
190,http://www.group15_KD_tr_onto/DT,Rotterdam Delftsche Poort railway station,DT,51.9253,4.47361,0.8318840579710145,http://www.group15_KD_tr_onto/344,Rotterdam,344,51.962,4.447,70,175,0,70,54
191,http://www.group15_KD_tr_onto/EC,Dordrecht railway station,EC,51.8075,4.66778,0.7297297297297297,http://www.group15_KD_tr_onto/344,Rotterdam,344,51.962,4.447,70,175,0,70,54
192,http://www.group15_KD_tr_onto/GD,Gouda railway station,GD,52.0175,4.70556,0.5198618307426598,http://www.group15_KD_tr_onto/344,Rotterdam,344,51.962,4.447,70,175,0,70,54
193,http://www.group15_KD_tr_onto/GVMW,Den Haag Moerwijk railway station,GVMW,52.0533,4.30861,0.4397163120567376,http://www.group15_KD_tr_onto/344,Rotterdam,344,51.962,4.447,70,175,0,70,54
194,http://www.group15_KD_tr_onto/NWK,Nieuwerkerk aan den IJssel railway station,NWK,51.9653,4.61694,0.8130841121495327,http://www.group15_KD_tr_onto/344,Rotterdam,344,51.962,4.447,70,175,0,70,54
195,http://www.group15_KD_tr_onto/RLB,Rotterdam Lombardijen railway station,RLB,51.8797,4.53111,1.1822916666666667,http://www.group15_KD_tr_onto/344,Rotterdam,344,51.962,4.447,70,175,0,70,54
196,http://www.group15_KD_tr_onto/RSW,Rijswijk railway station,RSW,52.0394,4.31972,0.44680851063829785,http://www.group15_KD_tr_onto/344,Rotterdam,344,51.962,4.447,70,175,0,70,54
197,http://www.group15_KD_tr_onto/RTA,Rotterdam Alexander station,RTA,51.9519,4.55278,0.7530864197530864,http://www.group15_KD_tr_onto/344,Rotterdam,344,51.962,4.447,70,175,0,70,54
198,http://www.group15_KD_tr_onto/RTB,Rotterdam Blaak station,RTB,51.92,4.48917,0.9244186046511628,http://www.group15_KD_tr_onto/344,Rotterdam,344,51.962,4.447,70,175,0,70,54
199,http://www.group15_KD_tr_onto/RTD,Rotterdam Centraal station,RTD,51.9244,4.46944,1.2371294851794072,http://www.group15_KD_tr_onto/344,Rotterdam,344,51.962,4.447,70,175,0,70,54
200,http://www.group15_KD_tr_onto/RTN,Rotterdam Noord railway station,RTN,51.9422,4.48139,1.0,http://www.group15_KD_tr_onto/344,Rotterdam,344,51.962,4.447,70,175,0,70,54
201,http://www.group15_KD_tr_onto/RTZ,Rotterdam Zuid railway station,RTZ,51.9094,4.50944,0.8385416666666666,http://www.group15_KD_tr_onto/344,Rotterdam,344,51.962,4.447,70,175,0,70,54
202,http://www.group15_KD_tr_onto/SDM,Schiedam Centrum station,SDM,51.9219,4.41,0.7744807121661721,http://www.group15_KD_tr_onto/344,Rotterdam,344,51.962,4.447,70,175,0,70,54
203,http://www.group15_KD_tr_onto/SDT,Sliedrecht Baanhoek railway station,SDT,51.8297,4.74333,0.4962962962962963,http://www.group15_KD_tr_onto/344,Rotterdam,344,51.962,4.447,70,175,0,70,54
204,http://www.group15_KD_tr_onto/YPB,Den Haag Ypenburg railway station,YPB,52.0592,4.38972,0.3111111111111111,http://www.group15_KD_tr_onto/344,Rotterdam,344,51.962,4.447,70,175,0,70,54
205,http://www.group15_KD_tr_onto/ZTM,Lansingerland-Zoetermeer railway station,ZTM,52.0394,4.52556,0.34814814814814815,http://www.group15_KD_tr_onto/344,Rotterdam,344,51.962,4.447,70,175,0,70,54
206,http://www.group15_KD_tr_onto/ZWD,Zwijndrecht railway station,ZWD,51.8147,4.64222,1.0625,http://www.group15_KD_tr_onto/344,Rotterdam,344,51.962,4.447,70,175,0,70,54
207,http://www.group15_KD_tr_onto/BD,Breda railway station,BD,51.595,4.78,2.1337792642140467,http://www.group15_KD_tr_onto/350,Gilze-Rijen,350,51.566,4.936,60,186,0,75,49
208,http://www.group15_KD_tr_onto/BHDV,Boven Hardinxveld railway station,BHDV,51.8319,4.87472,0.31851851851851853,http://www.group15_KD_tr_onto/350,Gilze-Rijen,350,51.566,4.936,60,186,0,75,49
209,http://www.group15_KD_tr_onto/ETN,Etten-Leur railway station,ETN,51.5753,4.63694,0.47368421052631576,http://www.group15_KD_tr_onto/350,Gilze-Rijen,350,51.566,4.936,60,186,0,75,49
210,http://www.group15_KD_tr_onto/GND,Hardinxveld-Giessendam railway station,GND,51.8303,4.83528,0.5407407407407407,http://www.group15_KD_tr_onto/350,Gilze-Rijen,350,51.566,4.936,60,186,0,75,49
211,http://www.group15_KD_tr_onto/GR,Gorinchem railway station,GR,51.8336,4.9675,0.25471698113207547,http://www.group15_KD_tr_onto/350,Gilze-Rijen,350,51.566,4.936,60,186,0,75,49
212,http://www.group15_KD_tr_onto/GZ,Gilze-Rijen railway station,GZ,51.5839,4.925,0.47368421052631576,http://www.group15_KD_tr_onto/350,Gilze-Rijen,350,51.566,4.936,60,186,0,75,49
213,http://www.group15_KD_tr_onto/OT,Oisterwijk railway station,OT,51.5822,5.19444,0.3150684931506849,http://www.group15_KD_tr_onto/350,Gilze-Rijen,350,51.566,4.936,60,186,0,75,49
214,http://www.group15_KD_tr_onto/TBR,Tilburg Reeshof railway station,TBR,51.5739,4.99278,0.7631578947368421,http://www.group15_KD_tr_onto/350,Gilze-Rijen,350,51.566,4.936,60,186,0,75,49
215,http://www.group15_KD_tr_onto/TBU,Tilburg Universiteit railway station,TBU,51.5653,5.05139,0.5625,http://www.group15_KD_tr_onto/350,Gilze-Rijen,350,51.566,4.936,60,186,0,75,49
216,http://www.group15_KD_tr_onto/TB,Tilburg railway station,TB,51.5606,5.08278,1.6147058823529412,http://www.group15_KD_tr_onto/350,Gilze-Rijen,350,51.566,4.936,60,186,0,75,49
217,http://www.group15_KD_tr_onto/ZLW,Lage Zwaluwe railway station,ZLW,51.6906,4.66333,0.4452054794520548,http://www.group15_KD_tr_onto/350,Gilze-Rijen,350,51.566,4.936,60,186,0,75,49
218,http://www.group15_KD_tr_onto/ZVB,Zevenbergen railway station,ZVB,51.6414,4.60972,0.7391304347826086,http://www.group15_KD_tr_onto/350,Gilze-Rijen,350,51.566,4.936,60,186,0,75,49
219,http://www.group15_KD_tr_onto/BET,Best railway station,BET,51.5097,5.38889,0.4423076923076923,http://www.group15_KD_tr_onto/370,Eindhoven,370,51.451,5.377,60,189,0,75,46
220,http://www.group15_KD_tr_onto/BMR,Boxmeer railway station,BMR,51.6444,5.93944,0.6538461538461539,http://www.group15_KD_tr_onto/370,Eindhoven,370,51.451,5.377,60,189,0,75,46
221,http://www.group15_KD_tr_onto/BR,Blerick railway station,BR,51.3725,6.155,1.1363636363636365,http://www.group15_KD_tr_onto/370,Eindhoven,370,51.451,5.377,60,189,0,75,46
222,http://www.group15_KD_tr_onto/BTL,Boxtel railway station,BTL,51.5844,5.31889,0.33125,http://www.group15_KD_tr_onto/370,Eindhoven,370,51.451,5.377,60,189,0,75,46
223,http://www.group15_KD_tr_onto/DN,Deurne railway station,DN,51.4558,5.78833,1.2792792792792793,http://www.group15_KD_tr_onto/370,Eindhoven,370,51.451,5.377,60,189,0,75,46
224,http://www.group15_KD_tr_onto/EHS,Eindhoven Stadion railway station,EHS,51.443,5.46731,0.6666666666666666,http://www.group15_KD_tr_onto/370,Eindhoven,370,51.451,5.377,60,189,0,75,46
225,http://www.group15_KD_tr_onto/EHV,Eindhoven Centraal railway station,EHV,51.4428,5.48028,1.7927107061503418,http://www.group15_KD_tr_onto/370,Eindhoven,370,51.451,5.377,60,189,0,75,46
226,http://www.group15_KD_tr_onto/GP,Geldrop railway station,GP,51.42,5.55111,0.8333333333333334,http://www.group15_KD_tr_onto/370,Eindhoven,370,51.451,5.377,60,189,0,75,46
227,http://www.group15_KD_tr_onto/HMH,Helmond 't Hout railway station,HMH,51.4678,5.63083,0.4647887323943662,http://www.group15_KD_tr_onto/370,Eindhoven,370,51.451,5.377,60,189,0,75,46
228,http://www.group15_KD_tr_onto/HM,Helmond railway station,HM,51.4756,5.66167,0.9251700680272109,http://www.group15_KD_tr_onto/370,Eindhoven,370,51.451,5.377,60,189,0,75,46
229,http://www.group15_KD_tr_onto/HRT,Horst-Sevenum railway station,HRT,51.4267,6.04194,1.0263157894736843,http://www.group15_KD_tr_onto/370,Eindhoven,370,51.451,5.377,60,189,0,75,46
230,http://www.group15_KD_tr_onto/HT,'s-Hertogenbosch railway station,HT,51.69,5.29333,0.704954954954955,http://www.group15_KD_tr_onto/370,Eindhoven,370,51.451,5.377,60,189,0,75,46
231,http://www.group15_KD_tr_onto/HZ,Heeze railway station,HZ,51.385,5.56944,1.7894736842105263,http://www.group15_KD_tr_onto/370,Eindhoven,370,51.451,5.377,60,189,0,75,46
232,http://www.group15_KD_tr_onto/MZ,Maarheeze railway station,MZ,51.3039,5.63028,0.6666666666666666,http://www.group15_KD_tr_onto/370,Eindhoven,370,51.451,5.377,60,189,0,75,46
233,http://www.group15_KD_tr_onto/OW,Oss West railway station,OW,51.7581,5.50611,0.2875,http://www.group15_KD_tr_onto/370,Eindhoven,370,51.451,5.377,60,189,0,75,46
234,http://www.group15_KD_tr_onto/O,Oss railway station,O,51.7653,5.53167,0.8562091503267973,http://www.group15_KD_tr_onto/370,Eindhoven,370,51.451,5.377,60,189,0,75,46
235,http://www.group15_KD_tr_onto/RS,Rosmalen railway station,RS,51.715,5.36889,0.325,http://www.group15_KD_tr_onto/370,Eindhoven,370,51.451,5.377,60,189,0,75,46
236,http://www.group15_KD_tr_onto/TG,Tegelen railway station,TG,51.3411,6.14333,1.8333333333333333,http://www.group15_KD_tr_onto/370,Eindhoven,370,51.451,5.377,60,189,0,75,46
237,http://www.group15_KD_tr_onto/VG,Vught railway station,VG,51.6547,5.29194,0.5783132530120482,http://www.group15_KD_tr_onto/370,Eindhoven,370,51.451,5.377,60,189,0,75,46
238,http://www.group15_KD_tr_onto/VLB,Vierlingsbeek railway station,VLB,51.5922,5.99667,1.0769230769230769,http://www.group15_KD_tr_onto/370,Eindhoven,370,51.451,5.377,60,189,0,75,46
239,http://www.group15_KD_tr_onto/VL,Venlo railway station,VL,51.3647,6.17139,1.291044776119403,http://www.group15_KD_tr_onto/370,Eindhoven,370,51.451,5.377,60,189,0,75,46
240,http://www.group15_KD_tr_onto/VRY,Venray railway station,VRY,51.5264,6.01417,1.1666666666666667,http://www.group15_KD_tr_onto/370,Eindhoven,370,51.451,5.377,60,189,0,75,46
241,http://www.group15_KD_tr_onto/WT,Weert railway station,WT,51.2486,5.7025,0.8595505617977528,http://www.group15_KD_tr_onto/370,Eindhoven,370,51.451,5.377,60,189,0,75,46
242,http://www.group15_KD_tr_onto/CVM,Chevremont railway station,CVM,50.8758,6.05944,0.06578947368421052,http://www.group15_KD_tr_onto/380,Maastricht,380,50.906,5.762,60,193,-1,75,52
243,http://www.group15_KD_tr_onto/EDN,Eijsden railway station,EDN,50.772,5.71004,0.8333333333333334,http://www.group15_KD_tr_onto/380,Maastricht,380,50.906,5.762,60,193,-1,75,52
244,http://www.group15_KD_tr_onto/EGH,Eygelshoven railway station,EGH,50.8903,6.04556,0.013157894736842105,http://www.group15_KD_tr_onto/380,Maastricht,380,50.906,5.762,60,193,-1,75,52
245,http://www.group15_KD_tr_onto/GLN,Geleen Oost railway station,GLN,50.9672,5.84306,0.631578947368421,http://www.group15_KD_tr_onto/380,Maastricht,380,50.906,5.762,60,193,-1,75,52
246,http://www.group15_KD_tr_onto/HB,Hoensbroek railway station,HB,50.9053,5.93111,0.8157894736842105,http://www.group15_KD_tr_onto/380,Maastricht,380,50.906,5.762,60,193,-1,75,52
247,http://www.group15_KD_tr_onto/HRLW,Heerlen Woonboulevard railway station,HRLW,50.8961,5.95278,0.24358974358974358,http://www.group15_KD_tr_onto/380,Maastricht,380,50.906,5.762,60,193,-1,75,52
248,http://www.group15_KD_tr_onto/HRL,Heerlen railway station,HRL,50.8908,5.97472,0.35148514851485146,http://www.group15_KD_tr_onto/380,Maastricht,380,50.906,5.762,60,193,-1,75,52
249,http://www.group15_KD_tr_onto/KMR,Klimmen-Ransdaal railway station,KMR,50.8667,5.89056,0.24358974358974358,http://www.group15_KD_tr_onto/380,Maastricht,380,50.906,5.762,60,193,-1,75,52
250,http://www.group15_KD_tr_onto/KRD,Kerkrade Centrum railway station,KRD,50.8614,6.0575,0.0,http://www.group15_KD_tr_onto/380,Maastricht,380,50.906,5.762,60,193,-1,75,52
251,http://www.group15_KD_tr_onto/LG,Landgraaf railway station,LG,50.8964,6.02,0.4824561403508772,http://www.group15_KD_tr_onto/380,Maastricht,380,50.906,5.762,60,193,-1,75,52
252,http://www.group15_KD_tr_onto/MT,Maastricht railway station,MT,50.85,5.70528,0.5661157024793388,http://www.group15_KD_tr_onto/380,Maastricht,380,50.906,5.762,60,193,-1,75,52
253,http://www.group15_KD_tr_onto/NH,Nuth railway station,NH,50.9197,5.8925,0.6973684210526315,http://www.group15_KD_tr_onto/380,Maastricht,380,50.906,5.762,60,193,-1,75,52
254,http://www.group15_KD_tr_onto/RM,Roermond railway station,RM,51.1933,5.99472,0.9495412844036697,http://www.group15_KD_tr_onto/380,Maastricht,380,50.906,5.762,60,193,-1,75,52
255,http://www.group15_KD_tr_onto/RV,Reuver railway station,RV,51.2831,6.07944,1.6025641025641026,http://www.group15_KD_tr_onto/380,Maastricht,380,50.906,5.762,60,193,-1,75,52
256,http://www.group15_KD_tr_onto/SBK,Spaubeek railway station,SBK,50.9431,5.84972,0.8026315789473685,http://www.group15_KD_tr_onto/380,Maastricht,380,50.906,5.762,60,193,-1,75,52
257,http://www.group15_KD_tr_onto/SM,Swalmen railway station,SM,51.2358,6.0325,0.7435897435897436,http://www.group15_KD_tr_onto/380,Maastricht,380,50.906,5.762,60,193,-1,75,52
258,http://www.group15_KD_tr_onto/SN,Schinnen railway station,SN,50.9386,5.87611,0.9078947368421053,http://www.group15_KD_tr_onto/380,Maastricht,380,50.906,5.762,60,193,-1,75,52
259,http://www.group15_KD_tr_onto/SRN,Susteren railway station,SRN,51.0608,5.86278,0.6756756756756757,http://www.group15_KD_tr_onto/380,Maastricht,380,50.906,5.762,60,193,-1,75,52
260,http://www.group15_KD_tr_onto/STD,Sittard railway station,STD,51.0011,5.85833,0.6911196911196911,http://www.group15_KD_tr_onto/380,Maastricht,380,50.906,5.762,60,193,-1,75,52
261,http://www.group15_KD_tr_onto/VDL,Voerendaal railway station,VDL,50.8867,5.92944,0.2564102564102564,http://www.group15_KD_tr_onto/380,Maastricht,380,50.906,5.762,60,193,-1,75,52
