,station,station_name,station_code,ts_lat,ts_long,delay,ws,ws_name,ws_code,ws_lat,ws_long,windspeed,mean_temp,percipitation,visibility,wind_direction
0,http://www.group15_KD_tr_onto/AMR,Alkmaar railway station,AMR,52.6378,4.74056,1.23463687150838,http://www.group15_KD_tr_onto/235,De Kooy,235,52.928,4.781,170,74,176,35,233
1,http://www.group15_KD_tr_onto/ANA,Anna Paulowna railway station,ANA,52.8669,4.81111,1.4157303370786516,http://www.group15_KD_tr_onto/235,De Kooy,235,52.928,4.781,170,74,176,35,233
2,http://www.group15_KD_tr_onto/HDRZ,Den Helder Zuid railway station,HDRZ,52.9331,4.76389,1.3258426966292134,http://www.group15_KD_tr_onto/235,De Kooy,235,52.928,4.781,170,74,176,35,233
3,http://www.group15_KD_tr_onto/HDR,Den Helder railway station,HDR,52.9564,4.76083,1.5,http://www.group15_KD_tr_onto/235,De Kooy,235,52.928,4.781,170,74,176,35,233
4,http://www.group15_KD_tr_onto/HWD,Heerhugowaard railway station,HWD,52.67,4.82361,1.3986928104575163,http://www.group15_KD_tr_onto/235,De Kooy,235,52.928,4.781,170,74,176,35,233
5,http://www.group15_KD_tr_onto/OBD,Obdam railway station,OBD,52.6781,4.90833,0.6933333333333334,http://www.group15_KD_tr_onto/235,De Kooy,235,52.928,4.781,170,74,176,35,233
6,http://www.group15_KD_tr_onto/SGN,Schagen railway station,SGN,52.7861,4.80528,0.9887640449438202,http://www.group15_KD_tr_onto/235,De Kooy,235,52.928,4.781,170,74,176,35,233
7,http://www.group15_KD_tr_onto/AC,Abcoude railway station,AC,52.2744,4.98222,1.054054054054054,http://www.group15_KD_tr_onto/240,Schiphol,240,52.318,4.79,190,82,191,50,238
8,http://www.group15_KD_tr_onto/AMPO,Almere Poort railway station,AMPO,52.3428,5.15194,0.4230769230769231,http://www.group15_KD_tr_onto/240,Schiphol,240,52.318,4.79,190,82,191,50,238
9,http://www.group15_KD_tr_onto/ASA,Amsterdam Amstel station,ASA,52.3464,4.91778,1.2989690721649485,http://www.group15_KD_tr_onto/240,Schiphol,240,52.318,4.79,190,82,191,50,238
10,http://www.group15_KD_tr_onto/ASB,Amsterdam Bijlmer ArenA station,ASB,52.3131,4.94611,1.0635593220338984,http://www.group15_KD_tr_onto/240,Schiphol,240,52.318,4.79,190,82,191,50,238
11,http://www.group15_KD_tr_onto/ASDL,Amsterdam Lelylaan station,ASDL,52.3572,4.83389,0.38990825688073394,http://www.group15_KD_tr_onto/240,Schiphol,240,52.318,4.79,190,82,191,50,238
12,http://www.group15_KD_tr_onto/ASDM,Amsterdam Muiderpoort railway station,ASDM,52.3608,4.93111,0.9560439560439561,http://www.group15_KD_tr_onto/240,Schiphol,240,52.318,4.79,190,82,191,50,238
13,http://www.group15_KD_tr_onto/ASDZ,Amsterdam Zuid station,ASDZ,52.3389,4.87306,0.4777227722772277,http://www.group15_KD_tr_onto/240,Schiphol,240,52.318,4.79,190,82,191,50,238
14,http://www.group15_KD_tr_onto/ASD,Amsterdam Centraal station,ASD,52.3783,4.9,1.7313642756680732,http://www.group15_KD_tr_onto/240,Schiphol,240,52.318,4.79,190,82,191,50,238
15,http://www.group15_KD_tr_onto/ASSP,Amsterdam Science Park railway station,ASSP,52.3525,4.94861,0.46296296296296297,http://www.group15_KD_tr_onto/240,Schiphol,240,52.318,4.79,190,82,191,50,238
16,http://www.group15_KD_tr_onto/ASS,Amsterdam Sloterdijk station,ASS,52.3892,4.83806,0.7278911564625851,http://www.group15_KD_tr_onto/240,Schiphol,240,52.318,4.79,190,82,191,50,238
17,http://www.group15_KD_tr_onto/BLL,Bloemendaal railway station,BLL,52.4042,4.6275,0.0,http://www.group15_KD_tr_onto/240,Schiphol,240,52.318,4.79,190,82,191,50,238
18,http://www.group15_KD_tr_onto/BV,Beverwijk railway station,BV,52.4783,4.65611,0.1223021582733813,http://www.group15_KD_tr_onto/240,Schiphol,240,52.318,4.79,190,82,191,50,238
19,http://www.group15_KD_tr_onto/CAS,Castricum railway station,CAS,52.5456,4.65889,1.062200956937799,http://www.group15_KD_tr_onto/240,Schiphol,240,52.318,4.79,190,82,191,50,238
20,http://www.group15_KD_tr_onto/DMNZ,Diemen Zuid station,DMNZ,52.3303,4.95639,0.3949579831932773,http://www.group15_KD_tr_onto/240,Schiphol,240,52.318,4.79,190,82,191,50,238
21,http://www.group15_KD_tr_onto/DMN,Diemen railway station,DMN,52.3453,4.96694,0.4506172839506173,http://www.group15_KD_tr_onto/240,Schiphol,240,52.318,4.79,190,82,191,50,238
22,http://www.group15_KD_tr_onto/HAD,Heemstede-Aerdenhout railway station,HAD,52.3597,4.60694,0.6027397260273972,http://www.group15_KD_tr_onto/240,Schiphol,240,52.318,4.79,190,82,191,50,238
23,http://www.group15_KD_tr_onto/HFD,Hoofddorp railway station,HFD,52.2933,4.7,0.42995169082125606,http://www.group15_KD_tr_onto/240,Schiphol,240,52.318,4.79,190,82,191,50,238
24,http://www.group15_KD_tr_onto/HIL,Hillegom railway station,HIL,52.3028,4.56583,0.3380281690140845,http://www.group15_KD_tr_onto/240,Schiphol,240,52.318,4.79,190,82,191,50,238
25,http://www.group15_KD_tr_onto/HK,Heemskerk railway station,HK,52.4947,4.68611,0.3333333333333333,http://www.group15_KD_tr_onto/240,Schiphol,240,52.318,4.79,190,82,191,50,238
26,http://www.group15_KD_tr_onto/HLMS,Haarlem Spaarnwoude railway station,HLMS,52.3828,4.67111,0.8201438848920863,http://www.group15_KD_tr_onto/240,Schiphol,240,52.318,4.79,190,82,191,50,238
27,http://www.group15_KD_tr_onto/HLM,Haarlem railway station,HLM,52.3878,4.63889,0.40894568690095845,http://www.group15_KD_tr_onto/240,Schiphol,240,52.318,4.79,190,82,191,50,238
28,http://www.group15_KD_tr_onto/HLO,Heiloo railway station,HLO,52.6,4.70083,1.0617283950617284,http://www.group15_KD_tr_onto/240,Schiphol,240,52.318,4.79,190,82,191,50,238
29,http://www.group15_KD_tr_onto/HWZB,Halfweg-Zwanenburg railway station,HWZB,52.3847,4.75167,0.5683453237410072,http://www.group15_KD_tr_onto/240,Schiphol,240,52.318,4.79,190,82,191,50,238
30,http://www.group15_KD_tr_onto/NVP,Nieuw-Vennep railway station,NVP,52.2597,4.64556,0.28378378378378377,http://www.group15_KD_tr_onto/240,Schiphol,240,52.318,4.79,190,82,191,50,238
31,http://www.group15_KD_tr_onto/OVN,Overveen railway station,OVN,52.3908,4.60778,0.7142857142857143,http://www.group15_KD_tr_onto/240,Schiphol,240,52.318,4.79,190,82,191,50,238
32,http://www.group15_KD_tr_onto/PMR,Purmerend railway station,PMR,52.5033,4.95417,0.6521739130434783,http://www.group15_KD_tr_onto/240,Schiphol,240,52.318,4.79,190,82,191,50,238
33,http://www.group15_KD_tr_onto/PMW,Purmerend Weidevenne railway station,PMW,52.4967,4.93667,0.6666666666666666,http://www.group15_KD_tr_onto/240,Schiphol,240,52.318,4.79,190,82,191,50,238
34,http://www.group15_KD_tr_onto/RAI,Amsterdam RAI station,RAI,52.3367,4.89056,0.3865546218487395,http://www.group15_KD_tr_onto/240,Schiphol,240,52.318,4.79,190,82,191,50,238
35,http://www.group15_KD_tr_onto/SHL,Schiphol Airport railway station,SHL,52.3089,4.76167,1.5169230769230768,http://www.group15_KD_tr_onto/240,Schiphol,240,52.318,4.79,190,82,191,50,238
36,http://www.group15_KD_tr_onto/SPTN,Santpoort Noord railway station,SPTN,52.4428,4.63917,0.0,http://www.group15_KD_tr_onto/240,Schiphol,240,52.318,4.79,190,82,191,50,238
37,http://www.group15_KD_tr_onto/SPTZ,Santpoort Zuid railway station,SPTZ,52.4194,4.63167,0.0,http://www.group15_KD_tr_onto/240,Schiphol,240,52.318,4.79,190,82,191,50,238
38,http://www.group15_KD_tr_onto/UTG,Uitgeest railway station,UTG,52.5219,4.70278,0.8040540540540541,http://www.group15_KD_tr_onto/240,Schiphol,240,52.318,4.79,190,82,191,50,238
39,http://www.group15_KD_tr_onto/WM,Wormerveer railway station,WM,52.4892,4.79278,1.1478260869565218,http://www.group15_KD_tr_onto/240,Schiphol,240,52.318,4.79,190,82,191,50,238
40,http://www.group15_KD_tr_onto/WP,Weesp railway station,WP,52.3131,5.04361,0.42704626334519574,http://www.group15_KD_tr_onto/240,Schiphol,240,52.318,4.79,190,82,191,50,238
41,http://www.group15_KD_tr_onto/ZD,Zaandam railway station,ZD,52.4389,4.81472,1.0,http://www.group15_KD_tr_onto/240,Schiphol,240,52.318,4.79,190,82,191,50,238
42,http://www.group15_KD_tr_onto/ZVT,Zandvoort aan Zee railway station,ZVT,52.3758,4.53139,1.3333333333333333,http://www.group15_KD_tr_onto/240,Schiphol,240,52.318,4.79,190,82,191,50,238
43,http://www.group15_KD_tr_onto/AKL,Arkel railway station,AKL,51.8719,4.99278,0.08333333333333333,http://www.group15_KD_tr_onto/260,De Bilt,260,52.1,5.18,120,82,342,40,230
44,http://www.group15_KD_tr_onto/BHV,Bilthoven railway station,BHV,52.13,5.20528,0.31343283582089554,http://www.group15_KD_tr_onto/260,De Bilt,260,52.1,5.18,120,82,342,40,230
45,http://www.group15_KD_tr_onto/BKL,Breukelen railway station,BKL,52.17,4.99056,0.6433566433566433,http://www.group15_KD_tr_onto/260,De Bilt,260,52.1,5.18,120,82,342,40,230
46,http://www.group15_KD_tr_onto/BNK,Bunnik railway station,BNK,52.0631,5.19556,0.1308411214953271,http://www.group15_KD_tr_onto/260,De Bilt,260,52.1,5.18,120,82,342,40,230
47,http://www.group15_KD_tr_onto/BSD,Beesd railway station,BSD,51.8992,5.195,0.4861111111111111,http://www.group15_KD_tr_onto/260,De Bilt,260,52.1,5.18,120,82,342,40,230
48,http://www.group15_KD_tr_onto/CL,Culemborg railway station,CL,51.9472,5.22722,0.19117647058823528,http://www.group15_KD_tr_onto/260,De Bilt,260,52.1,5.18,120,82,342,40,230
49,http://www.group15_KD_tr_onto/DB,Driebergen-Zeist railway station,DB,52.065,5.26,0.4936708860759494,http://www.group15_KD_tr_onto/260,De Bilt,260,52.1,5.18,120,82,342,40,230
50,http://www.group15_KD_tr_onto/GDM,Geldermalsen railway station,GDM,51.8839,5.27083,0.23243243243243245,http://www.group15_KD_tr_onto/260,De Bilt,260,52.1,5.18,120,82,342,40,230
51,http://www.group15_KD_tr_onto/HTN,Houten railway station,HTN,52.0344,5.16778,0.3188405797101449,http://www.group15_KD_tr_onto/260,De Bilt,260,52.1,5.18,120,82,342,40,230
52,http://www.group15_KD_tr_onto/LDM,Leerdam railway station,LDM,51.8947,5.09333,0.25,http://www.group15_KD_tr_onto/260,De Bilt,260,52.1,5.18,120,82,342,40,230
53,http://www.group15_KD_tr_onto/MAS,Maarssen railway station,MAS,52.1358,5.03306,0.33636363636363636,http://www.group15_KD_tr_onto/260,De Bilt,260,52.1,5.18,120,82,342,40,230
54,http://www.group15_KD_tr_onto/UTLR,Utrecht Leidsche Rijn railway station,UTLR,52.0983,5.06917,0.1232876712328767,http://www.group15_KD_tr_onto/260,De Bilt,260,52.1,5.18,120,82,342,40,230
55,http://www.group15_KD_tr_onto/UTO,Utrecht Overvecht railway station,UTO,52.11,5.12528,0.3333333333333333,http://www.group15_KD_tr_onto/260,De Bilt,260,52.1,5.18,120,82,342,40,230
56,http://www.group15_KD_tr_onto/UTT,Utrecht Terwijde railway station,UTT,52.1008,5.04306,0.0273972602739726,http://www.group15_KD_tr_onto/260,De Bilt,260,52.1,5.18,120,82,342,40,230
57,http://www.group15_KD_tr_onto/UTVR,Utrecht Vaartsche Rijn railway station,UTVR,52.0786,5.1225,0.2222222222222222,http://www.group15_KD_tr_onto/260,De Bilt,260,52.1,5.18,120,82,342,40,230
58,http://www.group15_KD_tr_onto/UTZL,Utrecht Zuilen railway station,UTZL,52.1031,5.08917,0.25688073394495414,http://www.group15_KD_tr_onto/260,De Bilt,260,52.1,5.18,120,82,342,40,230
59,http://www.group15_KD_tr_onto/UT,Utrecht Centraal railway station,UT,52.0892,5.10972,1.2238979118329467,http://www.group15_KD_tr_onto/260,De Bilt,260,52.1,5.18,120,82,342,40,230
60,http://www.group15_KD_tr_onto/VTN,Vleuten railway station,VTN,52.1031,5.01194,0.0821917808219178,http://www.group15_KD_tr_onto/260,De Bilt,260,52.1,5.18,120,82,342,40,230
61,http://www.group15_KD_tr_onto/WD,Woerden railway station,WD,52.0847,4.89306,0.3886255924170616,http://www.group15_KD_tr_onto/260,De Bilt,260,52.1,5.18,120,82,342,40,230
62,http://www.group15_KD_tr_onto/ZBM,Zaltbommel railway station,ZBM,51.8069,5.26472,0.13043478260869565,http://www.group15_KD_tr_onto/260,De Bilt,260,52.1,5.18,120,82,342,40,230
63,http://www.group15_KD_tr_onto/BKF,Bovenkarspel Flora railway station,BKF,52.6958,5.25306,0.323943661971831,http://www.group15_KD_tr_onto/267,Stavoren,267,52.898,5.384,180,73,235,50,236
64,http://www.group15_KD_tr_onto/BKG,Bovenkarspel-Grootebroek railway station,BKG,52.695,5.23611,0.4084507042253521,http://www.group15_KD_tr_onto/267,Stavoren,267,52.898,5.384,180,73,235,50,236
65,http://www.group15_KD_tr_onto/EKZ,Enkhuizen railway station,EKZ,52.6994,5.28778,0.5833333333333334,http://www.group15_KD_tr_onto/267,Stavoren,267,52.898,5.384,180,73,235,50,236
66,http://www.group15_KD_tr_onto/HKS,Hoogkarspel railway station,HKS,52.6906,5.18389,0.352112676056338,http://www.group15_KD_tr_onto/267,Stavoren,267,52.898,5.384,180,73,235,50,236
67,http://www.group15_KD_tr_onto/HNP,Hindeloopen railway station,HNP,52.9461,5.42306,0.03333333333333333,http://www.group15_KD_tr_onto/267,Stavoren,267,52.898,5.384,180,73,235,50,236
68,http://www.group15_KD_tr_onto/HN,Hoorn railway station,HN,52.645,5.05472,0.5909090909090909,http://www.group15_KD_tr_onto/267,Stavoren,267,52.898,5.384,180,73,235,50,236
69,http://www.group15_KD_tr_onto/IJT,IJlst railway station,IJT,53.0147,5.61639,0.03333333333333333,http://www.group15_KD_tr_onto/267,Stavoren,267,52.898,5.384,180,73,235,50,236
70,http://www.group15_KD_tr_onto/KMW,Koudum-Molkwerum railway station,KMW,52.9022,5.41056,0.0,http://www.group15_KD_tr_onto/267,Stavoren,267,52.898,5.384,180,73,235,50,236
71,http://www.group15_KD_tr_onto/STV,Stavoren railway station,STV,52.8867,5.35972,0.0,http://www.group15_KD_tr_onto/267,Stavoren,267,52.898,5.384,180,73,235,50,236
72,http://www.group15_KD_tr_onto/WK,Workum railway station,WK,52.9714,5.45583,0.16666666666666666,http://www.group15_KD_tr_onto/267,Stavoren,267,52.898,5.384,180,73,235,50,236
73,http://www.group15_KD_tr_onto/WV,Wolvega railway station,WV,52.8797,6.00472,1.5263157894736843,http://www.group15_KD_tr_onto/267,Stavoren,267,52.898,5.384,180,73,235,50,236
74,http://www.group15_KD_tr_onto/ALMB,Almere Buiten railway station,ALMB,52.3942,5.27778,0.4391891891891892,http://www.group15_KD_tr_onto/269,Lelystad,269,52.458,5.52,170,79,302,22,234
75,http://www.group15_KD_tr_onto/ALMM,Almere Muziekwijk railway station,ALMM,52.3675,5.19028,0.45604395604395603,http://www.group15_KD_tr_onto/269,Lelystad,269,52.458,5.52,170,79,302,22,234
76,http://www.group15_KD_tr_onto/ALMO,Almere Oostvaarders railway station,ALMO,52.4028,5.3,0.7043478260869566,http://www.group15_KD_tr_onto/269,Lelystad,269,52.458,5.52,170,79,302,22,234
77,http://www.group15_KD_tr_onto/ALMP,Almere Parkwijk railway station,ALMP,52.3767,5.24444,0.42567567567567566,http://www.group15_KD_tr_onto/269,Lelystad,269,52.458,5.52,170,79,302,22,234
78,http://www.group15_KD_tr_onto/ALM,Almere Centrum railway station,ALM,52.375,5.21778,0.5964285714285714,http://www.group15_KD_tr_onto/269,Lelystad,269,52.458,5.52,170,79,302,22,234
79,http://www.group15_KD_tr_onto/DL,Dalfsen railway station,DL,52.4981,6.25861,0.1935483870967742,http://www.group15_KD_tr_onto/269,Lelystad,269,52.458,5.52,170,79,302,22,234
80,http://www.group15_KD_tr_onto/DRON,Dronten railway station,DRON,52.5339,5.72306,1.4931506849315068,http://www.group15_KD_tr_onto/269,Lelystad,269,52.458,5.52,170,79,302,22,234
81,http://www.group15_KD_tr_onto/EML,Ermelo railway station,EML,52.3011,5.61444,0.44776119402985076,http://www.group15_KD_tr_onto/269,Lelystad,269,52.458,5.52,170,79,302,22,234
82,http://www.group15_KD_tr_onto/HDE,'t Harde railway station,HDE,52.4089,5.89306,0.3333333333333333,http://www.group15_KD_tr_onto/269,Lelystad,269,52.458,5.52,170,79,302,22,234
83,http://www.group15_KD_tr_onto/HD,Harderwijk railway station,HD,52.3375,5.61972,0.47058823529411764,http://www.group15_KD_tr_onto/269,Lelystad,269,52.458,5.52,170,79,302,22,234
84,http://www.group15_KD_tr_onto/KPNZ,Kampen Zuid railway station,KPNZ,52.5342,5.91583,1.3125,http://www.group15_KD_tr_onto/269,Lelystad,269,52.458,5.52,170,79,302,22,234
85,http://www.group15_KD_tr_onto/KPN,Kampen railway station,KPN,52.5597,5.92111,0.05714285714285714,http://www.group15_KD_tr_onto/269,Lelystad,269,52.458,5.52,170,79,302,22,234
86,http://www.group15_KD_tr_onto/LLS,Lelystad Centrum railway station,LLS,52.5078,5.47333,1.2142857142857142,http://www.group15_KD_tr_onto/269,Lelystad,269,52.458,5.52,170,79,302,22,234
87,http://www.group15_KD_tr_onto/MP,Meppel railway station,MP,52.6914,6.1975,1.1313868613138687,http://www.group15_KD_tr_onto/269,Lelystad,269,52.458,5.52,170,79,302,22,234
88,http://www.group15_KD_tr_onto/NS,Nunspeet railway station,NS,52.3708,5.78472,0.47761194029850745,http://www.group15_KD_tr_onto/269,Lelystad,269,52.458,5.52,170,79,302,22,234
89,http://www.group15_KD_tr_onto/OMN,Ommen railway station,OMN,52.5094,6.41694,0.8225806451612904,http://www.group15_KD_tr_onto/269,Lelystad,269,52.458,5.52,170,79,302,22,234
90,http://www.group15_KD_tr_onto/PT,Putten railway station,PT,52.2653,5.57611,0.417910447761194,http://www.group15_KD_tr_onto/269,Lelystad,269,52.458,5.52,170,79,302,22,234
91,http://www.group15_KD_tr_onto/WZ,Wezep railway station,WZ,52.4536,6.00222,0.3424657534246575,http://www.group15_KD_tr_onto/269,Lelystad,269,52.458,5.52,170,79,302,22,234
92,http://www.group15_KD_tr_onto/ZLSH,Zwolle Stadshagen railway station,ZLSH,52.5279,6.05108,0.014285714285714285,http://www.group15_KD_tr_onto/269,Lelystad,269,52.458,5.52,170,79,302,22,234
93,http://www.group15_KD_tr_onto/ZL,Zwolle railway station,ZL,52.5053,6.09056,0.7002652519893899,http://www.group15_KD_tr_onto/269,Lelystad,269,52.458,5.52,170,79,302,22,234
94,http://www.group15_KD_tr_onto/AKM,Akkrum railway station,AKM,53.0472,5.84306,1.4473684210526316,http://www.group15_KD_tr_onto/270,Leeuwarden,270,53.224,5.752,160,69,197,48,235
95,http://www.group15_KD_tr_onto/DEI,Deinum railway station,DEI,53.1886,5.72778,0.11666666666666667,http://www.group15_KD_tr_onto/270,Leeuwarden,270,53.224,5.752,160,69,197,48,235
96,http://www.group15_KD_tr_onto/DRP,Dronryp railway station,DRP,53.1775,5.63472,0.06666666666666667,http://www.group15_KD_tr_onto/270,Leeuwarden,270,53.224,5.752,160,69,197,48,235
97,http://www.group15_KD_tr_onto/FN,Franeker railway station,FN,53.1822,5.54944,0.0,http://www.group15_KD_tr_onto/270,Leeuwarden,270,53.224,5.752,160,69,197,48,235
98,http://www.group15_KD_tr_onto/GW,Grou-Jirnsum railway station,GW,53.0897,5.82222,1.368421052631579,http://www.group15_KD_tr_onto/270,Leeuwarden,270,53.224,5.752,160,69,197,48,235
99,http://www.group15_KD_tr_onto/HDG,Hurdegaryp railway station,HDG,53.2186,5.93472,0.7105263157894737,http://www.group15_KD_tr_onto/270,Leeuwarden,270,53.224,5.752,160,69,197,48,235
100,http://www.group15_KD_tr_onto/HLG,Harlingen railway station,HLG,53.1703,5.42528,0.05,http://www.group15_KD_tr_onto/270,Leeuwarden,270,53.224,5.752,160,69,197,48,235
101,http://www.group15_KD_tr_onto/HR,Heerenveen railway station,HR,52.9606,5.91528,1.15,http://www.group15_KD_tr_onto/270,Leeuwarden,270,53.224,5.752,160,69,197,48,235
102,http://www.group15_KD_tr_onto/LW,Leeuwarden railway station,LW,53.1958,5.79111,0.8181818181818182,http://www.group15_KD_tr_onto/270,Leeuwarden,270,53.224,5.752,160,69,197,48,235
103,http://www.group15_KD_tr_onto/MG,Mantgum railway station,MG,53.1297,5.71333,0.47058823529411764,http://www.group15_KD_tr_onto/270,Leeuwarden,270,53.224,5.752,160,69,197,48,235
104,http://www.group15_KD_tr_onto/SK,Sneek railway station,SK,53.0322,5.65167,0.3125,http://www.group15_KD_tr_onto/270,Leeuwarden,270,53.224,5.752,160,69,197,48,235
105,http://www.group15_KD_tr_onto/AHPR,Arnhem Presikhaaf railway station,AHPR,51.9875,5.94306,0.3582089552238806,http://www.group15_KD_tr_onto/275,Deelen,275,52.056,5.873,130,75,389,38,231
106,http://www.group15_KD_tr_onto/AHZ,Arnhem Zuid railway station,AHZ,51.9542,5.85167,0.5142857142857142,http://www.group15_KD_tr_onto/275,Deelen,275,52.056,5.873,130,75,389,38,231
107,http://www.group15_KD_tr_onto/AML,Almelo railway station,AML,52.3572,6.655,0.5363636363636364,http://www.group15_KD_tr_onto/275,Deelen,275,52.056,5.873,130,75,389,38,231
108,http://www.group15_KD_tr_onto/APD,Apeldoorn railway station,APD,52.2092,5.96944,0.38164251207729466,http://www.group15_KD_tr_onto/275,Deelen,275,52.056,5.873,130,75,389,38,231
109,http://www.group15_KD_tr_onto/ATN,Aalten railway station,ATN,51.9211,6.57806,0.62,http://www.group15_KD_tr_onto/275,Deelen,275,52.056,5.873,130,75,389,38,231
110,http://www.group15_KD_tr_onto/BMN,Brummen railway station,BMN,52.0908,6.14694,0.06060606060606061,http://www.group15_KD_tr_onto/275,Deelen,275,52.056,5.873,130,75,389,38,231
111,http://www.group15_KD_tr_onto/BN,Borne railway station,BN,52.2983,6.74833,0.6818181818181818,http://www.group15_KD_tr_onto/275,Deelen,275,52.056,5.873,130,75,389,38,231
112,http://www.group15_KD_tr_onto/CK,Cuijk railway station,CK,51.7264,5.87417,0.5882352941176471,http://www.group15_KD_tr_onto/275,Deelen,275,52.056,5.873,130,75,389,38,231
113,http://www.group15_KD_tr_onto/DA,Daarlerveen railway station,DA,52.4411,6.57583,0.4375,http://www.group15_KD_tr_onto/275,Deelen,275,52.056,5.873,130,75,389,38,231
114,http://www.group15_KD_tr_onto/DDN,Delden railway station,DDN,52.26,6.71444,0.46153846153846156,http://www.group15_KD_tr_onto/275,Deelen,275,52.056,5.873,130,75,389,38,231
115,http://www.group15_KD_tr_onto/DID,Didam railway station,DID,51.9333,6.13222,0.5,http://www.group15_KD_tr_onto/275,Deelen,275,52.056,5.873,130,75,389,38,231
116,http://www.group15_KD_tr_onto/DR,Dieren railway station,DR,52.045,6.10333,0.2865853658536585,http://www.group15_KD_tr_onto/275,Deelen,275,52.056,5.873,130,75,389,38,231
117,http://www.group15_KD_tr_onto/DTC,Doetinchem railway station,DTC,51.9583,6.29528,0.734375,http://www.group15_KD_tr_onto/275,Deelen,275,52.056,5.873,130,75,389,38,231
118,http://www.group15_KD_tr_onto/DVN,Duiven railway station,DVN,51.9433,6.01417,0.5882352941176471,http://www.group15_KD_tr_onto/275,Deelen,275,52.056,5.873,130,75,389,38,231
119,http://www.group15_KD_tr_onto/DV,Deventer railway station,DV,52.2572,6.16083,0.3238993710691824,http://www.group15_KD_tr_onto/275,Deelen,275,52.056,5.873,130,75,389,38,231
120,http://www.group15_KD_tr_onto/ED,Ede-Wageningen railway station,ED,52.0278,5.67194,0.3390804597701149,http://www.group15_KD_tr_onto/275,Deelen,275,52.056,5.873,130,75,389,38,231
121,http://www.group15_KD_tr_onto/EST,Elst railway station,EST,51.9167,5.855,0.4215686274509804,http://www.group15_KD_tr_onto/275,Deelen,275,52.056,5.873,130,75,389,38,231
122,http://www.group15_KD_tr_onto/ES,Enschede railway station,ES,52.2222,6.89,0.652542372881356,http://www.group15_KD_tr_onto/275,Deelen,275,52.056,5.873,130,75,389,38,231
123,http://www.group15_KD_tr_onto/GBR,Glanerbrug railway station,GBR,52.2186,6.97389,0.0,http://www.group15_KD_tr_onto/275,Deelen,275,52.056,5.873,130,75,389,38,231
124,http://www.group15_KD_tr_onto/GDR,Gaanderen railway station,GDR,51.9308,6.34778,0.6833333333333333,http://www.group15_KD_tr_onto/275,Deelen,275,52.056,5.873,130,75,389,38,231
125,http://www.group15_KD_tr_onto/GO,Goor railway station,GO,52.2303,6.58444,0.09803921568627451,http://www.group15_KD_tr_onto/275,Deelen,275,52.056,5.873,130,75,389,38,231
126,http://www.group15_KD_tr_onto/HGL,Hengelo railway station,HGL,52.2619,6.79417,0.4770992366412214,http://www.group15_KD_tr_onto/275,Deelen,275,52.056,5.873,130,75,389,38,231
127,http://www.group15_KD_tr_onto/HMN,Hemmen-Dodewaard railway station,HMN,51.9222,5.67333,0.03333333333333333,http://www.group15_KD_tr_onto/275,Deelen,275,52.056,5.873,130,75,389,38,231
128,http://www.group15_KD_tr_onto/HNO,Heino railway station,HNO,52.4269,6.22194,0.48484848484848486,http://www.group15_KD_tr_onto/275,Deelen,275,52.056,5.873,130,75,389,38,231
129,http://www.group15_KD_tr_onto/HON,Holten railway station,HON,52.2839,6.42056,0.29411764705882354,http://www.group15_KD_tr_onto/275,Deelen,275,52.056,5.873,130,75,389,38,231
130,http://www.group15_KD_tr_onto/KBK,Klarenbeek railway station,KBK,52.1778,6.08417,0.45454545454545453,http://www.group15_KD_tr_onto/275,Deelen,275,52.056,5.873,130,75,389,38,231
131,http://www.group15_KD_tr_onto/KLP,Veenendaal-De Klomp railway station,KLP,52.0458,5.57389,0.42857142857142855,http://www.group15_KD_tr_onto/275,Deelen,275,52.056,5.873,130,75,389,38,231
132,http://www.group15_KD_tr_onto/KTR,Kesteren railway station,KTR,51.9314,5.58361,0.08823529411764706,http://www.group15_KD_tr_onto/275,Deelen,275,52.056,5.873,130,75,389,38,231
133,http://www.group15_KD_tr_onto/LC,Lochem railway station,LC,52.1667,6.42583,0.06578947368421052,http://www.group15_KD_tr_onto/275,Deelen,275,52.056,5.873,130,75,389,38,231
134,http://www.group15_KD_tr_onto/LTV,Lichtenvoorde-Groenlo railway station,LTV,52.0117,6.59639,0.1346153846153846,http://www.group15_KD_tr_onto/275,Deelen,275,52.056,5.873,130,75,389,38,231
135,http://www.group15_KD_tr_onto/MMLH,Mook-Molenhoek railway station,MMLH,51.7647,5.8775,0.8970588235294118,http://www.group15_KD_tr_onto/275,Deelen,275,52.056,5.873,130,75,389,38,231
136,http://www.group15_KD_tr_onto/NM,Nijmegen railway station,NM,51.8433,5.8525,1.021551724137931,http://www.group15_KD_tr_onto/275,Deelen,275,52.056,5.873,130,75,389,38,231
137,http://www.group15_KD_tr_onto/NVD,Nijverdal railway station,NVD,52.3656,6.47028,0.9696969696969697,http://www.group15_KD_tr_onto/275,Deelen,275,52.056,5.873,130,75,389,38,231
138,http://www.group15_KD_tr_onto/ODZ,Oldenzaal railway station,ODZ,52.3061,6.93361,0.04,http://www.group15_KD_tr_onto/275,Deelen,275,52.056,5.873,130,75,389,38,231
139,http://www.group15_KD_tr_onto/OP,Opheusden railway station,OP,51.9261,5.63694,0.03333333333333333,http://www.group15_KD_tr_onto/275,Deelen,275,52.056,5.873,130,75,389,38,231
140,http://www.group15_KD_tr_onto/OST,Olst railway station,OST,52.335,6.11306,0.3787878787878788,http://www.group15_KD_tr_onto/275,Deelen,275,52.056,5.873,130,75,389,38,231
141,http://www.group15_KD_tr_onto/OTB,Oosterbeek railway station,OTB,51.9947,5.84,0.4,http://www.group15_KD_tr_onto/275,Deelen,275,52.056,5.873,130,75,389,38,231
142,http://www.group15_KD_tr_onto/RAT,Raalte railway station,RAT,52.3908,6.27861,0.803030303030303,http://www.group15_KD_tr_onto/275,Deelen,275,52.056,5.873,130,75,389,38,231
143,http://www.group15_KD_tr_onto/RHN,Rhenen railway station,RHN,51.9578,5.57833,0.20588235294117646,http://www.group15_KD_tr_onto/275,Deelen,275,52.056,5.873,130,75,389,38,231
144,http://www.group15_KD_tr_onto/RH,Rheden railway station,RH,52.0097,6.02972,0.14925373134328357,http://www.group15_KD_tr_onto/275,Deelen,275,52.056,5.873,130,75,389,38,231
145,http://www.group15_KD_tr_onto/RL,Ruurlo railway station,RL,52.0806,6.45,0.25,http://www.group15_KD_tr_onto/275,Deelen,275,52.056,5.873,130,75,389,38,231
146,http://www.group15_KD_tr_onto/RSN,Rijssen railway station,RSN,52.3117,6.51917,0.08823529411764706,http://www.group15_KD_tr_onto/275,Deelen,275,52.056,5.873,130,75,389,38,231
147,http://www.group15_KD_tr_onto/RVS,Ravenstein railway station,RVS,51.7947,5.63722,1.3484848484848484,http://www.group15_KD_tr_onto/275,Deelen,275,52.056,5.873,130,75,389,38,231
148,http://www.group15_KD_tr_onto/TWL,Twello railway station,TWL,52.2381,6.1,0.3333333333333333,http://www.group15_KD_tr_onto/275,Deelen,275,52.056,5.873,130,75,389,38,231
149,http://www.group15_KD_tr_onto/VEM,Voorst-Empe railway station,VEM,52.1578,6.14278,0.3787878787878788,http://www.group15_KD_tr_onto/275,Deelen,275,52.056,5.873,130,75,389,38,231
150,http://www.group15_KD_tr_onto/VHP,Vroomshoop railway station,VHP,52.4411,6.57583,0.34375,http://www.group15_KD_tr_onto/275,Deelen,275,52.056,5.873,130,75,389,38,231
151,http://www.group15_KD_tr_onto/VP,Arnhem Velperpoort railway station,VP,51.985,5.92,0.14925373134328357,http://www.group15_KD_tr_onto/275,Deelen,275,52.056,5.873,130,75,389,38,231
152,http://www.group15_KD_tr_onto/VSV,Varsseveld railway station,VSV,51.9369,6.45806,0.6,http://www.group15_KD_tr_onto/275,Deelen,275,52.056,5.873,130,75,389,38,231
153,http://www.group15_KD_tr_onto/VZ,Vriezenveen railway station,VZ,52.4019,6.60028,0.3125,http://www.group15_KD_tr_onto/275,Deelen,275,52.056,5.873,130,75,389,38,231
154,http://www.group15_KD_tr_onto/WC,Wijchen railway station,WC,51.8111,5.72944,1.3636363636363635,http://www.group15_KD_tr_onto/275,Deelen,275,52.056,5.873,130,75,389,38,231
155,http://www.group15_KD_tr_onto/WDN,Wierden railway station,WDN,52.3614,6.59111,0.5,http://www.group15_KD_tr_onto/275,Deelen,275,52.056,5.873,130,75,389,38,231
156,http://www.group15_KD_tr_onto/WF,Wolfheze railway station,WF,52.0053,5.79361,0.2571428571428571,http://www.group15_KD_tr_onto/275,Deelen,275,52.056,5.873,130,75,389,38,231
157,http://www.group15_KD_tr_onto/WH,Wijhe railway station,WH,52.3936,6.14083,0.4696969696969697,http://www.group15_KD_tr_onto/275,Deelen,275,52.056,5.873,130,75,389,38,231
158,http://www.group15_KD_tr_onto/WL,Wehl railway station,WL,51.9567,6.2125,0.75,http://www.group15_KD_tr_onto/275,Deelen,275,52.056,5.873,130,75,389,38,231
159,http://www.group15_KD_tr_onto/WWW,Winterswijk West railway station,WWW,51.9744,6.70361,0.11538461538461539,http://www.group15_KD_tr_onto/275,Deelen,275,52.056,5.873,130,75,389,38,231
160,http://www.group15_KD_tr_onto/WW,Winterswijk railway station,WW,51.9675,6.71556,0.17647058823529413,http://www.group15_KD_tr_onto/275,Deelen,275,52.056,5.873,130,75,389,38,231
161,http://www.group15_KD_tr_onto/ZA,Zetten-Andelst railway station,ZA,51.9194,5.72306,0.03333333333333333,http://www.group15_KD_tr_onto/275,Deelen,275,52.056,5.873,130,75,389,38,231
162,http://www.group15_KD_tr_onto/ZP,Zutphen railway station,ZP,52.1444,6.19389,0.09090909090909091,http://www.group15_KD_tr_onto/275,Deelen,275,52.056,5.873,130,75,389,38,231
163,http://www.group15_KD_tr_onto/ZV,Zevenaar railway station,ZV,51.9231,6.07278,0.6601941747572816,http://www.group15_KD_tr_onto/275,Deelen,275,52.056,5.873,130,75,389,38,231
164,http://www.group15_KD_tr_onto/ASN,Assen railway station,ASN,52.9917,6.57056,0.9256198347107438,http://www.group15_KD_tr_onto/280,Eelde,280,53.125,6.585,150,69,307,35,233
165,http://www.group15_KD_tr_onto/BF,Baflo railway station,BF,53.3608,6.51833,0.13513513513513514,http://www.group15_KD_tr_onto/280,Eelde,280,53.125,6.585,150,69,307,35,233
166,http://www.group15_KD_tr_onto/BL,Beilen railway station,BL,52.8547,6.52083,1.0576923076923077,http://www.group15_KD_tr_onto/280,Eelde,280,53.125,6.585,150,69,307,35,233
167,http://www.group15_KD_tr_onto/DLN,Dalen railway station,DLN,52.6944,6.75806,0.06060606060606061,http://www.group15_KD_tr_onto/280,Eelde,280,53.125,6.585,150,69,307,35,233
168,http://www.group15_KD_tr_onto/EMNZ,Emmen Zuid railway station,EMNZ,52.7489,6.87472,0.0,http://www.group15_KD_tr_onto/280,Eelde,280,53.125,6.585,150,69,307,35,233
169,http://www.group15_KD_tr_onto/EMN,Emmen railway station,EMN,52.7903,6.89917,0.0,http://www.group15_KD_tr_onto/280,Eelde,280,53.125,6.585,150,69,307,35,233
170,http://www.group15_KD_tr_onto/GBG,Gramsbergen railway station,GBG,52.6094,6.67583,0.48484848484848486,http://www.group15_KD_tr_onto/280,Eelde,280,53.125,6.585,150,69,307,35,233
171,http://www.group15_KD_tr_onto/GK,Grijpskerk railway station,GK,53.2556,6.31056,0.39473684210526316,http://www.group15_KD_tr_onto/280,Eelde,280,53.125,6.585,150,69,307,35,233
172,http://www.group15_KD_tr_onto/GN,Groningen railway station,GN,53.2106,6.56472,0.4406779661016949,http://www.group15_KD_tr_onto/280,Eelde,280,53.125,6.585,150,69,307,35,233
173,http://www.group15_KD_tr_onto/HDB,Hardenberg railway station,HDB,52.5722,6.62778,0.23376623376623376,http://www.group15_KD_tr_onto/280,Eelde,280,53.125,6.585,150,69,307,35,233
174,http://www.group15_KD_tr_onto/HGV,Hoogeveen railway station,HGV,52.7333,6.4725,0.7307692307692307,http://www.group15_KD_tr_onto/280,Eelde,280,53.125,6.585,150,69,307,35,233
175,http://www.group15_KD_tr_onto/HRN,Haren (NL) railway station,HRN,53.175,6.61778,0.5660377358490566,http://www.group15_KD_tr_onto/280,Eelde,280,53.125,6.585,150,69,307,35,233
176,http://www.group15_KD_tr_onto/KW,Kropswolde railway station,KW,53.1617,6.72139,0.13333333333333333,http://www.group15_KD_tr_onto/280,Eelde,280,53.125,6.585,150,69,307,35,233
177,http://www.group15_KD_tr_onto/NA,Nieuw Amsterdam railway station,NA,52.7186,6.84861,0.05263157894736842,http://www.group15_KD_tr_onto/280,Eelde,280,53.125,6.585,150,69,307,35,233
178,http://www.group15_KD_tr_onto/NSCH,Bad Nieuweschans railway station,NSCH,53.1842,7.19944,0.14705882352941177,http://www.group15_KD_tr_onto/280,Eelde,280,53.125,6.585,150,69,307,35,233
179,http://www.group15_KD_tr_onto/SWK,Steenwijk railway station,SWK,52.7908,6.11611,1.2,http://www.group15_KD_tr_onto/280,Eelde,280,53.125,6.585,150,69,307,35,233
180,http://www.group15_KD_tr_onto/VDM,Veendam railway station,VDM,53.1036,6.88472,0.0,http://www.group15_KD_tr_onto/280,Eelde,280,53.125,6.585,150,69,307,35,233
181,http://www.group15_KD_tr_onto/VD,Coevorden railway station,VD,52.6631,6.73556,0.23684210526315788,http://www.group15_KD_tr_onto/280,Eelde,280,53.125,6.585,150,69,307,35,233
182,http://www.group15_KD_tr_onto/BGN,Bergen op Zoom railway station,BGN,51.4947,4.29611,0.2898550724637681,http://www.group15_KD_tr_onto/340,Woensdrecht,340,51.449,4.342,130,86,200,24,235
183,http://www.group15_KD_tr_onto/KBD,Krabbendijke railway station,KBD,51.4333,4.11694,0.3188405797101449,http://www.group15_KD_tr_onto/340,Woensdrecht,340,51.449,4.342,130,86,200,24,235
184,http://www.group15_KD_tr_onto/KRG,Kruiningen-Yerseke railway station,KRG,51.4653,4.03694,0.2028985507246377,http://www.group15_KD_tr_onto/340,Woensdrecht,340,51.449,4.342,130,86,200,24,235
185,http://www.group15_KD_tr_onto/ODB,Oudenbosch railway station,ODB,51.5881,4.53361,1.054054054054054,http://www.group15_KD_tr_onto/340,Woensdrecht,340,51.449,4.342,130,86,200,24,235
186,http://www.group15_KD_tr_onto/RB,Rilland-Bath railway station,RB,51.4222,4.16111,0.2463768115942029,http://www.group15_KD_tr_onto/340,Woensdrecht,340,51.449,4.342,130,86,200,24,235
187,http://www.group15_KD_tr_onto/RSD,Roosendaal railway station,RSD,51.5403,4.45889,1.0277777777777777,http://www.group15_KD_tr_onto/340,Woensdrecht,340,51.449,4.342,130,86,200,24,235
188,http://www.group15_KD_tr_onto/BSKS,Boskoop Snijdelwijk railway station,BSKS,52.0676,4.6462,0.17142857142857143,http://www.group15_KD_tr_onto/344,Rotterdam,344,51.962,4.447,160,83,229,50,235
189,http://www.group15_KD_tr_onto/CPS,Capelle Schollevaar railway station,CPS,51.9533,4.58417,0.6285714285714286,http://www.group15_KD_tr_onto/344,Rotterdam,344,51.962,4.447,160,83,229,50,235
190,http://www.group15_KD_tr_onto/DT,Rotterdam Delftsche Poort railway station,DT,51.9253,4.47361,1.4934497816593886,http://www.group15_KD_tr_onto/344,Rotterdam,344,51.962,4.447,160,83,229,50,235
191,http://www.group15_KD_tr_onto/EC,Dordrecht railway station,EC,51.8075,4.66778,0.7647058823529411,http://www.group15_KD_tr_onto/344,Rotterdam,344,51.962,4.447,160,83,229,50,235
192,http://www.group15_KD_tr_onto/GD,Gouda railway station,GD,52.0175,4.70556,0.3774104683195592,http://www.group15_KD_tr_onto/344,Rotterdam,344,51.962,4.447,160,83,229,50,235
193,http://www.group15_KD_tr_onto/GVMW,Den Haag Moerwijk railway station,GVMW,52.0533,4.30861,0.28378378378378377,http://www.group15_KD_tr_onto/344,Rotterdam,344,51.962,4.447,160,83,229,50,235
194,http://www.group15_KD_tr_onto/NWK,Nieuwerkerk aan den IJssel railway station,NWK,51.9653,4.61694,0.6714285714285714,http://www.group15_KD_tr_onto/344,Rotterdam,344,51.962,4.447,160,83,229,50,235
195,http://www.group15_KD_tr_onto/RLB,Rotterdam Lombardijen railway station,RLB,51.8797,4.53111,0.581081081081081,http://www.group15_KD_tr_onto/344,Rotterdam,344,51.962,4.447,160,83,229,50,235
196,http://www.group15_KD_tr_onto/RSW,Rijswijk railway station,RSW,52.0394,4.31972,0.28378378378378377,http://www.group15_KD_tr_onto/344,Rotterdam,344,51.962,4.447,160,83,229,50,235
197,http://www.group15_KD_tr_onto/RTA,Rotterdam Alexander station,RTA,51.9519,4.55278,0.8478260869565217,http://www.group15_KD_tr_onto/344,Rotterdam,344,51.962,4.447,160,83,229,50,235
198,http://www.group15_KD_tr_onto/RTB,Rotterdam Blaak station,RTB,51.92,4.48917,0.7581699346405228,http://www.group15_KD_tr_onto/344,Rotterdam,344,51.962,4.447,160,83,229,50,235
199,http://www.group15_KD_tr_onto/RTD,Rotterdam Centraal station,RTD,51.9244,4.46944,2.895121951219512,http://www.group15_KD_tr_onto/344,Rotterdam,344,51.962,4.447,160,83,229,50,235
200,http://www.group15_KD_tr_onto/RTN,Rotterdam Noord railway station,RTN,51.9422,4.48139,1.0,http://www.group15_KD_tr_onto/344,Rotterdam,344,51.962,4.447,160,83,229,50,235
201,http://www.group15_KD_tr_onto/RTST,Rotterdam Stadion railway station,RTST,51.8939,4.52,0.8181818181818182,http://www.group15_KD_tr_onto/344,Rotterdam,344,51.962,4.447,160,83,229,50,235
202,http://www.group15_KD_tr_onto/RTZ,Rotterdam Zuid railway station,RTZ,51.9094,4.50944,1.0138888888888888,http://www.group15_KD_tr_onto/344,Rotterdam,344,51.962,4.447,160,83,229,50,235
203,http://www.group15_KD_tr_onto/SDM,Schiedam Centrum station,SDM,51.9219,4.41,0.4899328859060403,http://www.group15_KD_tr_onto/344,Rotterdam,344,51.962,4.447,160,83,229,50,235
204,http://www.group15_KD_tr_onto/SDT,Sliedrecht Baanhoek railway station,SDT,51.8297,4.74333,0.3466666666666667,http://www.group15_KD_tr_onto/344,Rotterdam,344,51.962,4.447,160,83,229,50,235
205,http://www.group15_KD_tr_onto/YPB,Den Haag Ypenburg railway station,YPB,52.0592,4.38972,0.2714285714285714,http://www.group15_KD_tr_onto/344,Rotterdam,344,51.962,4.447,160,83,229,50,235
206,http://www.group15_KD_tr_onto/ZTM,Lansingerland-Zoetermeer railway station,ZTM,52.0394,4.52556,0.34285714285714286,http://www.group15_KD_tr_onto/344,Rotterdam,344,51.962,4.447,160,83,229,50,235
207,http://www.group15_KD_tr_onto/ZWD,Zwijndrecht railway station,ZWD,51.8147,4.64222,0.5405405405405406,http://www.group15_KD_tr_onto/344,Rotterdam,344,51.962,4.447,160,83,229,50,235
208,http://www.group15_KD_tr_onto/BD,Breda railway station,BD,51.595,4.78,1.700374531835206,http://www.group15_KD_tr_onto/350,Gilze-Rijen,350,51.566,4.936,100,83,273,32,227
209,http://www.group15_KD_tr_onto/BHDV,Boven Hardinxveld railway station,BHDV,51.8319,4.87472,0.21333333333333335,http://www.group15_KD_tr_onto/350,Gilze-Rijen,350,51.566,4.936,100,83,273,32,227
210,http://www.group15_KD_tr_onto/ETN,Etten-Leur railway station,ETN,51.5753,4.63694,0.5142857142857142,http://www.group15_KD_tr_onto/350,Gilze-Rijen,350,51.566,4.936,100,83,273,32,227
211,http://www.group15_KD_tr_onto/GND,Hardinxveld-Giessendam railway station,GND,51.8303,4.83528,0.28,http://www.group15_KD_tr_onto/350,Gilze-Rijen,350,51.566,4.936,100,83,273,32,227
212,http://www.group15_KD_tr_onto/GR,Gorinchem railway station,GR,51.8336,4.9675,0.0684931506849315,http://www.group15_KD_tr_onto/350,Gilze-Rijen,350,51.566,4.936,100,83,273,32,227
213,http://www.group15_KD_tr_onto/GZ,Gilze-Rijen railway station,GZ,51.5839,4.925,0.6617647058823529,http://www.group15_KD_tr_onto/350,Gilze-Rijen,350,51.566,4.936,100,83,273,32,227
214,http://www.group15_KD_tr_onto/OT,Oisterwijk railway station,OT,51.5822,5.19444,0.2698412698412698,http://www.group15_KD_tr_onto/350,Gilze-Rijen,350,51.566,4.936,100,83,273,32,227
215,http://www.group15_KD_tr_onto/TBR,Tilburg Reeshof railway station,TBR,51.5739,4.99278,0.7647058823529411,http://www.group15_KD_tr_onto/350,Gilze-Rijen,350,51.566,4.936,100,83,273,32,227
216,http://www.group15_KD_tr_onto/TBU,Tilburg Universiteit railway station,TBU,51.5653,5.05139,0.67,http://www.group15_KD_tr_onto/350,Gilze-Rijen,350,51.566,4.936,100,83,273,32,227
217,http://www.group15_KD_tr_onto/TB,Tilburg railway station,TB,51.5606,5.08278,1.3825757575757576,http://www.group15_KD_tr_onto/350,Gilze-Rijen,350,51.566,4.936,100,83,273,32,227
218,http://www.group15_KD_tr_onto/ZLW,Lage Zwaluwe railway station,ZLW,51.6906,4.66333,0.7663551401869159,http://www.group15_KD_tr_onto/350,Gilze-Rijen,350,51.566,4.936,100,83,273,32,227
219,http://www.group15_KD_tr_onto/ZVB,Zevenbergen railway station,ZVB,51.6414,4.60972,1.4864864864864864,http://www.group15_KD_tr_onto/350,Gilze-Rijen,350,51.566,4.936,100,83,273,32,227
220,http://www.group15_KD_tr_onto/BET,Best railway station,BET,51.5097,5.38889,0.5263157894736842,http://www.group15_KD_tr_onto/370,Eindhoven,370,51.451,5.377,140,80,186,14,226
221,http://www.group15_KD_tr_onto/BMR,Boxmeer railway station,BMR,51.6444,5.93944,0.6323529411764706,http://www.group15_KD_tr_onto/370,Eindhoven,370,51.451,5.377,140,80,186,14,226
222,http://www.group15_KD_tr_onto/BR,Blerick railway station,BR,51.3725,6.155,0.859375,http://www.group15_KD_tr_onto/370,Eindhoven,370,51.451,5.377,140,80,186,14,226
223,http://www.group15_KD_tr_onto/BTL,Boxtel railway station,BTL,51.5844,5.31889,0.48872180451127817,http://www.group15_KD_tr_onto/370,Eindhoven,370,51.451,5.377,140,80,186,14,226
224,http://www.group15_KD_tr_onto/DN,Deurne railway station,DN,51.4558,5.78833,1.3255813953488371,http://www.group15_KD_tr_onto/370,Eindhoven,370,51.451,5.377,140,80,186,14,226
225,http://www.group15_KD_tr_onto/EHS,Eindhoven Stadion railway station,EHS,51.443,5.46731,0.48872180451127817,http://www.group15_KD_tr_onto/370,Eindhoven,370,51.451,5.377,140,80,186,14,226
226,http://www.group15_KD_tr_onto/EHV,Eindhoven Centraal railway station,EHV,51.4428,5.48028,3.355987055016181,http://www.group15_KD_tr_onto/370,Eindhoven,370,51.451,5.377,140,80,186,14,226
227,http://www.group15_KD_tr_onto/GP,Geldrop railway station,GP,51.42,5.55111,0.8,http://www.group15_KD_tr_onto/370,Eindhoven,370,51.451,5.377,140,80,186,14,226
228,http://www.group15_KD_tr_onto/HMH,Helmond 't Hout railway station,HMH,51.4678,5.63083,0.972972972972973,http://www.group15_KD_tr_onto/370,Eindhoven,370,51.451,5.377,140,80,186,14,226
229,http://www.group15_KD_tr_onto/HM,Helmond railway station,HM,51.4756,5.66167,1.029126213592233,http://www.group15_KD_tr_onto/370,Eindhoven,370,51.451,5.377,140,80,186,14,226
230,http://www.group15_KD_tr_onto/HRT,Horst-Sevenum railway station,HRT,51.4267,6.04194,0.7424242424242424,http://www.group15_KD_tr_onto/370,Eindhoven,370,51.451,5.377,140,80,186,14,226
231,http://www.group15_KD_tr_onto/HT,'s-Hertogenbosch railway station,HT,51.69,5.29333,2.3530927835051547,http://www.group15_KD_tr_onto/370,Eindhoven,370,51.451,5.377,140,80,186,14,226
232,http://www.group15_KD_tr_onto/HZ,Heeze railway station,HZ,51.385,5.56944,2.0,http://www.group15_KD_tr_onto/370,Eindhoven,370,51.451,5.377,140,80,186,14,226
233,http://www.group15_KD_tr_onto/MZ,Maarheeze railway station,MZ,51.3039,5.63028,0.4,http://www.group15_KD_tr_onto/370,Eindhoven,370,51.451,5.377,140,80,186,14,226
234,http://www.group15_KD_tr_onto/OW,Oss West railway station,OW,51.7581,5.50611,0.8333333333333334,http://www.group15_KD_tr_onto/370,Eindhoven,370,51.451,5.377,140,80,186,14,226
235,http://www.group15_KD_tr_onto/O,Oss railway station,O,51.7653,5.53167,1.4696969696969697,http://www.group15_KD_tr_onto/370,Eindhoven,370,51.451,5.377,140,80,186,14,226
236,http://www.group15_KD_tr_onto/RS,Rosmalen railway station,RS,51.715,5.36889,0.8636363636363636,http://www.group15_KD_tr_onto/370,Eindhoven,370,51.451,5.377,140,80,186,14,226
237,http://www.group15_KD_tr_onto/TG,Tegelen railway station,TG,51.3411,6.14333,1.4852941176470589,http://www.group15_KD_tr_onto/370,Eindhoven,370,51.451,5.377,140,80,186,14,226
238,http://www.group15_KD_tr_onto/VG,Vught railway station,VG,51.6547,5.29194,0.5571428571428572,http://www.group15_KD_tr_onto/370,Eindhoven,370,51.451,5.377,140,80,186,14,226
239,http://www.group15_KD_tr_onto/VLB,Vierlingsbeek railway station,VLB,51.5922,5.99667,1.1029411764705883,http://www.group15_KD_tr_onto/370,Eindhoven,370,51.451,5.377,140,80,186,14,226
240,http://www.group15_KD_tr_onto/VL,Venlo railway station,VL,51.3647,6.17139,6.598290598290598,http://www.group15_KD_tr_onto/370,Eindhoven,370,51.451,5.377,140,80,186,14,226
241,http://www.group15_KD_tr_onto/VRY,Venray railway station,VRY,51.5264,6.01417,1.1323529411764706,http://www.group15_KD_tr_onto/370,Eindhoven,370,51.451,5.377,140,80,186,14,226
242,http://www.group15_KD_tr_onto/WT,Weert railway station,WT,51.2486,5.7025,0.8923076923076924,http://www.group15_KD_tr_onto/370,Eindhoven,370,51.451,5.377,140,80,186,14,226
243,http://www.group15_KD_tr_onto/CVM,Chevremont railway station,CVM,50.8758,6.05944,0.5857142857142857,http://www.group15_KD_tr_onto/380,Maastricht,380,50.906,5.762,140,84,119,48,231
244,http://www.group15_KD_tr_onto/EDN,Eijsden railway station,EDN,50.772,5.71004,1.09375,http://www.group15_KD_tr_onto/380,Maastricht,380,50.906,5.762,140,84,119,48,231
245,http://www.group15_KD_tr_onto/EGH,Eygelshoven railway station,EGH,50.8903,6.04556,0.37142857142857144,http://www.group15_KD_tr_onto/380,Maastricht,380,50.906,5.762,140,84,119,48,231
246,http://www.group15_KD_tr_onto/GLN,Geleen Oost railway station,GLN,50.9672,5.84306,0.9714285714285714,http://www.group15_KD_tr_onto/380,Maastricht,380,50.906,5.762,140,84,119,48,231
247,http://www.group15_KD_tr_onto/HB,Hoensbroek railway station,HB,50.9053,5.93111,1.3571428571428572,http://www.group15_KD_tr_onto/380,Maastricht,380,50.906,5.762,140,84,119,48,231
248,http://www.group15_KD_tr_onto/HRLW,Heerlen Woonboulevard railway station,HRLW,50.8961,5.95278,0.5138888888888888,http://www.group15_KD_tr_onto/380,Maastricht,380,50.906,5.762,140,84,119,48,231
249,http://www.group15_KD_tr_onto/HRL,Heerlen railway station,HRL,50.8908,5.97472,1.0280898876404494,http://www.group15_KD_tr_onto/380,Maastricht,380,50.906,5.762,140,84,119,48,231
250,http://www.group15_KD_tr_onto/KMR,Klimmen-Ransdaal railway station,KMR,50.8667,5.89056,0.5416666666666666,http://www.group15_KD_tr_onto/380,Maastricht,380,50.906,5.762,140,84,119,48,231
251,http://www.group15_KD_tr_onto/KRD,Kerkrade Centrum railway station,KRD,50.8614,6.0575,0.5428571428571428,http://www.group15_KD_tr_onto/380,Maastricht,380,50.906,5.762,140,84,119,48,231
252,http://www.group15_KD_tr_onto/LG,Landgraaf railway station,LG,50.8964,6.02,0.9423076923076923,http://www.group15_KD_tr_onto/380,Maastricht,380,50.906,5.762,140,84,119,48,231
253,http://www.group15_KD_tr_onto/MT,Maastricht railway station,MT,50.85,5.70528,1.0092165898617511,http://www.group15_KD_tr_onto/380,Maastricht,380,50.906,5.762,140,84,119,48,231
254,http://www.group15_KD_tr_onto/NH,Nuth railway station,NH,50.9197,5.8925,1.1,http://www.group15_KD_tr_onto/380,Maastricht,380,50.906,5.762,140,84,119,48,231
255,http://www.group15_KD_tr_onto/RM,Roermond railway station,RM,51.1933,5.99472,0.9171270718232044,http://www.group15_KD_tr_onto/380,Maastricht,380,50.906,5.762,140,84,119,48,231
256,http://www.group15_KD_tr_onto/RV,Reuver railway station,RV,51.2831,6.07944,1.2205882352941178,http://www.group15_KD_tr_onto/380,Maastricht,380,50.906,5.762,140,84,119,48,231
257,http://www.group15_KD_tr_onto/SBK,Spaubeek railway station,SBK,50.9431,5.84972,1.3571428571428572,http://www.group15_KD_tr_onto/380,Maastricht,380,50.906,5.762,140,84,119,48,231
258,http://www.group15_KD_tr_onto/SM,Swalmen railway station,SM,51.2358,6.0325,0.6029411764705882,http://www.group15_KD_tr_onto/380,Maastricht,380,50.906,5.762,140,84,119,48,231
259,http://www.group15_KD_tr_onto/SN,Schinnen railway station,SN,50.9386,5.87611,1.3714285714285714,http://www.group15_KD_tr_onto/380,Maastricht,380,50.906,5.762,140,84,119,48,231
260,http://www.group15_KD_tr_onto/SRN,Susteren railway station,SRN,51.0608,5.86278,0.7794117647058824,http://www.group15_KD_tr_onto/380,Maastricht,380,50.906,5.762,140,84,119,48,231
261,http://www.group15_KD_tr_onto/STD,Sittard railway station,STD,51.0011,5.85833,0.9385964912280702,http://www.group15_KD_tr_onto/380,Maastricht,380,50.906,5.762,140,84,119,48,231
262,http://www.group15_KD_tr_onto/VDL,Voerendaal railway station,VDL,50.8867,5.92944,0.4583333333333333,http://www.group15_KD_tr_onto/380,Maastricht,380,50.906,5.762,140,84,119,48,231
