,station,station_name,station_code,ts_lat,ts_long,delay,ws,ws_name,ws_code,ws_lat,ws_long,windspeed,mean_temp,percipitation,visibility,wind_direction
0,http://www.group15_KD_tr_onto/AMR,Alkmaar railway station,AMR,52.6378,4.74056,1.2485875706214689,http://www.group15_KD_tr_onto/235,De Kooy,235,52.928,4.781,50,23,20,1,311
1,http://www.group15_KD_tr_onto/ANA,Anna Paulowna railway station,ANA,52.8669,4.81111,0.9024390243902439,http://www.group15_KD_tr_onto/235,De Kooy,235,52.928,4.781,50,23,20,1,311
2,http://www.group15_KD_tr_onto/HDRZ,Den Helder Zuid railway station,HDRZ,52.9331,4.76389,0.7439024390243902,http://www.group15_KD_tr_onto/235,De Kooy,235,52.928,4.781,50,23,20,1,311
3,http://www.group15_KD_tr_onto/HDR,Den Helder railway station,HDR,52.9564,4.76083,0.8809523809523809,http://www.group15_KD_tr_onto/235,De Kooy,235,52.928,4.781,50,23,20,1,311
4,http://www.group15_KD_tr_onto/HWD,Heerhugowaard railway station,HWD,52.67,4.82361,0.7432432432432432,http://www.group15_KD_tr_onto/235,De Kooy,235,52.928,4.781,50,23,20,1,311
5,http://www.group15_KD_tr_onto/OBD,Obdam railway station,OBD,52.6781,4.90833,0.9545454545454546,http://www.group15_KD_tr_onto/235,De Kooy,235,52.928,4.781,50,23,20,1,311
6,http://www.group15_KD_tr_onto/SGN,Schagen railway station,SGN,52.7861,4.80528,0.8292682926829268,http://www.group15_KD_tr_onto/235,De Kooy,235,52.928,4.781,50,23,20,1,311
7,http://www.group15_KD_tr_onto/AC,Abcoude railway station,AC,52.2744,4.98222,0.8181818181818182,http://www.group15_KD_tr_onto/240,Schiphol,240,52.318,4.79,50,26,91,2,207
8,http://www.group15_KD_tr_onto/AMPO,Almere Poort railway station,AMPO,52.3428,5.15194,1.1981981981981982,http://www.group15_KD_tr_onto/240,Schiphol,240,52.318,4.79,50,26,91,2,207
9,http://www.group15_KD_tr_onto/ASA,Amsterdam Amstel station,ASA,52.3464,4.91778,1.2084942084942085,http://www.group15_KD_tr_onto/240,Schiphol,240,52.318,4.79,50,26,91,2,207
10,http://www.group15_KD_tr_onto/ASB,Amsterdam Bijlmer ArenA station,ASB,52.3131,4.94611,0.7489711934156379,http://www.group15_KD_tr_onto/240,Schiphol,240,52.318,4.79,50,26,91,2,207
11,http://www.group15_KD_tr_onto/ASDL,Amsterdam Lelylaan station,ASDL,52.3572,4.83389,1.9173913043478261,http://www.group15_KD_tr_onto/240,Schiphol,240,52.318,4.79,50,26,91,2,207
12,http://www.group15_KD_tr_onto/ASDM,Amsterdam Muiderpoort railway station,ASDM,52.3608,4.93111,1.977859778597786,http://www.group15_KD_tr_onto/240,Schiphol,240,52.318,4.79,50,26,91,2,207
13,http://www.group15_KD_tr_onto/ASDZ,Amsterdam Zuid station,ASDZ,52.3389,4.87306,0.8289473684210527,http://www.group15_KD_tr_onto/240,Schiphol,240,52.318,4.79,50,26,91,2,207
14,http://www.group15_KD_tr_onto/ASD,Amsterdam Centraal station,ASD,52.3783,4.9,2.769433465085639,http://www.group15_KD_tr_onto/240,Schiphol,240,52.318,4.79,50,26,91,2,207
15,http://www.group15_KD_tr_onto/ASSP,Amsterdam Science Park railway station,ASSP,52.3525,4.94861,2.1180124223602483,http://www.group15_KD_tr_onto/240,Schiphol,240,52.318,4.79,50,26,91,2,207
16,http://www.group15_KD_tr_onto/ASS,Amsterdam Sloterdijk station,ASS,52.3892,4.83806,1.5031766200762389,http://www.group15_KD_tr_onto/240,Schiphol,240,52.318,4.79,50,26,91,2,207
17,http://www.group15_KD_tr_onto/BLL,Bloemendaal railway station,BLL,52.4042,4.6275,2.0384615384615383,http://www.group15_KD_tr_onto/240,Schiphol,240,52.318,4.79,50,26,91,2,207
18,http://www.group15_KD_tr_onto/BV,Beverwijk railway station,BV,52.4783,4.65611,1.5569620253164558,http://www.group15_KD_tr_onto/240,Schiphol,240,52.318,4.79,50,26,91,2,207
19,http://www.group15_KD_tr_onto/CAS,Castricum railway station,CAS,52.5456,4.65889,1.029126213592233,http://www.group15_KD_tr_onto/240,Schiphol,240,52.318,4.79,50,26,91,2,207
20,http://www.group15_KD_tr_onto/DMNZ,Diemen Zuid station,DMNZ,52.3303,4.95639,0.5681818181818182,http://www.group15_KD_tr_onto/240,Schiphol,240,52.318,4.79,50,26,91,2,207
21,http://www.group15_KD_tr_onto/DMN,Diemen railway station,DMN,52.3453,4.96694,2.124223602484472,http://www.group15_KD_tr_onto/240,Schiphol,240,52.318,4.79,50,26,91,2,207
22,http://www.group15_KD_tr_onto/HAD,Heemstede-Aerdenhout railway station,HAD,52.3597,4.60694,1.0628272251308901,http://www.group15_KD_tr_onto/240,Schiphol,240,52.318,4.79,50,26,91,2,207
23,http://www.group15_KD_tr_onto/HFD,Hoofddorp railway station,HFD,52.2933,4.7,1.8412698412698412,http://www.group15_KD_tr_onto/240,Schiphol,240,52.318,4.79,50,26,91,2,207
24,http://www.group15_KD_tr_onto/HIL,Hillegom railway station,HIL,52.3028,4.56583,0.620253164556962,http://www.group15_KD_tr_onto/240,Schiphol,240,52.318,4.79,50,26,91,2,207
25,http://www.group15_KD_tr_onto/HK,Heemskerk railway station,HK,52.4947,4.68611,1.5897435897435896,http://www.group15_KD_tr_onto/240,Schiphol,240,52.318,4.79,50,26,91,2,207
26,http://www.group15_KD_tr_onto/HLMS,Haarlem Spaarnwoude railway station,HLMS,52.3828,4.67111,1.2164179104477613,http://www.group15_KD_tr_onto/240,Schiphol,240,52.318,4.79,50,26,91,2,207
27,http://www.group15_KD_tr_onto/HLM,Haarlem railway station,HLM,52.3878,4.63889,1.0067340067340067,http://www.group15_KD_tr_onto/240,Schiphol,240,52.318,4.79,50,26,91,2,207
28,http://www.group15_KD_tr_onto/HLO,Heiloo railway station,HLO,52.6,4.70083,1.0828025477707006,http://www.group15_KD_tr_onto/240,Schiphol,240,52.318,4.79,50,26,91,2,207
29,http://www.group15_KD_tr_onto/HWZB,Halfweg-Zwanenburg railway station,HWZB,52.3847,4.75167,1.0223880597014925,http://www.group15_KD_tr_onto/240,Schiphol,240,52.318,4.79,50,26,91,2,207
30,http://www.group15_KD_tr_onto/NVP,Nieuw-Vennep railway station,NVP,52.2597,4.64556,1.5985401459854014,http://www.group15_KD_tr_onto/240,Schiphol,240,52.318,4.79,50,26,91,2,207
31,http://www.group15_KD_tr_onto/OVN,Overveen railway station,OVN,52.3908,4.60778,0.4473684210526316,http://www.group15_KD_tr_onto/240,Schiphol,240,52.318,4.79,50,26,91,2,207
32,http://www.group15_KD_tr_onto/PMR,Purmerend railway station,PMR,52.5033,4.95417,1.4705882352941178,http://www.group15_KD_tr_onto/240,Schiphol,240,52.318,4.79,50,26,91,2,207
33,http://www.group15_KD_tr_onto/PMW,Purmerend Weidevenne railway station,PMW,52.4967,4.93667,1.5294117647058822,http://www.group15_KD_tr_onto/240,Schiphol,240,52.318,4.79,50,26,91,2,207
34,http://www.group15_KD_tr_onto/RAI,Amsterdam RAI station,RAI,52.3367,4.89056,0.5454545454545454,http://www.group15_KD_tr_onto/240,Schiphol,240,52.318,4.79,50,26,91,2,207
35,http://www.group15_KD_tr_onto/SHL,Schiphol Airport railway station,SHL,52.3089,4.76167,1.9707750952986023,http://www.group15_KD_tr_onto/240,Schiphol,240,52.318,4.79,50,26,91,2,207
36,http://www.group15_KD_tr_onto/SPTN,Santpoort Noord railway station,SPTN,52.4428,4.63917,1.5128205128205128,http://www.group15_KD_tr_onto/240,Schiphol,240,52.318,4.79,50,26,91,2,207
37,http://www.group15_KD_tr_onto/SPTZ,Santpoort Zuid railway station,SPTZ,52.4194,4.63167,1.5897435897435896,http://www.group15_KD_tr_onto/240,Schiphol,240,52.318,4.79,50,26,91,2,207
38,http://www.group15_KD_tr_onto/UTG,Uitgeest railway station,UTG,52.5219,4.70278,1.7424242424242424,http://www.group15_KD_tr_onto/240,Schiphol,240,52.318,4.79,50,26,91,2,207
39,http://www.group15_KD_tr_onto/WM,Wormerveer railway station,WM,52.4892,4.79278,1.7962962962962963,http://www.group15_KD_tr_onto/240,Schiphol,240,52.318,4.79,50,26,91,2,207
40,http://www.group15_KD_tr_onto/WP,Weesp railway station,WP,52.3131,5.04361,1.4880546075085324,http://www.group15_KD_tr_onto/240,Schiphol,240,52.318,4.79,50,26,91,2,207
41,http://www.group15_KD_tr_onto/ZD,Zaandam railway station,ZD,52.4389,4.81472,1.14,http://www.group15_KD_tr_onto/240,Schiphol,240,52.318,4.79,50,26,91,2,207
42,http://www.group15_KD_tr_onto/ZVT,Zandvoort aan Zee railway station,ZVT,52.3758,4.53139,0.7631578947368421,http://www.group15_KD_tr_onto/240,Schiphol,240,52.318,4.79,50,26,91,2,207
43,http://www.group15_KD_tr_onto/AKL,Arkel railway station,AKL,51.8719,4.99278,1.8974358974358974,http://www.group15_KD_tr_onto/260,De Bilt,260,52.1,5.18,30,24,72,10,223
44,http://www.group15_KD_tr_onto/BHV,Bilthoven railway station,BHV,52.13,5.20528,0.9513888888888888,http://www.group15_KD_tr_onto/260,De Bilt,260,52.1,5.18,30,24,72,10,223
45,http://www.group15_KD_tr_onto/BKL,Breukelen railway station,BKL,52.17,4.99056,0.7006802721088435,http://www.group15_KD_tr_onto/260,De Bilt,260,52.1,5.18,30,24,72,10,223
46,http://www.group15_KD_tr_onto/BNK,Bunnik railway station,BNK,52.0631,5.19556,0.4020618556701031,http://www.group15_KD_tr_onto/260,De Bilt,260,52.1,5.18,30,24,72,10,223
47,http://www.group15_KD_tr_onto/BSD,Beesd railway station,BSD,51.8992,5.195,1.7692307692307692,http://www.group15_KD_tr_onto/260,De Bilt,260,52.1,5.18,30,24,72,10,223
48,http://www.group15_KD_tr_onto/CL,Culemborg railway station,CL,51.9472,5.22722,0.538961038961039,http://www.group15_KD_tr_onto/260,De Bilt,260,52.1,5.18,30,24,72,10,223
49,http://www.group15_KD_tr_onto/DB,Driebergen-Zeist railway station,DB,52.065,5.26,1.0060975609756098,http://www.group15_KD_tr_onto/260,De Bilt,260,52.1,5.18,30,24,72,10,223
50,http://www.group15_KD_tr_onto/GDM,Geldermalsen railway station,GDM,51.8839,5.27083,1.0,http://www.group15_KD_tr_onto/260,De Bilt,260,52.1,5.18,30,24,72,10,223
51,http://www.group15_KD_tr_onto/HTN,Houten railway station,HTN,52.0344,5.16778,0.44155844155844154,http://www.group15_KD_tr_onto/260,De Bilt,260,52.1,5.18,30,24,72,10,223
52,http://www.group15_KD_tr_onto/LDM,Leerdam railway station,LDM,51.8947,5.09333,1.6538461538461537,http://www.group15_KD_tr_onto/260,De Bilt,260,52.1,5.18,30,24,72,10,223
53,http://www.group15_KD_tr_onto/MAS,Maarssen railway station,MAS,52.1358,5.03306,0.5833333333333334,http://www.group15_KD_tr_onto/260,De Bilt,260,52.1,5.18,30,24,72,10,223
54,http://www.group15_KD_tr_onto/UTLR,Utrecht Leidsche Rijn railway station,UTLR,52.0983,5.06917,0.49624060150375937,http://www.group15_KD_tr_onto/260,De Bilt,260,52.1,5.18,30,24,72,10,223
55,http://www.group15_KD_tr_onto/UTO,Utrecht Overvecht railway station,UTO,52.11,5.12528,0.7137681159420289,http://www.group15_KD_tr_onto/260,De Bilt,260,52.1,5.18,30,24,72,10,223
56,http://www.group15_KD_tr_onto/UTT,Utrecht Terwijde railway station,UTT,52.1008,5.04306,0.47368421052631576,http://www.group15_KD_tr_onto/260,De Bilt,260,52.1,5.18,30,24,72,10,223
57,http://www.group15_KD_tr_onto/UTVR,Utrecht Vaartsche Rijn railway station,UTVR,52.0786,5.1225,0.41434262948207173,http://www.group15_KD_tr_onto/260,De Bilt,260,52.1,5.18,30,24,72,10,223
58,http://www.group15_KD_tr_onto/UTZL,Utrecht Zuilen railway station,UTZL,52.1031,5.08917,0.4205607476635514,http://www.group15_KD_tr_onto/260,De Bilt,260,52.1,5.18,30,24,72,10,223
59,http://www.group15_KD_tr_onto/UT,Utrecht Centraal railway station,UT,52.0892,5.10972,1.375,http://www.group15_KD_tr_onto/260,De Bilt,260,52.1,5.18,30,24,72,10,223
60,http://www.group15_KD_tr_onto/VTN,Vleuten railway station,VTN,52.1031,5.01194,0.5789473684210527,http://www.group15_KD_tr_onto/260,De Bilt,260,52.1,5.18,30,24,72,10,223
61,http://www.group15_KD_tr_onto/WD,Woerden railway station,WD,52.0847,4.89306,0.6329588014981273,http://www.group15_KD_tr_onto/260,De Bilt,260,52.1,5.18,30,24,72,10,223
62,http://www.group15_KD_tr_onto/ZBM,Zaltbommel railway station,ZBM,51.8069,5.26472,0.5844155844155844,http://www.group15_KD_tr_onto/260,De Bilt,260,52.1,5.18,30,24,72,10,223
63,http://www.group15_KD_tr_onto/BKF,Bovenkarspel Flora railway station,BKF,52.6958,5.25306,0.7435897435897436,http://www.group15_KD_tr_onto/267,Stavoren,267,52.898,5.384,50,25,18,32,248
64,http://www.group15_KD_tr_onto/BKG,Bovenkarspel-Grootebroek railway station,BKG,52.695,5.23611,0.8205128205128205,http://www.group15_KD_tr_onto/267,Stavoren,267,52.898,5.384,50,25,18,32,248
65,http://www.group15_KD_tr_onto/EKZ,Enkhuizen railway station,EKZ,52.6994,5.28778,1.4324324324324325,http://www.group15_KD_tr_onto/267,Stavoren,267,52.898,5.384,50,25,18,32,248
66,http://www.group15_KD_tr_onto/HKS,Hoogkarspel railway station,HKS,52.6906,5.18389,0.8717948717948718,http://www.group15_KD_tr_onto/267,Stavoren,267,52.898,5.384,50,25,18,32,248
67,http://www.group15_KD_tr_onto/HNP,Hindeloopen railway station,HNP,52.9461,5.42306,2.347826086956522,http://www.group15_KD_tr_onto/267,Stavoren,267,52.898,5.384,50,25,18,32,248
68,http://www.group15_KD_tr_onto/HN,Hoorn railway station,HN,52.645,5.05472,1.2824858757062148,http://www.group15_KD_tr_onto/267,Stavoren,267,52.898,5.384,50,25,18,32,248
69,http://www.group15_KD_tr_onto/IJT,IJlst railway station,IJT,53.0147,5.61639,1.5434782608695652,http://www.group15_KD_tr_onto/267,Stavoren,267,52.898,5.384,50,25,18,32,248
70,http://www.group15_KD_tr_onto/KMW,Koudum-Molkwerum railway station,KMW,52.9022,5.41056,2.1956521739130435,http://www.group15_KD_tr_onto/267,Stavoren,267,52.898,5.384,50,25,18,32,248
71,http://www.group15_KD_tr_onto/STV,Stavoren railway station,STV,52.8867,5.35972,2.391304347826087,http://www.group15_KD_tr_onto/267,Stavoren,267,52.898,5.384,50,25,18,32,248
72,http://www.group15_KD_tr_onto/WK,Workum railway station,WK,52.9714,5.45583,1.934782608695652,http://www.group15_KD_tr_onto/267,Stavoren,267,52.898,5.384,50,25,18,32,248
73,http://www.group15_KD_tr_onto/WV,Wolvega railway station,WV,52.8797,6.00472,0.6119402985074627,http://www.group15_KD_tr_onto/267,Stavoren,267,52.898,5.384,50,25,18,32,248
74,http://www.group15_KD_tr_onto/ALMB,Almere Buiten railway station,ALMB,52.3942,5.27778,1.0523560209424083,http://www.group15_KD_tr_onto/269,Lelystad,269,52.458,5.52,40,24,35,23,227
75,http://www.group15_KD_tr_onto/ALMM,Almere Muziekwijk railway station,ALMM,52.3675,5.19028,1.1441441441441442,http://www.group15_KD_tr_onto/269,Lelystad,269,52.458,5.52,40,24,35,23,227
76,http://www.group15_KD_tr_onto/ALMO,Almere Oostvaarders railway station,ALMO,52.4028,5.3,1.2636363636363637,http://www.group15_KD_tr_onto/269,Lelystad,269,52.458,5.52,40,24,35,23,227
77,http://www.group15_KD_tr_onto/ALMP,Almere Parkwijk railway station,ALMP,52.3767,5.24444,1.15,http://www.group15_KD_tr_onto/269,Lelystad,269,52.458,5.52,40,24,35,23,227
78,http://www.group15_KD_tr_onto/ALM,Almere Centrum railway station,ALM,52.375,5.21778,1.427325581395349,http://www.group15_KD_tr_onto/269,Lelystad,269,52.458,5.52,40,24,35,23,227
79,http://www.group15_KD_tr_onto/DL,Dalfsen railway station,DL,52.4981,6.25861,0.4673913043478261,http://www.group15_KD_tr_onto/269,Lelystad,269,52.458,5.52,40,24,35,23,227
80,http://www.group15_KD_tr_onto/DRON,Dronten railway station,DRON,52.5339,5.72306,0.3013698630136986,http://www.group15_KD_tr_onto/269,Lelystad,269,52.458,5.52,40,24,35,23,227
81,http://www.group15_KD_tr_onto/EML,Ermelo railway station,EML,52.3011,5.61444,1.3376623376623376,http://www.group15_KD_tr_onto/269,Lelystad,269,52.458,5.52,40,24,35,23,227
82,http://www.group15_KD_tr_onto/HDE,'t Harde railway station,HDE,52.4089,5.89306,1.3376623376623376,http://www.group15_KD_tr_onto/269,Lelystad,269,52.458,5.52,40,24,35,23,227
83,http://www.group15_KD_tr_onto/HD,Harderwijk railway station,HD,52.3375,5.61972,1.5897435897435896,http://www.group15_KD_tr_onto/269,Lelystad,269,52.458,5.52,40,24,35,23,227
84,http://www.group15_KD_tr_onto/KPNZ,Kampen Zuid railway station,KPNZ,52.5342,5.91583,0.4666666666666667,http://www.group15_KD_tr_onto/269,Lelystad,269,52.458,5.52,40,24,35,23,227
85,http://www.group15_KD_tr_onto/KPN,Kampen railway station,KPN,52.5597,5.92111,0.34210526315789475,http://www.group15_KD_tr_onto/269,Lelystad,269,52.458,5.52,40,24,35,23,227
86,http://www.group15_KD_tr_onto/LLS,Lelystad Centrum railway station,LLS,52.5078,5.47333,1.3900709219858156,http://www.group15_KD_tr_onto/269,Lelystad,269,52.458,5.52,40,24,35,23,227
87,http://www.group15_KD_tr_onto/MP,Meppel railway station,MP,52.6914,6.1975,0.9711538461538461,http://www.group15_KD_tr_onto/269,Lelystad,269,52.458,5.52,40,24,35,23,227
88,http://www.group15_KD_tr_onto/NS,Nunspeet railway station,NS,52.3708,5.78472,1.5974025974025974,http://www.group15_KD_tr_onto/269,Lelystad,269,52.458,5.52,40,24,35,23,227
89,http://www.group15_KD_tr_onto/OMN,Ommen railway station,OMN,52.5094,6.41694,1.2391304347826086,http://www.group15_KD_tr_onto/269,Lelystad,269,52.458,5.52,40,24,35,23,227
90,http://www.group15_KD_tr_onto/PT,Putten railway station,PT,52.2653,5.57611,1.103896103896104,http://www.group15_KD_tr_onto/269,Lelystad,269,52.458,5.52,40,24,35,23,227
91,http://www.group15_KD_tr_onto/WZ,Wezep railway station,WZ,52.4536,6.00222,0.0,http://www.group15_KD_tr_onto/269,Lelystad,269,52.458,5.52,40,24,35,23,227
92,http://www.group15_KD_tr_onto/ZLSH,Zwolle Stadshagen railway station,ZLSH,52.5279,6.05108,0.27631578947368424,http://www.group15_KD_tr_onto/269,Lelystad,269,52.458,5.52,40,24,35,23,227
93,http://www.group15_KD_tr_onto/ZL,Zwolle railway station,ZL,52.5053,6.09056,1.2352941176470589,http://www.group15_KD_tr_onto/269,Lelystad,269,52.458,5.52,40,24,35,23,227
94,http://www.group15_KD_tr_onto/AKM,Akkrum railway station,AKM,53.0472,5.84306,0.7611940298507462,http://www.group15_KD_tr_onto/270,Leeuwarden,270,53.224,5.752,50,8,34,1,257
95,http://www.group15_KD_tr_onto/DEI,Deinum railway station,DEI,53.1886,5.72778,0.9032258064516129,http://www.group15_KD_tr_onto/270,Leeuwarden,270,53.224,5.752,50,8,34,1,257
96,http://www.group15_KD_tr_onto/DRP,Dronryp railway station,DRP,53.1775,5.63472,0.4838709677419355,http://www.group15_KD_tr_onto/270,Leeuwarden,270,53.224,5.752,50,8,34,1,257
97,http://www.group15_KD_tr_onto/FN,Franeker railway station,FN,53.1822,5.54944,0.43548387096774194,http://www.group15_KD_tr_onto/270,Leeuwarden,270,53.224,5.752,50,8,34,1,257
98,http://www.group15_KD_tr_onto/GW,Grou-Jirnsum railway station,GW,53.0897,5.82222,0.7164179104477612,http://www.group15_KD_tr_onto/270,Leeuwarden,270,53.224,5.752,50,8,34,1,257
99,http://www.group15_KD_tr_onto/HDG,Hurdegaryp railway station,HDG,53.2186,5.93472,1.2272727272727273,http://www.group15_KD_tr_onto/270,Leeuwarden,270,53.224,5.752,50,8,34,1,257
100,http://www.group15_KD_tr_onto/HLG,Harlingen railway station,HLG,53.1703,5.42528,0.3870967741935484,http://www.group15_KD_tr_onto/270,Leeuwarden,270,53.224,5.752,50,8,34,1,257
101,http://www.group15_KD_tr_onto/HR,Heerenveen railway station,HR,52.9606,5.91528,0.9852941176470589,http://www.group15_KD_tr_onto/270,Leeuwarden,270,53.224,5.752,50,8,34,1,257
102,http://www.group15_KD_tr_onto/LW,Leeuwarden railway station,LW,53.1958,5.79111,1.4975124378109452,http://www.group15_KD_tr_onto/270,Leeuwarden,270,53.224,5.752,50,8,34,1,257
103,http://www.group15_KD_tr_onto/MG,Mantgum railway station,MG,53.1297,5.71333,1.0294117647058822,http://www.group15_KD_tr_onto/270,Leeuwarden,270,53.224,5.752,50,8,34,1,257
104,http://www.group15_KD_tr_onto/SK,Sneek railway station,SK,53.0322,5.65167,1.5238095238095237,http://www.group15_KD_tr_onto/270,Leeuwarden,270,53.224,5.752,50,8,34,1,257
105,http://www.group15_KD_tr_onto/AHPR,Arnhem Presikhaaf railway station,AHPR,51.9875,5.94306,1.0833333333333333,http://www.group15_KD_tr_onto/275,Deelen,275,52.056,5.873,40,24,29,18,238
106,http://www.group15_KD_tr_onto/AHZ,Arnhem Zuid railway station,AHZ,51.9542,5.85167,0.8421052631578947,http://www.group15_KD_tr_onto/275,Deelen,275,52.056,5.873,40,24,29,18,238
107,http://www.group15_KD_tr_onto/AML,Almelo railway station,AML,52.3572,6.655,0.5269230769230769,http://www.group15_KD_tr_onto/275,Deelen,275,52.056,5.873,40,24,29,18,238
108,http://www.group15_KD_tr_onto/APD,Apeldoorn railway station,APD,52.2092,5.96944,0.6201117318435754,http://www.group15_KD_tr_onto/275,Deelen,275,52.056,5.873,40,24,29,18,238
109,http://www.group15_KD_tr_onto/ATN,Aalten railway station,ATN,51.9211,6.57806,0.14864864864864866,http://www.group15_KD_tr_onto/275,Deelen,275,52.056,5.873,40,24,29,18,238
110,http://www.group15_KD_tr_onto/BMN,Brummen railway station,BMN,52.0908,6.14694,0.0,http://www.group15_KD_tr_onto/275,Deelen,275,52.056,5.873,40,24,29,18,238
111,http://www.group15_KD_tr_onto/BN,Borne railway station,BN,52.2983,6.74833,0.0,http://www.group15_KD_tr_onto/275,Deelen,275,52.056,5.873,40,24,29,18,238
112,http://www.group15_KD_tr_onto/CK,Cuijk railway station,CK,51.7264,5.87417,0.8790322580645161,http://www.group15_KD_tr_onto/275,Deelen,275,52.056,5.873,40,24,29,18,238
113,http://www.group15_KD_tr_onto/DA,Daarlerveen railway station,DA,52.4411,6.57583,0.16666666666666666,http://www.group15_KD_tr_onto/275,Deelen,275,52.056,5.873,40,24,29,18,238
114,http://www.group15_KD_tr_onto/DDN,Delden railway station,DDN,52.26,6.71444,0.4444444444444444,http://www.group15_KD_tr_onto/275,Deelen,275,52.056,5.873,40,24,29,18,238
115,http://www.group15_KD_tr_onto/DID,Didam railway station,DID,51.9333,6.13222,0.3643410852713178,http://www.group15_KD_tr_onto/275,Deelen,275,52.056,5.873,40,24,29,18,238
116,http://www.group15_KD_tr_onto/DR,Dieren railway station,DR,52.045,6.10333,1.0135135135135136,http://www.group15_KD_tr_onto/275,Deelen,275,52.056,5.873,40,24,29,18,238
117,http://www.group15_KD_tr_onto/DTC,Doetinchem railway station,DTC,51.9583,6.29528,0.56,http://www.group15_KD_tr_onto/275,Deelen,275,52.056,5.873,40,24,29,18,238
118,http://www.group15_KD_tr_onto/DVN,Duiven railway station,DVN,51.9433,6.01417,0.46511627906976744,http://www.group15_KD_tr_onto/275,Deelen,275,52.056,5.873,40,24,29,18,238
119,http://www.group15_KD_tr_onto/DV,Deventer railway station,DV,52.2572,6.16083,0.8704453441295547,http://www.group15_KD_tr_onto/275,Deelen,275,52.056,5.873,40,24,29,18,238
120,http://www.group15_KD_tr_onto/ED,Ede-Wageningen railway station,ED,52.0278,5.67194,0.9951456310679612,http://www.group15_KD_tr_onto/275,Deelen,275,52.056,5.873,40,24,29,18,238
121,http://www.group15_KD_tr_onto/EST,Elst railway station,EST,51.9167,5.855,0.7680412371134021,http://www.group15_KD_tr_onto/275,Deelen,275,52.056,5.873,40,24,29,18,238
122,http://www.group15_KD_tr_onto/ES,Enschede railway station,ES,52.2222,6.89,0.5267175572519084,http://www.group15_KD_tr_onto/275,Deelen,275,52.056,5.873,40,24,29,18,238
123,http://www.group15_KD_tr_onto/GBR,Glanerbrug railway station,GBR,52.2186,6.97389,0.0,http://www.group15_KD_tr_onto/275,Deelen,275,52.056,5.873,40,24,29,18,238
124,http://www.group15_KD_tr_onto/GDR,Gaanderen railway station,GDR,51.9308,6.34778,0.47297297297297297,http://www.group15_KD_tr_onto/275,Deelen,275,52.056,5.873,40,24,29,18,238
125,http://www.group15_KD_tr_onto/GO,Goor railway station,GO,52.2303,6.58444,0.19718309859154928,http://www.group15_KD_tr_onto/275,Deelen,275,52.056,5.873,40,24,29,18,238
126,http://www.group15_KD_tr_onto/HGL,Hengelo railway station,HGL,52.2619,6.79417,0.7818791946308725,http://www.group15_KD_tr_onto/275,Deelen,275,52.056,5.873,40,24,29,18,238
127,http://www.group15_KD_tr_onto/HMN,Hemmen-Dodewaard railway station,HMN,51.9222,5.67333,0.0,http://www.group15_KD_tr_onto/275,Deelen,275,52.056,5.873,40,24,29,18,238
128,http://www.group15_KD_tr_onto/HNO,Heino railway station,HNO,52.4269,6.22194,0.631578947368421,http://www.group15_KD_tr_onto/275,Deelen,275,52.056,5.873,40,24,29,18,238
129,http://www.group15_KD_tr_onto/HON,Holten railway station,HON,52.2839,6.42056,0.0,http://www.group15_KD_tr_onto/275,Deelen,275,52.056,5.873,40,24,29,18,238
130,http://www.group15_KD_tr_onto/KBK,Klarenbeek railway station,KBK,52.1778,6.08417,0.09375,http://www.group15_KD_tr_onto/275,Deelen,275,52.056,5.873,40,24,29,18,238
131,http://www.group15_KD_tr_onto/KLP,Veenendaal-De Klomp railway station,KLP,52.0458,5.57389,0.02531645569620253,http://www.group15_KD_tr_onto/275,Deelen,275,52.056,5.873,40,24,29,18,238
132,http://www.group15_KD_tr_onto/KTR,Kesteren railway station,KTR,51.9314,5.58361,0.0,http://www.group15_KD_tr_onto/275,Deelen,275,52.056,5.873,40,24,29,18,238
133,http://www.group15_KD_tr_onto/LC,Lochem railway station,LC,52.1667,6.42583,0.14285714285714285,http://www.group15_KD_tr_onto/275,Deelen,275,52.056,5.873,40,24,29,18,238
134,http://www.group15_KD_tr_onto/LTV,Lichtenvoorde-Groenlo railway station,LTV,52.0117,6.59639,0.4927536231884058,http://www.group15_KD_tr_onto/275,Deelen,275,52.056,5.873,40,24,29,18,238
135,http://www.group15_KD_tr_onto/MMLH,Mook-Molenhoek railway station,MMLH,51.7647,5.8775,0.9838709677419355,http://www.group15_KD_tr_onto/275,Deelen,275,52.056,5.873,40,24,29,18,238
136,http://www.group15_KD_tr_onto/NM,Nijmegen railway station,NM,51.8433,5.8525,1.7893175074183976,http://www.group15_KD_tr_onto/275,Deelen,275,52.056,5.873,40,24,29,18,238
137,http://www.group15_KD_tr_onto/NVD,Nijverdal railway station,NVD,52.3656,6.47028,1.4509803921568627,http://www.group15_KD_tr_onto/275,Deelen,275,52.056,5.873,40,24,29,18,238
138,http://www.group15_KD_tr_onto/ODZ,Oldenzaal railway station,ODZ,52.3061,6.93361,1.527027027027027,http://www.group15_KD_tr_onto/275,Deelen,275,52.056,5.873,40,24,29,18,238
139,http://www.group15_KD_tr_onto/OP,Opheusden railway station,OP,51.9261,5.63694,0.0,http://www.group15_KD_tr_onto/275,Deelen,275,52.056,5.873,40,24,29,18,238
140,http://www.group15_KD_tr_onto/OST,Olst railway station,OST,52.335,6.11306,1.4615384615384615,http://www.group15_KD_tr_onto/275,Deelen,275,52.056,5.873,40,24,29,18,238
141,http://www.group15_KD_tr_onto/OTB,Oosterbeek railway station,OTB,51.9947,5.84,0.3484848484848485,http://www.group15_KD_tr_onto/275,Deelen,275,52.056,5.873,40,24,29,18,238
142,http://www.group15_KD_tr_onto/RAT,Raalte railway station,RAT,52.3908,6.27861,0.9313725490196079,http://www.group15_KD_tr_onto/275,Deelen,275,52.056,5.873,40,24,29,18,238
143,http://www.group15_KD_tr_onto/RHN,Rhenen railway station,RHN,51.9578,5.57833,0.3783783783783784,http://www.group15_KD_tr_onto/275,Deelen,275,52.056,5.873,40,24,29,18,238
144,http://www.group15_KD_tr_onto/RH,Rheden railway station,RH,52.0097,6.02972,0.4583333333333333,http://www.group15_KD_tr_onto/275,Deelen,275,52.056,5.873,40,24,29,18,238
145,http://www.group15_KD_tr_onto/RL,Ruurlo railway station,RL,52.0806,6.45,0.6811594202898551,http://www.group15_KD_tr_onto/275,Deelen,275,52.056,5.873,40,24,29,18,238
146,http://www.group15_KD_tr_onto/RSN,Rijssen railway station,RSN,52.3117,6.51917,0.1527777777777778,http://www.group15_KD_tr_onto/275,Deelen,275,52.056,5.873,40,24,29,18,238
147,http://www.group15_KD_tr_onto/RVS,Ravenstein railway station,RVS,51.7947,5.63722,1.445945945945946,http://www.group15_KD_tr_onto/275,Deelen,275,52.056,5.873,40,24,29,18,238
148,http://www.group15_KD_tr_onto/TWL,Twello railway station,TWL,52.2381,6.1,0.0,http://www.group15_KD_tr_onto/275,Deelen,275,52.056,5.873,40,24,29,18,238
149,http://www.group15_KD_tr_onto/VEM,Voorst-Empe railway station,VEM,52.1578,6.14278,0.359375,http://www.group15_KD_tr_onto/275,Deelen,275,52.056,5.873,40,24,29,18,238
150,http://www.group15_KD_tr_onto/VHP,Vroomshoop railway station,VHP,52.4411,6.57583,0.25925925925925924,http://www.group15_KD_tr_onto/275,Deelen,275,52.056,5.873,40,24,29,18,238
151,http://www.group15_KD_tr_onto/VP,Arnhem Velperpoort railway station,VP,51.985,5.92,0.3472222222222222,http://www.group15_KD_tr_onto/275,Deelen,275,52.056,5.873,40,24,29,18,238
152,http://www.group15_KD_tr_onto/VSV,Varsseveld railway station,VSV,51.9369,6.45806,0.10810810810810811,http://www.group15_KD_tr_onto/275,Deelen,275,52.056,5.873,40,24,29,18,238
153,http://www.group15_KD_tr_onto/VZ,Vriezenveen railway station,VZ,52.4019,6.60028,0.09259259259259259,http://www.group15_KD_tr_onto/275,Deelen,275,52.056,5.873,40,24,29,18,238
154,http://www.group15_KD_tr_onto/WC,Wijchen railway station,WC,51.8111,5.72944,0.9423076923076923,http://www.group15_KD_tr_onto/275,Deelen,275,52.056,5.873,40,24,29,18,238
155,http://www.group15_KD_tr_onto/WDN,Wierden railway station,WDN,52.3614,6.59111,0.5540540540540541,http://www.group15_KD_tr_onto/275,Deelen,275,52.056,5.873,40,24,29,18,238
156,http://www.group15_KD_tr_onto/WF,Wolfheze railway station,WF,52.0053,5.79361,0.4393939393939394,http://www.group15_KD_tr_onto/275,Deelen,275,52.056,5.873,40,24,29,18,238
157,http://www.group15_KD_tr_onto/WH,Wijhe railway station,WH,52.3936,6.14083,0.0,http://www.group15_KD_tr_onto/275,Deelen,275,52.056,5.873,40,24,29,18,238
158,http://www.group15_KD_tr_onto/WL,Wehl railway station,WL,51.9567,6.2125,0.6821705426356589,http://www.group15_KD_tr_onto/275,Deelen,275,52.056,5.873,40,24,29,18,238
159,http://www.group15_KD_tr_onto/WWW,Winterswijk West railway station,WWW,51.9744,6.70361,0.30434782608695654,http://www.group15_KD_tr_onto/275,Deelen,275,52.056,5.873,40,24,29,18,238
160,http://www.group15_KD_tr_onto/WW,Winterswijk railway station,WW,51.9675,6.71556,0.5277777777777778,http://www.group15_KD_tr_onto/275,Deelen,275,52.056,5.873,40,24,29,18,238
161,http://www.group15_KD_tr_onto/ZA,Zetten-Andelst railway station,ZA,51.9194,5.72306,0.0,http://www.group15_KD_tr_onto/275,Deelen,275,52.056,5.873,40,24,29,18,238
162,http://www.group15_KD_tr_onto/ZP,Zutphen railway station,ZP,52.1444,6.19389,0.8617511520737328,http://www.group15_KD_tr_onto/275,Deelen,275,52.056,5.873,40,24,29,18,238
163,http://www.group15_KD_tr_onto/ZV,Zevenaar railway station,ZV,51.9231,6.07278,4.296969696969697,http://www.group15_KD_tr_onto/275,Deelen,275,52.056,5.873,40,24,29,18,238
164,http://www.group15_KD_tr_onto/ASN,Assen railway station,ASN,52.9917,6.57056,0.6319444444444444,http://www.group15_KD_tr_onto/280,Eelde,280,53.125,6.585,40,-4,21,0,247
165,http://www.group15_KD_tr_onto/BF,Baflo railway station,BF,53.3608,6.51833,0.927536231884058,http://www.group15_KD_tr_onto/280,Eelde,280,53.125,6.585,40,-4,21,0,247
166,http://www.group15_KD_tr_onto/BL,Beilen railway station,BL,52.8547,6.52083,0.6621621621621622,http://www.group15_KD_tr_onto/280,Eelde,280,53.125,6.585,40,-4,21,0,247
167,http://www.group15_KD_tr_onto/DLN,Dalen railway station,DLN,52.6944,6.75806,0.48936170212765956,http://www.group15_KD_tr_onto/280,Eelde,280,53.125,6.585,40,-4,21,0,247
168,http://www.group15_KD_tr_onto/EMNZ,Emmen Zuid railway station,EMNZ,52.7489,6.87472,0.5365853658536586,http://www.group15_KD_tr_onto/280,Eelde,280,53.125,6.585,40,-4,21,0,247
169,http://www.group15_KD_tr_onto/EMN,Emmen railway station,EMN,52.7903,6.89917,0.43902439024390244,http://www.group15_KD_tr_onto/280,Eelde,280,53.125,6.585,40,-4,21,0,247
170,http://www.group15_KD_tr_onto/GBG,Gramsbergen railway station,GBG,52.6094,6.67583,1.2127659574468086,http://www.group15_KD_tr_onto/280,Eelde,280,53.125,6.585,40,-4,21,0,247
171,http://www.group15_KD_tr_onto/GK,Grijpskerk railway station,GK,53.2556,6.31056,0.6515151515151515,http://www.group15_KD_tr_onto/280,Eelde,280,53.125,6.585,40,-4,21,0,247
172,http://www.group15_KD_tr_onto/GN,Groningen railway station,GN,53.2106,6.56472,0.9494949494949495,http://www.group15_KD_tr_onto/280,Eelde,280,53.125,6.585,40,-4,21,0,247
173,http://www.group15_KD_tr_onto/HDB,Hardenberg railway station,HDB,52.5722,6.62778,0.6016949152542372,http://www.group15_KD_tr_onto/280,Eelde,280,53.125,6.585,40,-4,21,0,247
174,http://www.group15_KD_tr_onto/HGV,Hoogeveen railway station,HGV,52.7333,6.4725,0.5,http://www.group15_KD_tr_onto/280,Eelde,280,53.125,6.585,40,-4,21,0,247
175,http://www.group15_KD_tr_onto/HRN,Haren (NL) railway station,HRN,53.175,6.61778,0.5921052631578947,http://www.group15_KD_tr_onto/280,Eelde,280,53.125,6.585,40,-4,21,0,247
176,http://www.group15_KD_tr_onto/KW,Kropswolde railway station,KW,53.1617,6.72139,0.9924812030075187,http://www.group15_KD_tr_onto/280,Eelde,280,53.125,6.585,40,-4,21,0,247
177,http://www.group15_KD_tr_onto/NA,Nieuw Amsterdam railway station,NA,52.7186,6.84861,0.8026315789473685,http://www.group15_KD_tr_onto/280,Eelde,280,53.125,6.585,40,-4,21,0,247
178,http://www.group15_KD_tr_onto/NSCH,Bad Nieuweschans railway station,NSCH,53.1842,7.19944,0.9230769230769231,http://www.group15_KD_tr_onto/280,Eelde,280,53.125,6.585,40,-4,21,0,247
179,http://www.group15_KD_tr_onto/SWK,Steenwijk railway station,SWK,52.7908,6.11611,1.3455882352941178,http://www.group15_KD_tr_onto/280,Eelde,280,53.125,6.585,40,-4,21,0,247
180,http://www.group15_KD_tr_onto/VDM,Veendam railway station,VDM,53.1036,6.88472,0.5151515151515151,http://www.group15_KD_tr_onto/280,Eelde,280,53.125,6.585,40,-4,21,0,247
181,http://www.group15_KD_tr_onto/VD,Coevorden railway station,VD,52.6631,6.73556,0.7391304347826086,http://www.group15_KD_tr_onto/280,Eelde,280,53.125,6.585,40,-4,21,0,247
182,http://www.group15_KD_tr_onto/BGN,Bergen op Zoom railway station,BGN,51.4947,4.29611,0.9433962264150944,http://www.group15_KD_tr_onto/340,Woensdrecht,340,51.449,4.342,50,26,90,2,240
183,http://www.group15_KD_tr_onto/KBD,Krabbendijke railway station,KBD,51.4333,4.11694,0.5733333333333334,http://www.group15_KD_tr_onto/340,Woensdrecht,340,51.449,4.342,50,26,90,2,240
184,http://www.group15_KD_tr_onto/KRG,Kruiningen-Yerseke railway station,KRG,51.4653,4.03694,0.49333333333333335,http://www.group15_KD_tr_onto/340,Woensdrecht,340,51.449,4.342,50,26,90,2,240
185,http://www.group15_KD_tr_onto/ODB,Oudenbosch railway station,ODB,51.5881,4.53361,0.08695652173913043,http://www.group15_KD_tr_onto/340,Woensdrecht,340,51.449,4.342,50,26,90,2,240
186,http://www.group15_KD_tr_onto/RB,Rilland-Bath railway station,RB,51.4222,4.16111,1.0933333333333333,http://www.group15_KD_tr_onto/340,Woensdrecht,340,51.449,4.342,50,26,90,2,240
187,http://www.group15_KD_tr_onto/RSD,Roosendaal railway station,RSD,51.5403,4.45889,1.5737704918032787,http://www.group15_KD_tr_onto/340,Woensdrecht,340,51.449,4.342,50,26,90,2,240
188,http://www.group15_KD_tr_onto/BSKS,Boskoop Snijdelwijk railway station,BSKS,52.0676,4.6462,0.49230769230769234,http://www.group15_KD_tr_onto/344,Rotterdam,344,51.962,4.447,60,25,115,1,246
189,http://www.group15_KD_tr_onto/CPS,Capelle Schollevaar railway station,CPS,51.9533,4.58417,1.2025316455696202,http://www.group15_KD_tr_onto/344,Rotterdam,344,51.962,4.447,60,25,115,1,246
190,http://www.group15_KD_tr_onto/DT,Rotterdam Delftsche Poort railway station,DT,51.9253,4.47361,1.2106741573033708,http://www.group15_KD_tr_onto/344,Rotterdam,344,51.962,4.447,60,25,115,1,246
191,http://www.group15_KD_tr_onto/EC,Dordrecht railway station,EC,51.8075,4.66778,1.7333333333333334,http://www.group15_KD_tr_onto/344,Rotterdam,344,51.962,4.447,60,25,115,1,246
192,http://www.group15_KD_tr_onto/GD,Gouda railway station,GD,52.0175,4.70556,1.008230452674897,http://www.group15_KD_tr_onto/344,Rotterdam,344,51.962,4.447,60,25,115,1,246
193,http://www.group15_KD_tr_onto/GVMW,Den Haag Moerwijk railway station,GVMW,52.0533,4.30861,0.6428571428571429,http://www.group15_KD_tr_onto/344,Rotterdam,344,51.962,4.447,60,25,115,1,246
194,http://www.group15_KD_tr_onto/NWK,Nieuwerkerk aan den IJssel railway station,NWK,51.9653,4.61694,1.240506329113924,http://www.group15_KD_tr_onto/344,Rotterdam,344,51.962,4.447,60,25,115,1,246
195,http://www.group15_KD_tr_onto/RLB,Rotterdam Lombardijen railway station,RLB,51.8797,4.53111,0.4782608695652174,http://www.group15_KD_tr_onto/344,Rotterdam,344,51.962,4.447,60,25,115,1,246
196,http://www.group15_KD_tr_onto/RSW,Rijswijk railway station,RSW,52.0394,4.31972,0.6,http://www.group15_KD_tr_onto/344,Rotterdam,344,51.962,4.447,60,25,115,1,246
197,http://www.group15_KD_tr_onto/RTA,Rotterdam Alexander station,RTA,51.9519,4.55278,1.7891891891891891,http://www.group15_KD_tr_onto/344,Rotterdam,344,51.962,4.447,60,25,115,1,246
198,http://www.group15_KD_tr_onto/RTB,Rotterdam Blaak station,RTB,51.92,4.48917,1.0444444444444445,http://www.group15_KD_tr_onto/344,Rotterdam,344,51.962,4.447,60,25,115,1,246
199,http://www.group15_KD_tr_onto/RTD,Rotterdam Centraal station,RTD,51.9244,4.46944,2.32183908045977,http://www.group15_KD_tr_onto/344,Rotterdam,344,51.962,4.447,60,25,115,1,246
200,http://www.group15_KD_tr_onto/RTN,Rotterdam Noord railway station,RTN,51.9422,4.48139,1.7088607594936709,http://www.group15_KD_tr_onto/344,Rotterdam,344,51.962,4.447,60,25,115,1,246
201,http://www.group15_KD_tr_onto/RTZ,Rotterdam Zuid railway station,RTZ,51.9094,4.50944,0.5652173913043478,http://www.group15_KD_tr_onto/344,Rotterdam,344,51.962,4.447,60,25,115,1,246
202,http://www.group15_KD_tr_onto/SDM,Schiedam Centrum station,SDM,51.9219,4.41,0.8690909090909091,http://www.group15_KD_tr_onto/344,Rotterdam,344,51.962,4.447,60,25,115,1,246
203,http://www.group15_KD_tr_onto/SDT,Sliedrecht Baanhoek railway station,SDT,51.8297,4.74333,2.3777777777777778,http://www.group15_KD_tr_onto/344,Rotterdam,344,51.962,4.447,60,25,115,1,246
204,http://www.group15_KD_tr_onto/YPB,Den Haag Ypenburg railway station,YPB,52.0592,4.38972,0.6346153846153846,http://www.group15_KD_tr_onto/344,Rotterdam,344,51.962,4.447,60,25,115,1,246
205,http://www.group15_KD_tr_onto/ZTM,Lansingerland-Zoetermeer railway station,ZTM,52.0394,4.52556,0.0,http://www.group15_KD_tr_onto/344,Rotterdam,344,51.962,4.447,60,25,115,1,246
206,http://www.group15_KD_tr_onto/ZWD,Zwijndrecht railway station,ZWD,51.8147,4.64222,0.463768115942029,http://www.group15_KD_tr_onto/344,Rotterdam,344,51.962,4.447,60,25,115,1,246
207,http://www.group15_KD_tr_onto/BD,Breda railway station,BD,51.595,4.78,2.0677966101694913,http://www.group15_KD_tr_onto/350,Gilze-Rijen,350,51.566,4.936,30,29,18,25,240
208,http://www.group15_KD_tr_onto/BHDV,Boven Hardinxveld railway station,BHDV,51.8319,4.87472,1.9185185185185185,http://www.group15_KD_tr_onto/350,Gilze-Rijen,350,51.566,4.936,30,29,18,25,240
209,http://www.group15_KD_tr_onto/ETN,Etten-Leur railway station,ETN,51.5753,4.63694,0.0,http://www.group15_KD_tr_onto/350,Gilze-Rijen,350,51.566,4.936,30,29,18,25,240
210,http://www.group15_KD_tr_onto/GND,Hardinxveld-Giessendam railway station,GND,51.8303,4.83528,2.3777777777777778,http://www.group15_KD_tr_onto/350,Gilze-Rijen,350,51.566,4.936,30,29,18,25,240
211,http://www.group15_KD_tr_onto/GR,Gorinchem railway station,GR,51.8336,4.9675,2.056603773584906,http://www.group15_KD_tr_onto/350,Gilze-Rijen,350,51.566,4.936,30,29,18,25,240
212,http://www.group15_KD_tr_onto/GZ,Gilze-Rijen railway station,GZ,51.5839,4.925,0.6923076923076923,http://www.group15_KD_tr_onto/350,Gilze-Rijen,350,51.566,4.936,30,29,18,25,240
213,http://www.group15_KD_tr_onto/OT,Oisterwijk railway station,OT,51.5822,5.19444,0.6231884057971014,http://www.group15_KD_tr_onto/350,Gilze-Rijen,350,51.566,4.936,30,29,18,25,240
214,http://www.group15_KD_tr_onto/TBR,Tilburg Reeshof railway station,TBR,51.5739,4.99278,0.782051282051282,http://www.group15_KD_tr_onto/350,Gilze-Rijen,350,51.566,4.936,30,29,18,25,240
215,http://www.group15_KD_tr_onto/TBU,Tilburg Universiteit railway station,TBU,51.5653,5.05139,0.6071428571428571,http://www.group15_KD_tr_onto/350,Gilze-Rijen,350,51.566,4.936,30,29,18,25,240
216,http://www.group15_KD_tr_onto/TB,Tilburg railway station,TB,51.5606,5.08278,1.2895622895622896,http://www.group15_KD_tr_onto/350,Gilze-Rijen,350,51.566,4.936,30,29,18,25,240
217,http://www.group15_KD_tr_onto/ZLW,Lage Zwaluwe railway station,ZLW,51.6906,4.66333,0.5540540540540541,http://www.group15_KD_tr_onto/350,Gilze-Rijen,350,51.566,4.936,30,29,18,25,240
218,http://www.group15_KD_tr_onto/ZVB,Zevenbergen railway station,ZVB,51.6414,4.60972,0.5797101449275363,http://www.group15_KD_tr_onto/350,Gilze-Rijen,350,51.566,4.936,30,29,18,25,240
219,http://www.group15_KD_tr_onto/BET,Best railway station,BET,51.5097,5.38889,0.777027027027027,http://www.group15_KD_tr_onto/370,Eindhoven,370,51.451,5.377,50,27,22,34,234
220,http://www.group15_KD_tr_onto/BMR,Boxmeer railway station,BMR,51.6444,5.93944,0.6532258064516129,http://www.group15_KD_tr_onto/370,Eindhoven,370,51.451,5.377,50,27,22,34,234
221,http://www.group15_KD_tr_onto/BR,Blerick railway station,BR,51.3725,6.155,0.8618421052631579,http://www.group15_KD_tr_onto/370,Eindhoven,370,51.451,5.377,50,27,22,34,234
222,http://www.group15_KD_tr_onto/BTL,Boxtel railway station,BTL,51.5844,5.31889,0.5540540540540541,http://www.group15_KD_tr_onto/370,Eindhoven,370,51.451,5.377,50,27,22,34,234
223,http://www.group15_KD_tr_onto/DN,Deurne railway station,DN,51.4558,5.78833,1.2452830188679245,http://www.group15_KD_tr_onto/370,Eindhoven,370,51.451,5.377,50,27,22,34,234
224,http://www.group15_KD_tr_onto/EHS,Eindhoven Stadion railway station,EHS,51.443,5.46731,0.7972972972972973,http://www.group15_KD_tr_onto/370,Eindhoven,370,51.451,5.377,50,27,22,34,234
225,http://www.group15_KD_tr_onto/EHV,Eindhoven Centraal railway station,EHV,51.4428,5.48028,1.6552706552706553,http://www.group15_KD_tr_onto/370,Eindhoven,370,51.451,5.377,50,27,22,34,234
226,http://www.group15_KD_tr_onto/GP,Geldrop railway station,GP,51.42,5.55111,0.5373134328358209,http://www.group15_KD_tr_onto/370,Eindhoven,370,51.451,5.377,50,27,22,34,234
227,http://www.group15_KD_tr_onto/HMH,Helmond 't Hout railway station,HMH,51.4678,5.63083,1.1911764705882353,http://www.group15_KD_tr_onto/370,Eindhoven,370,51.451,5.377,50,27,22,34,234
228,http://www.group15_KD_tr_onto/HM,Helmond railway station,HM,51.4756,5.66167,1.0928571428571427,http://www.group15_KD_tr_onto/370,Eindhoven,370,51.451,5.377,50,27,22,34,234
229,http://www.group15_KD_tr_onto/HRT,Horst-Sevenum railway station,HRT,51.4267,6.04194,0.6666666666666666,http://www.group15_KD_tr_onto/370,Eindhoven,370,51.451,5.377,50,27,22,34,234
230,http://www.group15_KD_tr_onto/HT,'s-Hertogenbosch railway station,HT,51.69,5.29333,1.1420911528150135,http://www.group15_KD_tr_onto/370,Eindhoven,370,51.451,5.377,50,27,22,34,234
231,http://www.group15_KD_tr_onto/HZ,Heeze railway station,HZ,51.385,5.56944,1.25,http://www.group15_KD_tr_onto/370,Eindhoven,370,51.451,5.377,50,27,22,34,234
232,http://www.group15_KD_tr_onto/MZ,Maarheeze railway station,MZ,51.3039,5.63028,0.5970149253731343,http://www.group15_KD_tr_onto/370,Eindhoven,370,51.451,5.377,50,27,22,34,234
233,http://www.group15_KD_tr_onto/OW,Oss West railway station,OW,51.7581,5.50611,0.8552631578947368,http://www.group15_KD_tr_onto/370,Eindhoven,370,51.451,5.377,50,27,22,34,234
234,http://www.group15_KD_tr_onto/O,Oss railway station,O,51.7653,5.53167,1.4509803921568627,http://www.group15_KD_tr_onto/370,Eindhoven,370,51.451,5.377,50,27,22,34,234
235,http://www.group15_KD_tr_onto/RS,Rosmalen railway station,RS,51.715,5.36889,0.013157894736842105,http://www.group15_KD_tr_onto/370,Eindhoven,370,51.451,5.377,50,27,22,34,234
236,http://www.group15_KD_tr_onto/TG,Tegelen railway station,TG,51.3411,6.14333,1.4473684210526316,http://www.group15_KD_tr_onto/370,Eindhoven,370,51.451,5.377,50,27,22,34,234
237,http://www.group15_KD_tr_onto/VG,Vught railway station,VG,51.6547,5.29194,0.27848101265822783,http://www.group15_KD_tr_onto/370,Eindhoven,370,51.451,5.377,50,27,22,34,234
238,http://www.group15_KD_tr_onto/VLB,Vierlingsbeek railway station,VLB,51.5922,5.99667,1.0,http://www.group15_KD_tr_onto/370,Eindhoven,370,51.451,5.377,50,27,22,34,234
239,http://www.group15_KD_tr_onto/VL,Venlo railway station,VL,51.3647,6.17139,1.1818181818181819,http://www.group15_KD_tr_onto/370,Eindhoven,370,51.451,5.377,50,27,22,34,234
240,http://www.group15_KD_tr_onto/VRY,Venray railway station,VRY,51.5264,6.01417,1.1844660194174756,http://www.group15_KD_tr_onto/370,Eindhoven,370,51.451,5.377,50,27,22,34,234
241,http://www.group15_KD_tr_onto/WT,Weert railway station,WT,51.2486,5.7025,1.6134969325153374,http://www.group15_KD_tr_onto/370,Eindhoven,370,51.451,5.377,50,27,22,34,234
242,http://www.group15_KD_tr_onto/CVM,Chevremont railway station,CVM,50.8758,6.05944,0.6071428571428571,http://www.group15_KD_tr_onto/380,Maastricht,380,50.906,5.762,40,25,2,50,227
243,http://www.group15_KD_tr_onto/EDN,Eijsden railway station,EDN,50.772,5.71004,1.8611111111111112,http://www.group15_KD_tr_onto/380,Maastricht,380,50.906,5.762,40,25,2,50,227
244,http://www.group15_KD_tr_onto/EGH,Eygelshoven railway station,EGH,50.8903,6.04556,0.35714285714285715,http://www.group15_KD_tr_onto/380,Maastricht,380,50.906,5.762,40,25,2,50,227
245,http://www.group15_KD_tr_onto/GLN,Geleen Oost railway station,GLN,50.9672,5.84306,0.5925925925925926,http://www.group15_KD_tr_onto/380,Maastricht,380,50.906,5.762,40,25,2,50,227
246,http://www.group15_KD_tr_onto/HB,Hoensbroek railway station,HB,50.9053,5.93111,1.5,http://www.group15_KD_tr_onto/380,Maastricht,380,50.906,5.762,40,25,2,50,227
247,http://www.group15_KD_tr_onto/HRLW,Heerlen Woonboulevard railway station,HRLW,50.8961,5.95278,0.704225352112676,http://www.group15_KD_tr_onto/380,Maastricht,380,50.906,5.762,40,25,2,50,227
248,http://www.group15_KD_tr_onto/HRL,Heerlen railway station,HRL,50.8908,5.97472,1.3219512195121952,http://www.group15_KD_tr_onto/380,Maastricht,380,50.906,5.762,40,25,2,50,227
249,http://www.group15_KD_tr_onto/KMR,Klimmen-Ransdaal railway station,KMR,50.8667,5.89056,0.6901408450704225,http://www.group15_KD_tr_onto/380,Maastricht,380,50.906,5.762,40,25,2,50,227
250,http://www.group15_KD_tr_onto/KRD,Kerkrade Centrum railway station,KRD,50.8614,6.0575,0.8571428571428571,http://www.group15_KD_tr_onto/380,Maastricht,380,50.906,5.762,40,25,2,50,227
251,http://www.group15_KD_tr_onto/LG,Landgraaf railway station,LG,50.8964,6.02,0.9765625,http://www.group15_KD_tr_onto/380,Maastricht,380,50.906,5.762,40,25,2,50,227
252,http://www.group15_KD_tr_onto/MT,Maastricht railway station,MT,50.85,5.70528,1.1781376518218623,http://www.group15_KD_tr_onto/380,Maastricht,380,50.906,5.762,40,25,2,50,227
253,http://www.group15_KD_tr_onto/NH,Nuth railway station,NH,50.9197,5.8925,1.2222222222222223,http://www.group15_KD_tr_onto/380,Maastricht,380,50.906,5.762,40,25,2,50,227
254,http://www.group15_KD_tr_onto/RM,Roermond railway station,RM,51.1933,5.99472,1.6553398058252426,http://www.group15_KD_tr_onto/380,Maastricht,380,50.906,5.762,40,25,2,50,227
255,http://www.group15_KD_tr_onto/RV,Reuver railway station,RV,51.2831,6.07944,1.763157894736842,http://www.group15_KD_tr_onto/380,Maastricht,380,50.906,5.762,40,25,2,50,227
256,http://www.group15_KD_tr_onto/SBK,Spaubeek railway station,SBK,50.9431,5.84972,0.0,http://www.group15_KD_tr_onto/380,Maastricht,380,50.906,5.762,40,25,2,50,227
257,http://www.group15_KD_tr_onto/SM,Swalmen railway station,SM,51.2358,6.0325,0.9473684210526315,http://www.group15_KD_tr_onto/380,Maastricht,380,50.906,5.762,40,25,2,50,227
258,http://www.group15_KD_tr_onto/SN,Schinnen railway station,SN,50.9386,5.87611,0.0,http://www.group15_KD_tr_onto/380,Maastricht,380,50.906,5.762,40,25,2,50,227
259,http://www.group15_KD_tr_onto/SRN,Susteren railway station,SRN,51.0608,5.86278,1.64,http://www.group15_KD_tr_onto/380,Maastricht,380,50.906,5.762,40,25,2,50,227
260,http://www.group15_KD_tr_onto/STD,Sittard railway station,STD,51.0011,5.85833,1.6624472573839661,http://www.group15_KD_tr_onto/380,Maastricht,380,50.906,5.762,40,25,2,50,227
261,http://www.group15_KD_tr_onto/VDL,Voerendaal railway station,VDL,50.8867,5.92944,0.647887323943662,http://www.group15_KD_tr_onto/380,Maastricht,380,50.906,5.762,40,25,2,50,227
