,station,station_name,station_code,ts_lat,ts_long,delay,ws,ws_name,ws_code,ws_lat,ws_long,windspeed,mean_temp,percipitation,visibility,wind_direction
0,http://www.group15_KD_tr_onto/AMR,Alkmaar railway station,AMR,52.6378,4.74056,1.1878172588832487,http://www.group15_KD_tr_onto/235,De Kooy,235,52.928,4.781,60,125,13,3,200
1,http://www.group15_KD_tr_onto/ANA,Anna Paulowna railway station,ANA,52.8669,4.81111,1.5058823529411764,http://www.group15_KD_tr_onto/235,De Kooy,235,52.928,4.781,60,125,13,3,200
2,http://www.group15_KD_tr_onto/HDRZ,Den Helder Zuid railway station,HDRZ,52.9331,4.76389,1.2117647058823529,http://www.group15_KD_tr_onto/235,De Kooy,235,52.928,4.781,60,125,13,3,200
3,http://www.group15_KD_tr_onto/HDR,Den Helder railway station,HDR,52.9564,4.76083,2.116279069767442,http://www.group15_KD_tr_onto/235,De Kooy,235,52.928,4.781,60,125,13,3,200
4,http://www.group15_KD_tr_onto/HWD,Heerhugowaard railway station,HWD,52.67,4.82361,0.80625,http://www.group15_KD_tr_onto/235,De Kooy,235,52.928,4.781,60,125,13,3,200
5,http://www.group15_KD_tr_onto/OBD,Obdam railway station,OBD,52.6781,4.90833,0.2647058823529412,http://www.group15_KD_tr_onto/235,De Kooy,235,52.928,4.781,60,125,13,3,200
6,http://www.group15_KD_tr_onto/SGN,Schagen railway station,SGN,52.7861,4.80528,1.3103448275862069,http://www.group15_KD_tr_onto/235,De Kooy,235,52.928,4.781,60,125,13,3,200
7,http://www.group15_KD_tr_onto/AC,Abcoude railway station,AC,52.2744,4.98222,1.1167883211678833,http://www.group15_KD_tr_onto/240,Schiphol,240,52.318,4.79,60,129,59,2,195
8,http://www.group15_KD_tr_onto/AMPO,Almere Poort railway station,AMPO,52.3428,5.15194,0.6412556053811659,http://www.group15_KD_tr_onto/240,Schiphol,240,52.318,4.79,60,129,59,2,195
9,http://www.group15_KD_tr_onto/ASA,Amsterdam Amstel station,ASA,52.3464,4.91778,1.1533101045296168,http://www.group15_KD_tr_onto/240,Schiphol,240,52.318,4.79,60,129,59,2,195
10,http://www.group15_KD_tr_onto/ASB,Amsterdam Bijlmer ArenA station,ASB,52.3131,4.94611,0.8937728937728938,http://www.group15_KD_tr_onto/240,Schiphol,240,52.318,4.79,60,129,59,2,195
11,http://www.group15_KD_tr_onto/ASDL,Amsterdam Lelylaan station,ASDL,52.3572,4.83389,0.7593360995850622,http://www.group15_KD_tr_onto/240,Schiphol,240,52.318,4.79,60,129,59,2,195
12,http://www.group15_KD_tr_onto/ASDM,Amsterdam Muiderpoort railway station,ASDM,52.3608,4.93111,1.0133779264214047,http://www.group15_KD_tr_onto/240,Schiphol,240,52.318,4.79,60,129,59,2,195
13,http://www.group15_KD_tr_onto/ASDZ,Amsterdam Zuid station,ASDZ,52.3389,4.87306,0.7182795698924731,http://www.group15_KD_tr_onto/240,Schiphol,240,52.318,4.79,60,129,59,2,195
14,http://www.group15_KD_tr_onto/ASD,Amsterdam Centraal station,ASD,52.3783,4.9,1.9553349875930521,http://www.group15_KD_tr_onto/240,Schiphol,240,52.318,4.79,60,129,59,2,195
15,http://www.group15_KD_tr_onto/ASSP,Amsterdam Science Park railway station,ASSP,52.3525,4.94861,0.9629629629629629,http://www.group15_KD_tr_onto/240,Schiphol,240,52.318,4.79,60,129,59,2,195
16,http://www.group15_KD_tr_onto/ASS,Amsterdam Sloterdijk station,ASS,52.3892,4.83806,0.891860465116279,http://www.group15_KD_tr_onto/240,Schiphol,240,52.318,4.79,60,129,59,2,195
17,http://www.group15_KD_tr_onto/BLL,Bloemendaal railway station,BLL,52.4042,4.6275,1.0759493670886076,http://www.group15_KD_tr_onto/240,Schiphol,240,52.318,4.79,60,129,59,2,195
18,http://www.group15_KD_tr_onto/BV,Beverwijk railway station,BV,52.4783,4.65611,0.5754716981132075,http://www.group15_KD_tr_onto/240,Schiphol,240,52.318,4.79,60,129,59,2,195
19,http://www.group15_KD_tr_onto/CAS,Castricum railway station,CAS,52.5456,4.65889,1.0429184549356223,http://www.group15_KD_tr_onto/240,Schiphol,240,52.318,4.79,60,129,59,2,195
20,http://www.group15_KD_tr_onto/DMNZ,Diemen Zuid station,DMNZ,52.3303,4.95639,0.4962962962962963,http://www.group15_KD_tr_onto/240,Schiphol,240,52.318,4.79,60,129,59,2,195
21,http://www.group15_KD_tr_onto/DMN,Diemen railway station,DMN,52.3453,4.96694,0.9012345679012346,http://www.group15_KD_tr_onto/240,Schiphol,240,52.318,4.79,60,129,59,2,195
22,http://www.group15_KD_tr_onto/HAD,Heemstede-Aerdenhout railway station,HAD,52.3597,4.60694,0.7351598173515982,http://www.group15_KD_tr_onto/240,Schiphol,240,52.318,4.79,60,129,59,2,195
23,http://www.group15_KD_tr_onto/HFD,Hoofddorp railway station,HFD,52.2933,4.7,0.6484375,http://www.group15_KD_tr_onto/240,Schiphol,240,52.318,4.79,60,129,59,2,195
24,http://www.group15_KD_tr_onto/HIL,Hillegom railway station,HIL,52.3028,4.56583,0.26582278481012656,http://www.group15_KD_tr_onto/240,Schiphol,240,52.318,4.79,60,129,59,2,195
25,http://www.group15_KD_tr_onto/HK,Heemskerk railway station,HK,52.4947,4.68611,0.5822784810126582,http://www.group15_KD_tr_onto/240,Schiphol,240,52.318,4.79,60,129,59,2,195
26,http://www.group15_KD_tr_onto/HLMS,Haarlem Spaarnwoude railway station,HLMS,52.3828,4.67111,0.7279411764705882,http://www.group15_KD_tr_onto/240,Schiphol,240,52.318,4.79,60,129,59,2,195
27,http://www.group15_KD_tr_onto/HLM,Haarlem railway station,HLM,52.3878,4.63889,0.5801749271137027,http://www.group15_KD_tr_onto/240,Schiphol,240,52.318,4.79,60,129,59,2,195
28,http://www.group15_KD_tr_onto/HLO,Heiloo railway station,HLO,52.6,4.70083,1.2021857923497268,http://www.group15_KD_tr_onto/240,Schiphol,240,52.318,4.79,60,129,59,2,195
29,http://www.group15_KD_tr_onto/HWZB,Halfweg-Zwanenburg railway station,HWZB,52.3847,4.75167,0.5808823529411765,http://www.group15_KD_tr_onto/240,Schiphol,240,52.318,4.79,60,129,59,2,195
30,http://www.group15_KD_tr_onto/NVP,Nieuw-Vennep railway station,NVP,52.2597,4.64556,0.6268656716417911,http://www.group15_KD_tr_onto/240,Schiphol,240,52.318,4.79,60,129,59,2,195
31,http://www.group15_KD_tr_onto/OVN,Overveen railway station,OVN,52.3908,4.60778,0.4935064935064935,http://www.group15_KD_tr_onto/240,Schiphol,240,52.318,4.79,60,129,59,2,195
32,http://www.group15_KD_tr_onto/PMR,Purmerend railway station,PMR,52.5033,4.95417,0.5487804878048781,http://www.group15_KD_tr_onto/240,Schiphol,240,52.318,4.79,60,129,59,2,195
33,http://www.group15_KD_tr_onto/PMW,Purmerend Weidevenne railway station,PMW,52.4967,4.93667,0.6829268292682927,http://www.group15_KD_tr_onto/240,Schiphol,240,52.318,4.79,60,129,59,2,195
34,http://www.group15_KD_tr_onto/RAI,Amsterdam RAI station,RAI,52.3367,4.89056,0.48148148148148145,http://www.group15_KD_tr_onto/240,Schiphol,240,52.318,4.79,60,129,59,2,195
35,http://www.group15_KD_tr_onto/SHL,Schiphol Airport railway station,SHL,52.3089,4.76167,1.5024813895781637,http://www.group15_KD_tr_onto/240,Schiphol,240,52.318,4.79,60,129,59,2,195
36,http://www.group15_KD_tr_onto/SPTN,Santpoort Noord railway station,SPTN,52.4428,4.63917,0.5443037974683544,http://www.group15_KD_tr_onto/240,Schiphol,240,52.318,4.79,60,129,59,2,195
37,http://www.group15_KD_tr_onto/SPTZ,Santpoort Zuid railway station,SPTZ,52.4194,4.63167,0.620253164556962,http://www.group15_KD_tr_onto/240,Schiphol,240,52.318,4.79,60,129,59,2,195
38,http://www.group15_KD_tr_onto/UTG,Uitgeest railway station,UTG,52.5219,4.70278,0.8866666666666667,http://www.group15_KD_tr_onto/240,Schiphol,240,52.318,4.79,60,129,59,2,195
39,http://www.group15_KD_tr_onto/WM,Wormerveer railway station,WM,52.4892,4.79278,0.9130434782608695,http://www.group15_KD_tr_onto/240,Schiphol,240,52.318,4.79,60,129,59,2,195
40,http://www.group15_KD_tr_onto/WP,Weesp railway station,WP,52.3131,5.04361,0.6734006734006734,http://www.group15_KD_tr_onto/240,Schiphol,240,52.318,4.79,60,129,59,2,195
41,http://www.group15_KD_tr_onto/ZD,Zaandam railway station,ZD,52.4389,4.81472,0.6051873198847262,http://www.group15_KD_tr_onto/240,Schiphol,240,52.318,4.79,60,129,59,2,195
42,http://www.group15_KD_tr_onto/ZVT,Zandvoort aan Zee railway station,ZVT,52.3758,4.53139,0.9473684210526315,http://www.group15_KD_tr_onto/240,Schiphol,240,52.318,4.79,60,129,59,2,195
43,http://www.group15_KD_tr_onto/AKL,Arkel railway station,AKL,51.8719,4.99278,0.11538461538461539,http://www.group15_KD_tr_onto/260,De Bilt,260,52.1,5.18,30,126,28,1,190
44,http://www.group15_KD_tr_onto/BHV,Bilthoven railway station,BHV,52.13,5.20528,0.4429530201342282,http://www.group15_KD_tr_onto/260,De Bilt,260,52.1,5.18,30,126,28,1,190
45,http://www.group15_KD_tr_onto/BKL,Breukelen railway station,BKL,52.17,4.99056,0.9252873563218391,http://www.group15_KD_tr_onto/260,De Bilt,260,52.1,5.18,30,126,28,1,190
46,http://www.group15_KD_tr_onto/BNK,Bunnik railway station,BNK,52.0631,5.19556,0.5307692307692308,http://www.group15_KD_tr_onto/260,De Bilt,260,52.1,5.18,30,126,28,1,190
47,http://www.group15_KD_tr_onto/BSD,Beesd railway station,BSD,51.8992,5.195,0.15384615384615385,http://www.group15_KD_tr_onto/260,De Bilt,260,52.1,5.18,30,126,28,1,190
48,http://www.group15_KD_tr_onto/CL,Culemborg railway station,CL,51.9472,5.22722,0.8627450980392157,http://www.group15_KD_tr_onto/260,De Bilt,260,52.1,5.18,30,126,28,1,190
49,http://www.group15_KD_tr_onto/DB,Driebergen-Zeist railway station,DB,52.065,5.26,1.116751269035533,http://www.group15_KD_tr_onto/260,De Bilt,260,52.1,5.18,30,126,28,1,190
50,http://www.group15_KD_tr_onto/GDM,Geldermalsen railway station,GDM,51.8839,5.27083,0.7395833333333334,http://www.group15_KD_tr_onto/260,De Bilt,260,52.1,5.18,30,126,28,1,190
51,http://www.group15_KD_tr_onto/HTN,Houten railway station,HTN,52.0344,5.16778,0.7513513513513513,http://www.group15_KD_tr_onto/260,De Bilt,260,52.1,5.18,30,126,28,1,190
52,http://www.group15_KD_tr_onto/LDM,Leerdam railway station,LDM,51.8947,5.09333,0.08974358974358974,http://www.group15_KD_tr_onto/260,De Bilt,260,52.1,5.18,30,126,28,1,190
53,http://www.group15_KD_tr_onto/MAS,Maarssen railway station,MAS,52.1358,5.03306,0.48148148148148145,http://www.group15_KD_tr_onto/260,De Bilt,260,52.1,5.18,30,126,28,1,190
54,http://www.group15_KD_tr_onto/UTLR,Utrecht Leidsche Rijn railway station,UTLR,52.0983,5.06917,0.6397058823529411,http://www.group15_KD_tr_onto/260,De Bilt,260,52.1,5.18,30,126,28,1,190
55,http://www.group15_KD_tr_onto/UTO,Utrecht Overvecht railway station,UTO,52.11,5.12528,0.2756183745583039,http://www.group15_KD_tr_onto/260,De Bilt,260,52.1,5.18,30,126,28,1,190
56,http://www.group15_KD_tr_onto/UTT,Utrecht Terwijde railway station,UTT,52.1008,5.04306,0.6470588235294118,http://www.group15_KD_tr_onto/260,De Bilt,260,52.1,5.18,30,126,28,1,190
57,http://www.group15_KD_tr_onto/UTVR,Utrecht Vaartsche Rijn railway station,UTVR,52.0786,5.1225,0.5904761904761905,http://www.group15_KD_tr_onto/260,De Bilt,260,52.1,5.18,30,126,28,1,190
58,http://www.group15_KD_tr_onto/UTZL,Utrecht Zuilen railway station,UTZL,52.1031,5.08917,0.4074074074074074,http://www.group15_KD_tr_onto/260,De Bilt,260,52.1,5.18,30,126,28,1,190
59,http://www.group15_KD_tr_onto/UT,Utrecht Centraal railway station,UT,52.0892,5.10972,0.946360153256705,http://www.group15_KD_tr_onto/260,De Bilt,260,52.1,5.18,30,126,28,1,190
60,http://www.group15_KD_tr_onto/VTN,Vleuten railway station,VTN,52.1031,5.01194,0.7867647058823529,http://www.group15_KD_tr_onto/260,De Bilt,260,52.1,5.18,30,126,28,1,190
61,http://www.group15_KD_tr_onto/WD,Woerden railway station,WD,52.0847,4.89306,0.7874564459930313,http://www.group15_KD_tr_onto/260,De Bilt,260,52.1,5.18,30,126,28,1,190
62,http://www.group15_KD_tr_onto/ZBM,Zaltbommel railway station,ZBM,51.8069,5.26472,1.0,http://www.group15_KD_tr_onto/260,De Bilt,260,52.1,5.18,30,126,28,1,190
63,http://www.group15_KD_tr_onto/BKF,Bovenkarspel Flora railway station,BKF,52.6958,5.25306,0.24050632911392406,http://www.group15_KD_tr_onto/267,Stavoren,267,52.898,5.384,50,120,26,0,174
64,http://www.group15_KD_tr_onto/BKG,Bovenkarspel-Grootebroek railway station,BKG,52.695,5.23611,0.26582278481012656,http://www.group15_KD_tr_onto/267,Stavoren,267,52.898,5.384,50,120,26,0,174
65,http://www.group15_KD_tr_onto/EKZ,Enkhuizen railway station,EKZ,52.6994,5.28778,0.45,http://www.group15_KD_tr_onto/267,Stavoren,267,52.898,5.384,50,120,26,0,174
66,http://www.group15_KD_tr_onto/HKS,Hoogkarspel railway station,HKS,52.6906,5.18389,0.3924050632911392,http://www.group15_KD_tr_onto/267,Stavoren,267,52.898,5.384,50,120,26,0,174
67,http://www.group15_KD_tr_onto/HNP,Hindeloopen railway station,HNP,52.9461,5.42306,1.3125,http://www.group15_KD_tr_onto/267,Stavoren,267,52.898,5.384,50,120,26,0,174
68,http://www.group15_KD_tr_onto/HN,Hoorn railway station,HN,52.645,5.05472,0.5925925925925926,http://www.group15_KD_tr_onto/267,Stavoren,267,52.898,5.384,50,120,26,0,174
69,http://www.group15_KD_tr_onto/IJT,IJlst railway station,IJT,53.0147,5.61639,0.75,http://www.group15_KD_tr_onto/267,Stavoren,267,52.898,5.384,50,120,26,0,174
70,http://www.group15_KD_tr_onto/KMW,Koudum-Molkwerum railway station,KMW,52.9022,5.41056,1.375,http://www.group15_KD_tr_onto/267,Stavoren,267,52.898,5.384,50,120,26,0,174
71,http://www.group15_KD_tr_onto/STV,Stavoren railway station,STV,52.8867,5.35972,1.5,http://www.group15_KD_tr_onto/267,Stavoren,267,52.898,5.384,50,120,26,0,174
72,http://www.group15_KD_tr_onto/WK,Workum railway station,WK,52.9714,5.45583,1.1666666666666667,http://www.group15_KD_tr_onto/267,Stavoren,267,52.898,5.384,50,120,26,0,174
73,http://www.group15_KD_tr_onto/WV,Wolvega railway station,WV,52.8797,6.00472,0.19117647058823528,http://www.group15_KD_tr_onto/267,Stavoren,267,52.898,5.384,50,120,26,0,174
74,http://www.group15_KD_tr_onto/ALMB,Almere Buiten railway station,ALMB,52.3942,5.27778,0.671875,http://www.group15_KD_tr_onto/269,Lelystad,269,52.458,5.52,40,119,30,1,188
75,http://www.group15_KD_tr_onto/ALMM,Almere Muziekwijk railway station,ALMM,52.3675,5.19028,0.6502242152466368,http://www.group15_KD_tr_onto/269,Lelystad,269,52.458,5.52,40,119,30,1,188
76,http://www.group15_KD_tr_onto/ALMO,Almere Oostvaarders railway station,ALMO,52.4028,5.3,0.9814814814814815,http://www.group15_KD_tr_onto/269,Lelystad,269,52.458,5.52,40,119,30,1,188
77,http://www.group15_KD_tr_onto/ALMP,Almere Parkwijk railway station,ALMP,52.3767,5.24444,0.6956521739130435,http://www.group15_KD_tr_onto/269,Lelystad,269,52.458,5.52,40,119,30,1,188
78,http://www.group15_KD_tr_onto/ALM,Almere Centrum railway station,ALM,52.375,5.21778,0.8333333333333334,http://www.group15_KD_tr_onto/269,Lelystad,269,52.458,5.52,40,119,30,1,188
79,http://www.group15_KD_tr_onto/DL,Dalfsen railway station,DL,52.4981,6.25861,0.7608695652173914,http://www.group15_KD_tr_onto/269,Lelystad,269,52.458,5.52,40,119,30,1,188
80,http://www.group15_KD_tr_onto/DRON,Dronten railway station,DRON,52.5339,5.72306,0.0,http://www.group15_KD_tr_onto/269,Lelystad,269,52.458,5.52,40,119,30,1,188
81,http://www.group15_KD_tr_onto/EML,Ermelo railway station,EML,52.3011,5.61444,0.6027397260273972,http://www.group15_KD_tr_onto/269,Lelystad,269,52.458,5.52,40,119,30,1,188
82,http://www.group15_KD_tr_onto/HDE,'t Harde railway station,HDE,52.4089,5.89306,0.3013698630136986,http://www.group15_KD_tr_onto/269,Lelystad,269,52.458,5.52,40,119,30,1,188
83,http://www.group15_KD_tr_onto/HD,Harderwijk railway station,HD,52.3375,5.61972,0.5945945945945946,http://www.group15_KD_tr_onto/269,Lelystad,269,52.458,5.52,40,119,30,1,188
84,http://www.group15_KD_tr_onto/KPNZ,Kampen Zuid railway station,KPNZ,52.5342,5.91583,0.013157894736842105,http://www.group15_KD_tr_onto/269,Lelystad,269,52.458,5.52,40,119,30,1,188
85,http://www.group15_KD_tr_onto/KPN,Kampen railway station,KPN,52.5597,5.92111,0.07692307692307693,http://www.group15_KD_tr_onto/269,Lelystad,269,52.458,5.52,40,119,30,1,188
86,http://www.group15_KD_tr_onto/LLS,Lelystad Centrum railway station,LLS,52.5078,5.47333,1.9251700680272108,http://www.group15_KD_tr_onto/269,Lelystad,269,52.458,5.52,40,119,30,1,188
87,http://www.group15_KD_tr_onto/MP,Meppel railway station,MP,52.6914,6.1975,0.6333333333333333,http://www.group15_KD_tr_onto/269,Lelystad,269,52.458,5.52,40,119,30,1,188
88,http://www.group15_KD_tr_onto/NS,Nunspeet railway station,NS,52.3708,5.78472,0.4931506849315068,http://www.group15_KD_tr_onto/269,Lelystad,269,52.458,5.52,40,119,30,1,188
89,http://www.group15_KD_tr_onto/OMN,Ommen railway station,OMN,52.5094,6.41694,1.891304347826087,http://www.group15_KD_tr_onto/269,Lelystad,269,52.458,5.52,40,119,30,1,188
90,http://www.group15_KD_tr_onto/PT,Putten railway station,PT,52.2653,5.57611,0.3561643835616438,http://www.group15_KD_tr_onto/269,Lelystad,269,52.458,5.52,40,119,30,1,188
91,http://www.group15_KD_tr_onto/WZ,Wezep railway station,WZ,52.4536,6.00222,0.3835616438356164,http://www.group15_KD_tr_onto/269,Lelystad,269,52.458,5.52,40,119,30,1,188
92,http://www.group15_KD_tr_onto/ZLSH,Zwolle Stadshagen railway station,ZLSH,52.5279,6.05108,0.07692307692307693,http://www.group15_KD_tr_onto/269,Lelystad,269,52.458,5.52,40,119,30,1,188
93,http://www.group15_KD_tr_onto/ZL,Zwolle railway station,ZL,52.5053,6.09056,0.8251599147121536,http://www.group15_KD_tr_onto/269,Lelystad,269,52.458,5.52,40,119,30,1,188
94,http://www.group15_KD_tr_onto/AKM,Akkrum railway station,AKM,53.0472,5.84306,0.14705882352941177,http://www.group15_KD_tr_onto/270,Leeuwarden,270,53.224,5.752,50,116,14,1,182
95,http://www.group15_KD_tr_onto/DEI,Deinum railway station,DEI,53.1886,5.72778,0.27419354838709675,http://www.group15_KD_tr_onto/270,Leeuwarden,270,53.224,5.752,50,116,14,1,182
96,http://www.group15_KD_tr_onto/DRP,Dronryp railway station,DRP,53.1775,5.63472,0.14516129032258066,http://www.group15_KD_tr_onto/270,Leeuwarden,270,53.224,5.752,50,116,14,1,182
97,http://www.group15_KD_tr_onto/FN,Franeker railway station,FN,53.1822,5.54944,0.2903225806451613,http://www.group15_KD_tr_onto/270,Leeuwarden,270,53.224,5.752,50,116,14,1,182
98,http://www.group15_KD_tr_onto/GW,Grou-Jirnsum railway station,GW,53.0897,5.82222,0.20588235294117646,http://www.group15_KD_tr_onto/270,Leeuwarden,270,53.224,5.752,50,116,14,1,182
99,http://www.group15_KD_tr_onto/HDG,Hurdegaryp railway station,HDG,53.2186,5.93472,1.4696969696969697,http://www.group15_KD_tr_onto/270,Leeuwarden,270,53.224,5.752,50,116,14,1,182
100,http://www.group15_KD_tr_onto/HLG,Harlingen railway station,HLG,53.1703,5.42528,0.2903225806451613,http://www.group15_KD_tr_onto/270,Leeuwarden,270,53.224,5.752,50,116,14,1,182
101,http://www.group15_KD_tr_onto/HR,Heerenveen railway station,HR,52.9606,5.91528,0.40875912408759124,http://www.group15_KD_tr_onto/270,Leeuwarden,270,53.224,5.752,50,116,14,1,182
102,http://www.group15_KD_tr_onto/LW,Leeuwarden railway station,LW,53.1958,5.79111,0.5693069306930693,http://www.group15_KD_tr_onto/270,Leeuwarden,270,53.224,5.752,50,116,14,1,182
103,http://www.group15_KD_tr_onto/MG,Mantgum railway station,MG,53.1297,5.71333,0.5217391304347826,http://www.group15_KD_tr_onto/270,Leeuwarden,270,53.224,5.752,50,116,14,1,182
104,http://www.group15_KD_tr_onto/SK,Sneek railway station,SK,53.0322,5.65167,0.625,http://www.group15_KD_tr_onto/270,Leeuwarden,270,53.224,5.752,50,116,14,1,182
105,http://www.group15_KD_tr_onto/AHPR,Arnhem Presikhaaf railway station,AHPR,51.9875,5.94306,1.0138888888888888,http://www.group15_KD_tr_onto/275,Deelen,275,52.056,5.873,40,123,43,1,171
106,http://www.group15_KD_tr_onto/AHZ,Arnhem Zuid railway station,AHZ,51.9542,5.85167,0.4153846153846154,http://www.group15_KD_tr_onto/275,Deelen,275,52.056,5.873,40,123,43,1,171
107,http://www.group15_KD_tr_onto/AML,Almelo railway station,AML,52.3572,6.655,1.9613899613899615,http://www.group15_KD_tr_onto/275,Deelen,275,52.056,5.873,40,123,43,1,171
108,http://www.group15_KD_tr_onto/APD,Apeldoorn railway station,APD,52.2092,5.96944,1.2378048780487805,http://www.group15_KD_tr_onto/275,Deelen,275,52.056,5.873,40,123,43,1,171
109,http://www.group15_KD_tr_onto/ATN,Aalten railway station,ATN,51.9211,6.57806,1.0,http://www.group15_KD_tr_onto/275,Deelen,275,52.056,5.873,40,123,43,1,171
110,http://www.group15_KD_tr_onto/BMN,Brummen railway station,BMN,52.0908,6.14694,0.6805555555555556,http://www.group15_KD_tr_onto/275,Deelen,275,52.056,5.873,40,123,43,1,171
111,http://www.group15_KD_tr_onto/BN,Borne railway station,BN,52.2983,6.74833,0.5384615384615384,http://www.group15_KD_tr_onto/275,Deelen,275,52.056,5.873,40,123,43,1,171
112,http://www.group15_KD_tr_onto/CK,Cuijk railway station,CK,51.7264,5.87417,0.6612903225806451,http://www.group15_KD_tr_onto/275,Deelen,275,52.056,5.873,40,123,43,1,171
113,http://www.group15_KD_tr_onto/DA,Daarlerveen railway station,DA,52.4411,6.57583,0.4074074074074074,http://www.group15_KD_tr_onto/275,Deelen,275,52.056,5.873,40,123,43,1,171
114,http://www.group15_KD_tr_onto/DDN,Delden railway station,DDN,52.26,6.71444,1.105263157894737,http://www.group15_KD_tr_onto/275,Deelen,275,52.056,5.873,40,123,43,1,171
115,http://www.group15_KD_tr_onto/DID,Didam railway station,DID,51.9333,6.13222,0.6201550387596899,http://www.group15_KD_tr_onto/275,Deelen,275,52.056,5.873,40,123,43,1,171
116,http://www.group15_KD_tr_onto/DR,Dieren railway station,DR,52.045,6.10333,1.146341463414634,http://www.group15_KD_tr_onto/275,Deelen,275,52.056,5.873,40,123,43,1,171
117,http://www.group15_KD_tr_onto/DTC,Doetinchem railway station,DTC,51.9583,6.29528,1.07,http://www.group15_KD_tr_onto/275,Deelen,275,52.056,5.873,40,123,43,1,171
118,http://www.group15_KD_tr_onto/DVN,Duiven railway station,DVN,51.9433,6.01417,0.6744186046511628,http://www.group15_KD_tr_onto/275,Deelen,275,52.056,5.873,40,123,43,1,171
119,http://www.group15_KD_tr_onto/DV,Deventer railway station,DV,52.2572,6.16083,2.668032786885246,http://www.group15_KD_tr_onto/275,Deelen,275,52.056,5.873,40,123,43,1,171
120,http://www.group15_KD_tr_onto/ED,Ede-Wageningen railway station,ED,52.0278,5.67194,0.780952380952381,http://www.group15_KD_tr_onto/275,Deelen,275,52.056,5.873,40,123,43,1,171
121,http://www.group15_KD_tr_onto/EST,Elst railway station,EST,51.9167,5.855,0.3333333333333333,http://www.group15_KD_tr_onto/275,Deelen,275,52.056,5.873,40,123,43,1,171
122,http://www.group15_KD_tr_onto/ES,Enschede railway station,ES,52.2222,6.89,0.762962962962963,http://www.group15_KD_tr_onto/275,Deelen,275,52.056,5.873,40,123,43,1,171
123,http://www.group15_KD_tr_onto/GBR,Glanerbrug railway station,GBR,52.2186,6.97389,0.0,http://www.group15_KD_tr_onto/275,Deelen,275,52.056,5.873,40,123,43,1,171
124,http://www.group15_KD_tr_onto/GDR,Gaanderen railway station,GDR,51.9308,6.34778,1.2162162162162162,http://www.group15_KD_tr_onto/275,Deelen,275,52.056,5.873,40,123,43,1,171
125,http://www.group15_KD_tr_onto/GO,Goor railway station,GO,52.2303,6.58444,0.9466666666666667,http://www.group15_KD_tr_onto/275,Deelen,275,52.056,5.873,40,123,43,1,171
126,http://www.group15_KD_tr_onto/HGL,Hengelo railway station,HGL,52.2619,6.79417,1.9044585987261147,http://www.group15_KD_tr_onto/275,Deelen,275,52.056,5.873,40,123,43,1,171
127,http://www.group15_KD_tr_onto/HMN,Hemmen-Dodewaard railway station,HMN,51.9222,5.67333,0.171875,http://www.group15_KD_tr_onto/275,Deelen,275,52.056,5.873,40,123,43,1,171
128,http://www.group15_KD_tr_onto/HNO,Heino railway station,HNO,52.4269,6.22194,0.2692307692307692,http://www.group15_KD_tr_onto/275,Deelen,275,52.056,5.873,40,123,43,1,171
129,http://www.group15_KD_tr_onto/HON,Holten railway station,HON,52.2839,6.42056,0.9743589743589743,http://www.group15_KD_tr_onto/275,Deelen,275,52.056,5.873,40,123,43,1,171
130,http://www.group15_KD_tr_onto/KBK,Klarenbeek railway station,KBK,52.1778,6.08417,0.078125,http://www.group15_KD_tr_onto/275,Deelen,275,52.056,5.873,40,123,43,1,171
131,http://www.group15_KD_tr_onto/KLP,Veenendaal-De Klomp railway station,KLP,52.0458,5.57389,0.6282051282051282,http://www.group15_KD_tr_onto/275,Deelen,275,52.056,5.873,40,123,43,1,171
132,http://www.group15_KD_tr_onto/KTR,Kesteren railway station,KTR,51.9314,5.58361,0.078125,http://www.group15_KD_tr_onto/275,Deelen,275,52.056,5.873,40,123,43,1,171
133,http://www.group15_KD_tr_onto/LC,Lochem railway station,LC,52.1667,6.42583,0.7432432432432432,http://www.group15_KD_tr_onto/275,Deelen,275,52.056,5.873,40,123,43,1,171
134,http://www.group15_KD_tr_onto/LTV,Lichtenvoorde-Groenlo railway station,LTV,52.0117,6.59639,0.3188405797101449,http://www.group15_KD_tr_onto/275,Deelen,275,52.056,5.873,40,123,43,1,171
135,http://www.group15_KD_tr_onto/MMLH,Mook-Molenhoek railway station,MMLH,51.7647,5.8775,0.7096774193548387,http://www.group15_KD_tr_onto/275,Deelen,275,52.056,5.873,40,123,43,1,171
136,http://www.group15_KD_tr_onto/NM,Nijmegen railway station,NM,51.8433,5.8525,0.9659090909090909,http://www.group15_KD_tr_onto/275,Deelen,275,52.056,5.873,40,123,43,1,171
137,http://www.group15_KD_tr_onto/NVD,Nijverdal railway station,NVD,52.3656,6.47028,1.0576923076923077,http://www.group15_KD_tr_onto/275,Deelen,275,52.056,5.873,40,123,43,1,171
138,http://www.group15_KD_tr_onto/ODZ,Oldenzaal railway station,ODZ,52.3061,6.93361,2.0714285714285716,http://www.group15_KD_tr_onto/275,Deelen,275,52.056,5.873,40,123,43,1,171
139,http://www.group15_KD_tr_onto/OP,Opheusden railway station,OP,51.9261,5.63694,0.125,http://www.group15_KD_tr_onto/275,Deelen,275,52.056,5.873,40,123,43,1,171
140,http://www.group15_KD_tr_onto/OST,Olst railway station,OST,52.335,6.11306,1.4631578947368422,http://www.group15_KD_tr_onto/275,Deelen,275,52.056,5.873,40,123,43,1,171
141,http://www.group15_KD_tr_onto/OTB,Oosterbeek railway station,OTB,51.9947,5.84,0.19696969696969696,http://www.group15_KD_tr_onto/275,Deelen,275,52.056,5.873,40,123,43,1,171
142,http://www.group15_KD_tr_onto/RAT,Raalte railway station,RAT,52.3908,6.27861,0.5096153846153846,http://www.group15_KD_tr_onto/275,Deelen,275,52.056,5.873,40,123,43,1,171
143,http://www.group15_KD_tr_onto/RHN,Rhenen railway station,RHN,51.9578,5.57833,1.263157894736842,http://www.group15_KD_tr_onto/275,Deelen,275,52.056,5.873,40,123,43,1,171
144,http://www.group15_KD_tr_onto/RH,Rheden railway station,RH,52.0097,6.02972,0.6805555555555556,http://www.group15_KD_tr_onto/275,Deelen,275,52.056,5.873,40,123,43,1,171
145,http://www.group15_KD_tr_onto/RL,Ruurlo railway station,RL,52.0806,6.45,0.2028985507246377,http://www.group15_KD_tr_onto/275,Deelen,275,52.056,5.873,40,123,43,1,171
146,http://www.group15_KD_tr_onto/RSN,Rijssen railway station,RSN,52.3117,6.51917,1.0512820512820513,http://www.group15_KD_tr_onto/275,Deelen,275,52.056,5.873,40,123,43,1,171
147,http://www.group15_KD_tr_onto/RVS,Ravenstein railway station,RVS,51.7947,5.63722,1.3611111111111112,http://www.group15_KD_tr_onto/275,Deelen,275,52.056,5.873,40,123,43,1,171
148,http://www.group15_KD_tr_onto/TWL,Twello railway station,TWL,52.2381,6.1,0.8205128205128205,http://www.group15_KD_tr_onto/275,Deelen,275,52.056,5.873,40,123,43,1,171
149,http://www.group15_KD_tr_onto/VEM,Voorst-Empe railway station,VEM,52.1578,6.14278,0.34375,http://www.group15_KD_tr_onto/275,Deelen,275,52.056,5.873,40,123,43,1,171
150,http://www.group15_KD_tr_onto/VHP,Vroomshoop railway station,VHP,52.4411,6.57583,0.4074074074074074,http://www.group15_KD_tr_onto/275,Deelen,275,52.056,5.873,40,123,43,1,171
151,http://www.group15_KD_tr_onto/VP,Arnhem Velperpoort railway station,VP,51.985,5.92,0.6805555555555556,http://www.group15_KD_tr_onto/275,Deelen,275,52.056,5.873,40,123,43,1,171
152,http://www.group15_KD_tr_onto/VSV,Varsseveld railway station,VSV,51.9369,6.45806,1.054054054054054,http://www.group15_KD_tr_onto/275,Deelen,275,52.056,5.873,40,123,43,1,171
153,http://www.group15_KD_tr_onto/VZ,Vriezenveen railway station,VZ,52.4019,6.60028,0.35185185185185186,http://www.group15_KD_tr_onto/275,Deelen,275,52.056,5.873,40,123,43,1,171
154,http://www.group15_KD_tr_onto/WC,Wijchen railway station,WC,51.8111,5.72944,0.9306930693069307,http://www.group15_KD_tr_onto/275,Deelen,275,52.056,5.873,40,123,43,1,171
155,http://www.group15_KD_tr_onto/WDN,Wierden railway station,WDN,52.3614,6.59111,0.5384615384615384,http://www.group15_KD_tr_onto/275,Deelen,275,52.056,5.873,40,123,43,1,171
156,http://www.group15_KD_tr_onto/WF,Wolfheze railway station,WF,52.0053,5.79361,0.22727272727272727,http://www.group15_KD_tr_onto/275,Deelen,275,52.056,5.873,40,123,43,1,171
157,http://www.group15_KD_tr_onto/WH,Wijhe railway station,WH,52.3936,6.14083,1.3473684210526315,http://www.group15_KD_tr_onto/275,Deelen,275,52.056,5.873,40,123,43,1,171
158,http://www.group15_KD_tr_onto/WL,Wehl railway station,WL,51.9567,6.2125,0.8682170542635659,http://www.group15_KD_tr_onto/275,Deelen,275,52.056,5.873,40,123,43,1,171
159,http://www.group15_KD_tr_onto/WWW,Winterswijk West railway station,WWW,51.9744,6.70361,0.08695652173913043,http://www.group15_KD_tr_onto/275,Deelen,275,52.056,5.873,40,123,43,1,171
160,http://www.group15_KD_tr_onto/WW,Winterswijk railway station,WW,51.9675,6.71556,0.8888888888888888,http://www.group15_KD_tr_onto/275,Deelen,275,52.056,5.873,40,123,43,1,171
161,http://www.group15_KD_tr_onto/ZA,Zetten-Andelst railway station,ZA,51.9194,5.72306,0.1875,http://www.group15_KD_tr_onto/275,Deelen,275,52.056,5.873,40,123,43,1,171
162,http://www.group15_KD_tr_onto/ZP,Zutphen railway station,ZP,52.1444,6.19389,0.7966101694915254,http://www.group15_KD_tr_onto/275,Deelen,275,52.056,5.873,40,123,43,1,171
163,http://www.group15_KD_tr_onto/ZV,Zevenaar railway station,ZV,51.9231,6.07278,1.3696969696969696,http://www.group15_KD_tr_onto/275,Deelen,275,52.056,5.873,40,123,43,1,171
164,http://www.group15_KD_tr_onto/ASN,Assen railway station,ASN,52.9917,6.57056,0.33548387096774196,http://www.group15_KD_tr_onto/280,Eelde,280,53.125,6.585,40,121,63,0,185
165,http://www.group15_KD_tr_onto/BF,Baflo railway station,BF,53.3608,6.51833,1.0,http://www.group15_KD_tr_onto/280,Eelde,280,53.125,6.585,40,121,63,0,185
166,http://www.group15_KD_tr_onto/BL,Beilen railway station,BL,52.8547,6.52083,0.5405405405405406,http://www.group15_KD_tr_onto/280,Eelde,280,53.125,6.585,40,121,63,0,185
167,http://www.group15_KD_tr_onto/DLN,Dalen railway station,DLN,52.6944,6.75806,0.8723404255319149,http://www.group15_KD_tr_onto/280,Eelde,280,53.125,6.585,40,121,63,0,185
168,http://www.group15_KD_tr_onto/EMNZ,Emmen Zuid railway station,EMNZ,52.7489,6.87472,0.6951219512195121,http://www.group15_KD_tr_onto/280,Eelde,280,53.125,6.585,40,121,63,0,185
169,http://www.group15_KD_tr_onto/EMN,Emmen railway station,EMN,52.7903,6.89917,1.0731707317073171,http://www.group15_KD_tr_onto/280,Eelde,280,53.125,6.585,40,121,63,0,185
170,http://www.group15_KD_tr_onto/GBG,Gramsbergen railway station,GBG,52.6094,6.67583,1.8125,http://www.group15_KD_tr_onto/280,Eelde,280,53.125,6.585,40,121,63,0,185
171,http://www.group15_KD_tr_onto/GK,Grijpskerk railway station,GK,53.2556,6.31056,0.5757575757575758,http://www.group15_KD_tr_onto/280,Eelde,280,53.125,6.585,40,121,63,0,185
172,http://www.group15_KD_tr_onto/GN,Groningen railway station,GN,53.2106,6.56472,0.6136363636363636,http://www.group15_KD_tr_onto/280,Eelde,280,53.125,6.585,40,121,63,0,185
173,http://www.group15_KD_tr_onto/HDB,Hardenberg railway station,HDB,52.5722,6.62778,0.9915254237288136,http://www.group15_KD_tr_onto/280,Eelde,280,53.125,6.585,40,121,63,0,185
174,http://www.group15_KD_tr_onto/HGV,Hoogeveen railway station,HGV,52.7333,6.4725,0.25675675675675674,http://www.group15_KD_tr_onto/280,Eelde,280,53.125,6.585,40,121,63,0,185
175,http://www.group15_KD_tr_onto/HRN,Haren (NL) railway station,HRN,53.175,6.61778,0.2828282828282828,http://www.group15_KD_tr_onto/280,Eelde,280,53.125,6.585,40,121,63,0,185
176,http://www.group15_KD_tr_onto/KW,Kropswolde railway station,KW,53.1617,6.72139,0.5714285714285714,http://www.group15_KD_tr_onto/280,Eelde,280,53.125,6.585,40,121,63,0,185
177,http://www.group15_KD_tr_onto/NA,Nieuw Amsterdam railway station,NA,52.7186,6.84861,1.0263157894736843,http://www.group15_KD_tr_onto/280,Eelde,280,53.125,6.585,40,121,63,0,185
178,http://www.group15_KD_tr_onto/NSCH,Bad Nieuweschans railway station,NSCH,53.1842,7.19944,0.8717948717948718,http://www.group15_KD_tr_onto/280,Eelde,280,53.125,6.585,40,121,63,0,185
179,http://www.group15_KD_tr_onto/SWK,Steenwijk railway station,SWK,52.7908,6.11611,0.31386861313868614,http://www.group15_KD_tr_onto/280,Eelde,280,53.125,6.585,40,121,63,0,185
180,http://www.group15_KD_tr_onto/VDM,Veendam railway station,VDM,53.1036,6.88472,0.6060606060606061,http://www.group15_KD_tr_onto/280,Eelde,280,53.125,6.585,40,121,63,0,185
181,http://www.group15_KD_tr_onto/VD,Coevorden railway station,VD,52.6631,6.73556,0.5652173913043478,http://www.group15_KD_tr_onto/280,Eelde,280,53.125,6.585,40,121,63,0,185
182,http://www.group15_KD_tr_onto/BGN,Bergen op Zoom railway station,BGN,51.4947,4.29611,1.6486486486486487,http://www.group15_KD_tr_onto/340,Woensdrecht,340,51.449,4.342,40,135,16,1,222
183,http://www.group15_KD_tr_onto/KBD,Krabbendijke railway station,KBD,51.4333,4.11694,1.87012987012987,http://www.group15_KD_tr_onto/340,Woensdrecht,340,51.449,4.342,40,135,16,1,222
184,http://www.group15_KD_tr_onto/KRG,Kruiningen-Yerseke railway station,KRG,51.4653,4.03694,1.5714285714285714,http://www.group15_KD_tr_onto/340,Woensdrecht,340,51.449,4.342,40,135,16,1,222
185,http://www.group15_KD_tr_onto/ODB,Oudenbosch railway station,ODB,51.5881,4.53361,0.36231884057971014,http://www.group15_KD_tr_onto/340,Woensdrecht,340,51.449,4.342,40,135,16,1,222
186,http://www.group15_KD_tr_onto/RB,Rilland-Bath railway station,RB,51.4222,4.16111,1.6883116883116882,http://www.group15_KD_tr_onto/340,Woensdrecht,340,51.449,4.342,40,135,16,1,222
187,http://www.group15_KD_tr_onto/RSD,Roosendaal railway station,RSD,51.5403,4.45889,1.7448979591836735,http://www.group15_KD_tr_onto/340,Woensdrecht,340,51.449,4.342,40,135,16,1,222
188,http://www.group15_KD_tr_onto/BSKS,Boskoop Snijdelwijk railway station,BSKS,52.0676,4.6462,0.05384615384615385,http://www.group15_KD_tr_onto/344,Rotterdam,344,51.962,4.447,50,139,22,21,200
189,http://www.group15_KD_tr_onto/CPS,Capelle Schollevaar railway station,CPS,51.9533,4.58417,0.9724770642201835,http://www.group15_KD_tr_onto/344,Rotterdam,344,51.962,4.447,50,139,22,21,200
190,http://www.group15_KD_tr_onto/DT,Rotterdam Delftsche Poort railway station,DT,51.9253,4.47361,1.1074380165289257,http://www.group15_KD_tr_onto/344,Rotterdam,344,51.962,4.447,50,139,22,21,200
191,http://www.group15_KD_tr_onto/EC,Dordrecht railway station,EC,51.8075,4.66778,0.36619718309859156,http://www.group15_KD_tr_onto/344,Rotterdam,344,51.962,4.447,50,139,22,21,200
192,http://www.group15_KD_tr_onto/GD,Gouda railway station,GD,52.0175,4.70556,0.6729131175468483,http://www.group15_KD_tr_onto/344,Rotterdam,344,51.962,4.447,50,139,22,21,200
193,http://www.group15_KD_tr_onto/GVMW,Den Haag Moerwijk railway station,GVMW,52.0533,4.30861,0.6785714285714286,http://www.group15_KD_tr_onto/344,Rotterdam,344,51.962,4.447,50,139,22,21,200
194,http://www.group15_KD_tr_onto/NWK,Nieuwerkerk aan den IJssel railway station,NWK,51.9653,4.61694,1.036697247706422,http://www.group15_KD_tr_onto/344,Rotterdam,344,51.962,4.447,50,139,22,21,200
195,http://www.group15_KD_tr_onto/RLB,Rotterdam Lombardijen railway station,RLB,51.8797,4.53111,0.5,http://www.group15_KD_tr_onto/344,Rotterdam,344,51.962,4.447,50,139,22,21,200
196,http://www.group15_KD_tr_onto/RSW,Rijswijk railway station,RSW,52.0394,4.31972,0.65,http://www.group15_KD_tr_onto/344,Rotterdam,344,51.962,4.447,50,139,22,21,200
197,http://www.group15_KD_tr_onto/RTA,Rotterdam Alexander station,RTA,51.9519,4.55278,1.0708333333333333,http://www.group15_KD_tr_onto/344,Rotterdam,344,51.962,4.447,50,139,22,21,200
198,http://www.group15_KD_tr_onto/RTB,Rotterdam Blaak station,RTB,51.92,4.48917,0.8251533742331288,http://www.group15_KD_tr_onto/344,Rotterdam,344,51.962,4.447,50,139,22,21,200
199,http://www.group15_KD_tr_onto/RTD,Rotterdam Centraal station,RTD,51.9244,4.46944,1.7540983606557377,http://www.group15_KD_tr_onto/344,Rotterdam,344,51.962,4.447,50,139,22,21,200
200,http://www.group15_KD_tr_onto/RTN,Rotterdam Noord railway station,RTN,51.9422,4.48139,1.146788990825688,http://www.group15_KD_tr_onto/344,Rotterdam,344,51.962,4.447,50,139,22,21,200
201,http://www.group15_KD_tr_onto/RTZ,Rotterdam Zuid railway station,RTZ,51.9094,4.50944,0.46774193548387094,http://www.group15_KD_tr_onto/344,Rotterdam,344,51.962,4.447,50,139,22,21,200
202,http://www.group15_KD_tr_onto/SDM,Schiedam Centrum station,SDM,51.9219,4.41,0.833922261484099,http://www.group15_KD_tr_onto/344,Rotterdam,344,51.962,4.447,50,139,22,21,200
203,http://www.group15_KD_tr_onto/SDT,Sliedrecht Baanhoek railway station,SDT,51.8297,4.74333,0.5333333333333333,http://www.group15_KD_tr_onto/344,Rotterdam,344,51.962,4.447,50,139,22,21,200
204,http://www.group15_KD_tr_onto/YPB,Den Haag Ypenburg railway station,YPB,52.0592,4.38972,0.3153846153846154,http://www.group15_KD_tr_onto/344,Rotterdam,344,51.962,4.447,50,139,22,21,200
205,http://www.group15_KD_tr_onto/ZTM,Lansingerland-Zoetermeer railway station,ZTM,52.0394,4.52556,0.3384615384615385,http://www.group15_KD_tr_onto/344,Rotterdam,344,51.962,4.447,50,139,22,21,200
206,http://www.group15_KD_tr_onto/ZWD,Zwijndrecht railway station,ZWD,51.8147,4.64222,0.41397849462365593,http://www.group15_KD_tr_onto/344,Rotterdam,344,51.962,4.447,50,139,22,21,200
207,http://www.group15_KD_tr_onto/BD,Breda railway station,BD,51.595,4.78,1.29073482428115,http://www.group15_KD_tr_onto/350,Gilze-Rijen,350,51.566,4.936,40,134,20,4,189
208,http://www.group15_KD_tr_onto/BHDV,Boven Hardinxveld railway station,BHDV,51.8319,4.87472,0.31851851851851853,http://www.group15_KD_tr_onto/350,Gilze-Rijen,350,51.566,4.936,40,134,20,4,189
209,http://www.group15_KD_tr_onto/ETN,Etten-Leur railway station,ETN,51.5753,4.63694,0.8736842105263158,http://www.group15_KD_tr_onto/350,Gilze-Rijen,350,51.566,4.936,40,134,20,4,189
210,http://www.group15_KD_tr_onto/GND,Hardinxveld-Giessendam railway station,GND,51.8303,4.83528,0.5111111111111111,http://www.group15_KD_tr_onto/350,Gilze-Rijen,350,51.566,4.936,40,134,20,4,189
211,http://www.group15_KD_tr_onto/GR,Gorinchem railway station,GR,51.8336,4.9675,0.2641509433962264,http://www.group15_KD_tr_onto/350,Gilze-Rijen,350,51.566,4.936,40,134,20,4,189
212,http://www.group15_KD_tr_onto/GZ,Gilze-Rijen railway station,GZ,51.5839,4.925,0.4605263157894737,http://www.group15_KD_tr_onto/350,Gilze-Rijen,350,51.566,4.936,40,134,20,4,189
213,http://www.group15_KD_tr_onto/OT,Oisterwijk railway station,OT,51.5822,5.19444,0.30434782608695654,http://www.group15_KD_tr_onto/350,Gilze-Rijen,350,51.566,4.936,40,134,20,4,189
214,http://www.group15_KD_tr_onto/TBR,Tilburg Reeshof railway station,TBR,51.5739,4.99278,0.5526315789473685,http://www.group15_KD_tr_onto/350,Gilze-Rijen,350,51.566,4.936,40,134,20,4,189
215,http://www.group15_KD_tr_onto/TBU,Tilburg Universiteit railway station,TBU,51.5653,5.05139,0.43636363636363634,http://www.group15_KD_tr_onto/350,Gilze-Rijen,350,51.566,4.936,40,134,20,4,189
216,http://www.group15_KD_tr_onto/TB,Tilburg railway station,TB,51.5606,5.08278,0.870253164556962,http://www.group15_KD_tr_onto/350,Gilze-Rijen,350,51.566,4.936,40,134,20,4,189
217,http://www.group15_KD_tr_onto/ZLW,Lage Zwaluwe railway station,ZLW,51.6906,4.66333,0.5273972602739726,http://www.group15_KD_tr_onto/350,Gilze-Rijen,350,51.566,4.936,40,134,20,4,189
218,http://www.group15_KD_tr_onto/ZVB,Zevenbergen railway station,ZVB,51.6414,4.60972,0.855072463768116,http://www.group15_KD_tr_onto/350,Gilze-Rijen,350,51.566,4.936,40,134,20,4,189
219,http://www.group15_KD_tr_onto/BET,Best railway station,BET,51.5097,5.38889,0.52,http://www.group15_KD_tr_onto/370,Eindhoven,370,51.451,5.377,30,136,6,0,187
220,http://www.group15_KD_tr_onto/BMR,Boxmeer railway station,BMR,51.6444,5.93944,0.5564516129032258,http://www.group15_KD_tr_onto/370,Eindhoven,370,51.451,5.377,30,136,6,0,187
221,http://www.group15_KD_tr_onto/BR,Blerick railway station,BR,51.3725,6.155,1.0909090909090908,http://www.group15_KD_tr_onto/370,Eindhoven,370,51.451,5.377,30,136,6,0,187
222,http://www.group15_KD_tr_onto/BTL,Boxtel railway station,BTL,51.5844,5.31889,0.49333333333333335,http://www.group15_KD_tr_onto/370,Eindhoven,370,51.451,5.377,30,136,6,0,187
223,http://www.group15_KD_tr_onto/DN,Deurne railway station,DN,51.4558,5.78833,1.385321100917431,http://www.group15_KD_tr_onto/370,Eindhoven,370,51.451,5.377,30,136,6,0,187
224,http://www.group15_KD_tr_onto/EHS,Eindhoven Stadion railway station,EHS,51.443,5.46731,0.5466666666666666,http://www.group15_KD_tr_onto/370,Eindhoven,370,51.451,5.377,30,136,6,0,187
225,http://www.group15_KD_tr_onto/EHV,Eindhoven Centraal railway station,EHV,51.4428,5.48028,1.1368715083798884,http://www.group15_KD_tr_onto/370,Eindhoven,370,51.451,5.377,30,136,6,0,187
226,http://www.group15_KD_tr_onto/GP,Geldrop railway station,GP,51.42,5.55111,0.5147058823529411,http://www.group15_KD_tr_onto/370,Eindhoven,370,51.451,5.377,30,136,6,0,187
227,http://www.group15_KD_tr_onto/HMH,Helmond 't Hout railway station,HMH,51.4678,5.63083,0.9855072463768116,http://www.group15_KD_tr_onto/370,Eindhoven,370,51.451,5.377,30,136,6,0,187
228,http://www.group15_KD_tr_onto/HM,Helmond railway station,HM,51.4756,5.66167,1.048951048951049,http://www.group15_KD_tr_onto/370,Eindhoven,370,51.451,5.377,30,136,6,0,187
229,http://www.group15_KD_tr_onto/HRT,Horst-Sevenum railway station,HRT,51.4267,6.04194,1.054054054054054,http://www.group15_KD_tr_onto/370,Eindhoven,370,51.451,5.377,30,136,6,0,187
230,http://www.group15_KD_tr_onto/HT,'s-Hertogenbosch railway station,HT,51.69,5.29333,1.355889724310777,http://www.group15_KD_tr_onto/370,Eindhoven,370,51.451,5.377,30,136,6,0,187
231,http://www.group15_KD_tr_onto/HZ,Heeze railway station,HZ,51.385,5.56944,1.7105263157894737,http://www.group15_KD_tr_onto/370,Eindhoven,370,51.451,5.377,30,136,6,0,187
232,http://www.group15_KD_tr_onto/MZ,Maarheeze railway station,MZ,51.3039,5.63028,0.38235294117647056,http://www.group15_KD_tr_onto/370,Eindhoven,370,51.451,5.377,30,136,6,0,187
233,http://www.group15_KD_tr_onto/OW,Oss West railway station,OW,51.7581,5.50611,0.775,http://www.group15_KD_tr_onto/370,Eindhoven,370,51.451,5.377,30,136,6,0,187
234,http://www.group15_KD_tr_onto/O,Oss railway station,O,51.7653,5.53167,1.319767441860465,http://www.group15_KD_tr_onto/370,Eindhoven,370,51.451,5.377,30,136,6,0,187
235,http://www.group15_KD_tr_onto/RS,Rosmalen railway station,RS,51.715,5.36889,0.9125,http://www.group15_KD_tr_onto/370,Eindhoven,370,51.451,5.377,30,136,6,0,187
236,http://www.group15_KD_tr_onto/TG,Tegelen railway station,TG,51.3411,6.14333,1.7236842105263157,http://www.group15_KD_tr_onto/370,Eindhoven,370,51.451,5.377,30,136,6,0,187
237,http://www.group15_KD_tr_onto/VG,Vught railway station,VG,51.6547,5.29194,0.5679012345679012,http://www.group15_KD_tr_onto/370,Eindhoven,370,51.451,5.377,30,136,6,0,187
238,http://www.group15_KD_tr_onto/VLB,Vierlingsbeek railway station,VLB,51.5922,5.99667,0.8225806451612904,http://www.group15_KD_tr_onto/370,Eindhoven,370,51.451,5.377,30,136,6,0,187
239,http://www.group15_KD_tr_onto/VL,Venlo railway station,VL,51.3647,6.17139,1.1578947368421053,http://www.group15_KD_tr_onto/370,Eindhoven,370,51.451,5.377,30,136,6,0,187
240,http://www.group15_KD_tr_onto/VRY,Venray railway station,VRY,51.5264,6.01417,1.0388349514563107,http://www.group15_KD_tr_onto/370,Eindhoven,370,51.451,5.377,30,136,6,0,187
241,http://www.group15_KD_tr_onto/WT,Weert railway station,WT,51.2486,5.7025,0.9146341463414634,http://www.group15_KD_tr_onto/370,Eindhoven,370,51.451,5.377,30,136,6,0,187
242,http://www.group15_KD_tr_onto/CVM,Chevremont railway station,CVM,50.8758,6.05944,0.3333333333333333,http://www.group15_KD_tr_onto/380,Maastricht,380,50.906,5.762,40,143,9,39,202
243,http://www.group15_KD_tr_onto/EDN,Eijsden railway station,EDN,50.772,5.71004,6.5,http://www.group15_KD_tr_onto/380,Maastricht,380,50.906,5.762,40,143,9,39,202
244,http://www.group15_KD_tr_onto/EGH,Eygelshoven railway station,EGH,50.8903,6.04556,0.15942028985507245,http://www.group15_KD_tr_onto/380,Maastricht,380,50.906,5.762,40,143,9,39,202
245,http://www.group15_KD_tr_onto/GLN,Geleen Oost railway station,GLN,50.9672,5.84306,0.2463768115942029,http://www.group15_KD_tr_onto/380,Maastricht,380,50.906,5.762,40,143,9,39,202
246,http://www.group15_KD_tr_onto/HB,Hoensbroek railway station,HB,50.9053,5.93111,0.5217391304347826,http://www.group15_KD_tr_onto/380,Maastricht,380,50.906,5.762,40,143,9,39,202
247,http://www.group15_KD_tr_onto/HRLW,Heerlen Woonboulevard railway station,HRLW,50.8961,5.95278,0.3815789473684211,http://www.group15_KD_tr_onto/380,Maastricht,380,50.906,5.762,40,143,9,39,202
248,http://www.group15_KD_tr_onto/HRL,Heerlen railway station,HRL,50.8908,5.97472,0.4656084656084656,http://www.group15_KD_tr_onto/380,Maastricht,380,50.906,5.762,40,143,9,39,202
249,http://www.group15_KD_tr_onto/KMR,Klimmen-Ransdaal railway station,KMR,50.8667,5.89056,0.3246753246753247,http://www.group15_KD_tr_onto/380,Maastricht,380,50.906,5.762,40,143,9,39,202
250,http://www.group15_KD_tr_onto/KRD,Kerkrade Centrum railway station,KRD,50.8614,6.0575,0.5294117647058824,http://www.group15_KD_tr_onto/380,Maastricht,380,50.906,5.762,40,143,9,39,202
251,http://www.group15_KD_tr_onto/LG,Landgraaf railway station,LG,50.8964,6.02,0.8130841121495327,http://www.group15_KD_tr_onto/380,Maastricht,380,50.906,5.762,40,143,9,39,202
252,http://www.group15_KD_tr_onto/MT,Maastricht railway station,MT,50.85,5.70528,1.502145922746781,http://www.group15_KD_tr_onto/380,Maastricht,380,50.906,5.762,40,143,9,39,202
253,http://www.group15_KD_tr_onto/NH,Nuth railway station,NH,50.9197,5.8925,0.3188405797101449,http://www.group15_KD_tr_onto/380,Maastricht,380,50.906,5.762,40,143,9,39,202
254,http://www.group15_KD_tr_onto/RM,Roermond railway station,RM,51.1933,5.99472,0.8325123152709359,http://www.group15_KD_tr_onto/380,Maastricht,380,50.906,5.762,40,143,9,39,202
255,http://www.group15_KD_tr_onto/RV,Reuver railway station,RV,51.2831,6.07944,1.4473684210526316,http://www.group15_KD_tr_onto/380,Maastricht,380,50.906,5.762,40,143,9,39,202
256,http://www.group15_KD_tr_onto/SBK,Spaubeek railway station,SBK,50.9431,5.84972,0.463768115942029,http://www.group15_KD_tr_onto/380,Maastricht,380,50.906,5.762,40,143,9,39,202
257,http://www.group15_KD_tr_onto/SM,Swalmen railway station,SM,51.2358,6.0325,0.5526315789473685,http://www.group15_KD_tr_onto/380,Maastricht,380,50.906,5.762,40,143,9,39,202
258,http://www.group15_KD_tr_onto/SN,Schinnen railway station,SN,50.9386,5.87611,0.5362318840579711,http://www.group15_KD_tr_onto/380,Maastricht,380,50.906,5.762,40,143,9,39,202
259,http://www.group15_KD_tr_onto/SRN,Susteren railway station,SRN,51.0608,5.86278,0.38028169014084506,http://www.group15_KD_tr_onto/380,Maastricht,380,50.906,5.762,40,143,9,39,202
260,http://www.group15_KD_tr_onto/STD,Sittard railway station,STD,51.0011,5.85833,0.5560165975103735,http://www.group15_KD_tr_onto/380,Maastricht,380,50.906,5.762,40,143,9,39,202
261,http://www.group15_KD_tr_onto/VDL,Voerendaal railway station,VDL,50.8867,5.92944,0.27631578947368424,http://www.group15_KD_tr_onto/380,Maastricht,380,50.906,5.762,40,143,9,39,202
