,station,station_name,station_code,ts_lat,ts_long,delay,ws,ws_name,ws_code,ws_lat,ws_long,windspeed,mean_temp,percipitation,visibility,wind_direction
0,http://www.group15_KD_tr_onto/AMR,Alkmaar railway station,AMR,52.6378,4.74056,0.8229665071770335,http://www.group15_KD_tr_onto/235,De Kooy,235,52.928,4.781,70,172,0,69,273
1,http://www.group15_KD_tr_onto/ANA,Anna Paulowna railway station,ANA,52.8669,4.81111,0.7058823529411765,http://www.group15_KD_tr_onto/235,De Kooy,235,52.928,4.781,70,172,0,69,273
2,http://www.group15_KD_tr_onto/HDRZ,Den Helder Zuid railway station,HDRZ,52.9331,4.76389,0.6941176470588235,http://www.group15_KD_tr_onto/235,De Kooy,235,52.928,4.781,70,172,0,69,273
3,http://www.group15_KD_tr_onto/HDR,Den Helder railway station,HDR,52.9564,4.76083,1.1818181818181819,http://www.group15_KD_tr_onto/235,De Kooy,235,52.928,4.781,70,172,0,69,273
4,http://www.group15_KD_tr_onto/HWD,Heerhugowaard railway station,HWD,52.67,4.82361,0.3128834355828221,http://www.group15_KD_tr_onto/235,De Kooy,235,52.928,4.781,70,172,0,69,273
5,http://www.group15_KD_tr_onto/OBD,Obdam railway station,OBD,52.6781,4.90833,0.20588235294117646,http://www.group15_KD_tr_onto/235,De Kooy,235,52.928,4.781,70,172,0,69,273
6,http://www.group15_KD_tr_onto/SGN,Schagen railway station,SGN,52.7861,4.80528,0.5909090909090909,http://www.group15_KD_tr_onto/235,De Kooy,235,52.928,4.781,70,172,0,69,273
7,http://www.group15_KD_tr_onto/AC,Abcoude railway station,AC,52.2744,4.98222,0.863013698630137,http://www.group15_KD_tr_onto/240,Schiphol,240,52.318,4.79,70,174,0,65,283
8,http://www.group15_KD_tr_onto/AMPO,Almere Poort railway station,AMPO,52.3428,5.15194,0.23660714285714285,http://www.group15_KD_tr_onto/240,Schiphol,240,52.318,4.79,70,174,0,65,283
9,http://www.group15_KD_tr_onto/ASA,Amsterdam Amstel station,ASA,52.3464,4.91778,0.7523809523809524,http://www.group15_KD_tr_onto/240,Schiphol,240,52.318,4.79,70,174,0,65,283
10,http://www.group15_KD_tr_onto/ASB,Amsterdam Bijlmer ArenA station,ASB,52.3131,4.94611,0.7751677852348994,http://www.group15_KD_tr_onto/240,Schiphol,240,52.318,4.79,70,174,0,65,283
11,http://www.group15_KD_tr_onto/ASDL,Amsterdam Lelylaan station,ASDL,52.3572,4.83389,0.5811965811965812,http://www.group15_KD_tr_onto/240,Schiphol,240,52.318,4.79,70,174,0,65,283
12,http://www.group15_KD_tr_onto/ASDM,Amsterdam Muiderpoort railway station,ASDM,52.3608,4.93111,0.6363636363636364,http://www.group15_KD_tr_onto/240,Schiphol,240,52.318,4.79,70,174,0,65,283
13,http://www.group15_KD_tr_onto/ASDZ,Amsterdam Zuid station,ASDZ,52.3389,4.87306,0.3111111111111111,http://www.group15_KD_tr_onto/240,Schiphol,240,52.318,4.79,70,174,0,65,283
14,http://www.group15_KD_tr_onto/ASD,Amsterdam Centraal station,ASD,52.3783,4.9,1.460093896713615,http://www.group15_KD_tr_onto/240,Schiphol,240,52.318,4.79,70,174,0,65,283
15,http://www.group15_KD_tr_onto/ASSP,Amsterdam Science Park railway station,ASSP,52.3525,4.94861,0.6729559748427673,http://www.group15_KD_tr_onto/240,Schiphol,240,52.318,4.79,70,174,0,65,283
16,http://www.group15_KD_tr_onto/ASS,Amsterdam Sloterdijk station,ASS,52.3892,4.83806,0.5098468271334792,http://www.group15_KD_tr_onto/240,Schiphol,240,52.318,4.79,70,174,0,65,283
17,http://www.group15_KD_tr_onto/BLL,Bloemendaal railway station,BLL,52.4042,4.6275,1.2278481012658229,http://www.group15_KD_tr_onto/240,Schiphol,240,52.318,4.79,70,174,0,65,283
18,http://www.group15_KD_tr_onto/BV,Beverwijk railway station,BV,52.4783,4.65611,0.6796116504854369,http://www.group15_KD_tr_onto/240,Schiphol,240,52.318,4.79,70,174,0,65,283
19,http://www.group15_KD_tr_onto/CAS,Castricum railway station,CAS,52.5456,4.65889,0.6007905138339921,http://www.group15_KD_tr_onto/240,Schiphol,240,52.318,4.79,70,174,0,65,283
20,http://www.group15_KD_tr_onto/DMNZ,Diemen Zuid station,DMNZ,52.3303,4.95639,0.1678832116788321,http://www.group15_KD_tr_onto/240,Schiphol,240,52.318,4.79,70,174,0,65,283
21,http://www.group15_KD_tr_onto/DMN,Diemen railway station,DMN,52.3453,4.96694,0.5345911949685535,http://www.group15_KD_tr_onto/240,Schiphol,240,52.318,4.79,70,174,0,65,283
22,http://www.group15_KD_tr_onto/HAD,Heemstede-Aerdenhout railway station,HAD,52.3597,4.60694,0.5555555555555556,http://www.group15_KD_tr_onto/240,Schiphol,240,52.318,4.79,70,174,0,65,283
23,http://www.group15_KD_tr_onto/HFD,Hoofddorp railway station,HFD,52.2933,4.7,0.3438735177865613,http://www.group15_KD_tr_onto/240,Schiphol,240,52.318,4.79,70,174,0,65,283
24,http://www.group15_KD_tr_onto/HIL,Hillegom railway station,HIL,52.3028,4.56583,0.5443037974683544,http://www.group15_KD_tr_onto/240,Schiphol,240,52.318,4.79,70,174,0,65,283
25,http://www.group15_KD_tr_onto/HK,Heemskerk railway station,HK,52.4947,4.68611,0.7341772151898734,http://www.group15_KD_tr_onto/240,Schiphol,240,52.318,4.79,70,174,0,65,283
26,http://www.group15_KD_tr_onto/HLMS,Haarlem Spaarnwoude railway station,HLMS,52.3828,4.67111,0.7290322580645161,http://www.group15_KD_tr_onto/240,Schiphol,240,52.318,4.79,70,174,0,65,283
27,http://www.group15_KD_tr_onto/HLM,Haarlem railway station,HLM,52.3878,4.63889,0.39285714285714285,http://www.group15_KD_tr_onto/240,Schiphol,240,52.318,4.79,70,174,0,65,283
28,http://www.group15_KD_tr_onto/HLO,Heiloo railway station,HLO,52.6,4.70083,0.6684782608695652,http://www.group15_KD_tr_onto/240,Schiphol,240,52.318,4.79,70,174,0,65,283
29,http://www.group15_KD_tr_onto/HWZB,Halfweg-Zwanenburg railway station,HWZB,52.3847,4.75167,0.5483870967741935,http://www.group15_KD_tr_onto/240,Schiphol,240,52.318,4.79,70,174,0,65,283
30,http://www.group15_KD_tr_onto/NVP,Nieuw-Vennep railway station,NVP,52.2597,4.64556,0.43703703703703706,http://www.group15_KD_tr_onto/240,Schiphol,240,52.318,4.79,70,174,0,65,283
31,http://www.group15_KD_tr_onto/OVN,Overveen railway station,OVN,52.3908,4.60778,0.5641025641025641,http://www.group15_KD_tr_onto/240,Schiphol,240,52.318,4.79,70,174,0,65,283
32,http://www.group15_KD_tr_onto/PMR,Purmerend railway station,PMR,52.5033,4.95417,0.569620253164557,http://www.group15_KD_tr_onto/240,Schiphol,240,52.318,4.79,70,174,0,65,283
33,http://www.group15_KD_tr_onto/PMW,Purmerend Weidevenne railway station,PMW,52.4967,4.93667,0.6329113924050633,http://www.group15_KD_tr_onto/240,Schiphol,240,52.318,4.79,70,174,0,65,283
34,http://www.group15_KD_tr_onto/RAI,Amsterdam RAI station,RAI,52.3367,4.89056,0.1386861313868613,http://www.group15_KD_tr_onto/240,Schiphol,240,52.318,4.79,70,174,0,65,283
35,http://www.group15_KD_tr_onto/SHL,Schiphol Airport railway station,SHL,52.3089,4.76167,1.145780051150895,http://www.group15_KD_tr_onto/240,Schiphol,240,52.318,4.79,70,174,0,65,283
36,http://www.group15_KD_tr_onto/SPTN,Santpoort Noord railway station,SPTN,52.4428,4.63917,0.810126582278481,http://www.group15_KD_tr_onto/240,Schiphol,240,52.318,4.79,70,174,0,65,283
37,http://www.group15_KD_tr_onto/SPTZ,Santpoort Zuid railway station,SPTZ,52.4194,4.63167,0.810126582278481,http://www.group15_KD_tr_onto/240,Schiphol,240,52.318,4.79,70,174,0,65,283
38,http://www.group15_KD_tr_onto/UTG,Uitgeest railway station,UTG,52.5219,4.70278,0.7973856209150327,http://www.group15_KD_tr_onto/240,Schiphol,240,52.318,4.79,70,174,0,65,283
39,http://www.group15_KD_tr_onto/WM,Wormerveer railway station,WM,52.4892,4.79278,0.8493150684931506,http://www.group15_KD_tr_onto/240,Schiphol,240,52.318,4.79,70,174,0,65,283
40,http://www.group15_KD_tr_onto/WP,Weesp railway station,WP,52.3131,5.04361,0.2516778523489933,http://www.group15_KD_tr_onto/240,Schiphol,240,52.318,4.79,70,174,0,65,283
41,http://www.group15_KD_tr_onto/ZD,Zaandam railway station,ZD,52.4389,4.81472,0.48247978436657685,http://www.group15_KD_tr_onto/240,Schiphol,240,52.318,4.79,70,174,0,65,283
42,http://www.group15_KD_tr_onto/ZVT,Zandvoort aan Zee railway station,ZVT,52.3758,4.53139,1.0256410256410255,http://www.group15_KD_tr_onto/240,Schiphol,240,52.318,4.79,70,174,0,65,283
43,http://www.group15_KD_tr_onto/AKL,Arkel railway station,AKL,51.8719,4.99278,0.11538461538461539,http://www.group15_KD_tr_onto/260,De Bilt,260,52.1,5.18,40,179,0,64,285
44,http://www.group15_KD_tr_onto/BHV,Bilthoven railway station,BHV,52.13,5.20528,0.3087248322147651,http://www.group15_KD_tr_onto/260,De Bilt,260,52.1,5.18,40,179,0,64,285
45,http://www.group15_KD_tr_onto/BKL,Breukelen railway station,BKL,52.17,4.99056,0.6775956284153005,http://www.group15_KD_tr_onto/260,De Bilt,260,52.1,5.18,40,179,0,64,285
46,http://www.group15_KD_tr_onto/BNK,Bunnik railway station,BNK,52.0631,5.19556,0.3875968992248062,http://www.group15_KD_tr_onto/260,De Bilt,260,52.1,5.18,40,179,0,64,285
47,http://www.group15_KD_tr_onto/BSD,Beesd railway station,BSD,51.8992,5.195,0.2564102564102564,http://www.group15_KD_tr_onto/260,De Bilt,260,52.1,5.18,40,179,0,64,285
48,http://www.group15_KD_tr_onto/CL,Culemborg railway station,CL,51.9472,5.22722,0.43790849673202614,http://www.group15_KD_tr_onto/260,De Bilt,260,52.1,5.18,40,179,0,64,285
49,http://www.group15_KD_tr_onto/DB,Driebergen-Zeist railway station,DB,52.065,5.26,0.6820512820512821,http://www.group15_KD_tr_onto/260,De Bilt,260,52.1,5.18,40,179,0,64,285
50,http://www.group15_KD_tr_onto/GDM,Geldermalsen railway station,GDM,51.8839,5.27083,0.4639175257731959,http://www.group15_KD_tr_onto/260,De Bilt,260,52.1,5.18,40,179,0,64,285
51,http://www.group15_KD_tr_onto/HTN,Houten railway station,HTN,52.0344,5.16778,0.3770491803278688,http://www.group15_KD_tr_onto/260,De Bilt,260,52.1,5.18,40,179,0,64,285
52,http://www.group15_KD_tr_onto/LDM,Leerdam railway station,LDM,51.8947,5.09333,0.21794871794871795,http://www.group15_KD_tr_onto/260,De Bilt,260,52.1,5.18,40,179,0,64,285
53,http://www.group15_KD_tr_onto/MAS,Maarssen railway station,MAS,52.1358,5.03306,0.5401459854014599,http://www.group15_KD_tr_onto/260,De Bilt,260,52.1,5.18,40,179,0,64,285
54,http://www.group15_KD_tr_onto/UTLR,Utrecht Leidsche Rijn railway station,UTLR,52.0983,5.06917,0.17293233082706766,http://www.group15_KD_tr_onto/260,De Bilt,260,52.1,5.18,40,179,0,64,285
55,http://www.group15_KD_tr_onto/UTO,Utrecht Overvecht railway station,UTO,52.11,5.12528,0.2,http://www.group15_KD_tr_onto/260,De Bilt,260,52.1,5.18,40,179,0,64,285
56,http://www.group15_KD_tr_onto/UTT,Utrecht Terwijde railway station,UTT,52.1008,5.04306,0.15037593984962405,http://www.group15_KD_tr_onto/260,De Bilt,260,52.1,5.18,40,179,0,64,285
57,http://www.group15_KD_tr_onto/UTVR,Utrecht Vaartsche Rijn railway station,UTVR,52.0786,5.1225,0.32371794871794873,http://www.group15_KD_tr_onto/260,De Bilt,260,52.1,5.18,40,179,0,64,285
58,http://www.group15_KD_tr_onto/UTZL,Utrecht Zuilen railway station,UTZL,52.1031,5.08917,0.4306569343065693,http://www.group15_KD_tr_onto/260,De Bilt,260,52.1,5.18,40,179,0,64,285
59,http://www.group15_KD_tr_onto/UT,Utrecht Centraal railway station,UT,52.0892,5.10972,0.7686496694995278,http://www.group15_KD_tr_onto/260,De Bilt,260,52.1,5.18,40,179,0,64,285
60,http://www.group15_KD_tr_onto/VTN,Vleuten railway station,VTN,52.1031,5.01194,0.18796992481203006,http://www.group15_KD_tr_onto/260,De Bilt,260,52.1,5.18,40,179,0,64,285
61,http://www.group15_KD_tr_onto/WD,Woerden railway station,WD,52.0847,4.89306,0.5795053003533569,http://www.group15_KD_tr_onto/260,De Bilt,260,52.1,5.18,40,179,0,64,285
62,http://www.group15_KD_tr_onto/ZBM,Zaltbommel railway station,ZBM,51.8069,5.26472,0.358974358974359,http://www.group15_KD_tr_onto/260,De Bilt,260,52.1,5.18,40,179,0,64,285
63,http://www.group15_KD_tr_onto/BKF,Bovenkarspel Flora railway station,BKF,52.6958,5.25306,0.22784810126582278,http://www.group15_KD_tr_onto/267,Stavoren,267,52.898,5.384,70,174,0,65,294
64,http://www.group15_KD_tr_onto/BKG,Bovenkarspel-Grootebroek railway station,BKG,52.695,5.23611,0.21518987341772153,http://www.group15_KD_tr_onto/267,Stavoren,267,52.898,5.384,70,174,0,65,294
65,http://www.group15_KD_tr_onto/EKZ,Enkhuizen railway station,EKZ,52.6994,5.28778,0.15,http://www.group15_KD_tr_onto/267,Stavoren,267,52.898,5.384,70,174,0,65,294
66,http://www.group15_KD_tr_onto/HKS,Hoogkarspel railway station,HKS,52.6906,5.18389,0.24050632911392406,http://www.group15_KD_tr_onto/267,Stavoren,267,52.898,5.384,70,174,0,65,294
67,http://www.group15_KD_tr_onto/HNP,Hindeloopen railway station,HNP,52.9461,5.42306,2.122448979591837,http://www.group15_KD_tr_onto/267,Stavoren,267,52.898,5.384,70,174,0,65,294
68,http://www.group15_KD_tr_onto/HN,Hoorn railway station,HN,52.645,5.05472,0.2994652406417112,http://www.group15_KD_tr_onto/267,Stavoren,267,52.898,5.384,70,174,0,65,294
69,http://www.group15_KD_tr_onto/IJT,IJlst railway station,IJT,53.0147,5.61639,1.3265306122448979,http://www.group15_KD_tr_onto/267,Stavoren,267,52.898,5.384,70,174,0,65,294
70,http://www.group15_KD_tr_onto/KMW,Koudum-Molkwerum railway station,KMW,52.9022,5.41056,1.7755102040816326,http://www.group15_KD_tr_onto/267,Stavoren,267,52.898,5.384,70,174,0,65,294
71,http://www.group15_KD_tr_onto/STV,Stavoren railway station,STV,52.8867,5.35972,2.125,http://www.group15_KD_tr_onto/267,Stavoren,267,52.898,5.384,70,174,0,65,294
72,http://www.group15_KD_tr_onto/WK,Workum railway station,WK,52.9714,5.45583,2.0,http://www.group15_KD_tr_onto/267,Stavoren,267,52.898,5.384,70,174,0,65,294
73,http://www.group15_KD_tr_onto/WV,Wolvega railway station,WV,52.8797,6.00472,0.19117647058823528,http://www.group15_KD_tr_onto/267,Stavoren,267,52.898,5.384,70,174,0,65,294
74,http://www.group15_KD_tr_onto/ALMB,Almere Buiten railway station,ALMB,52.3942,5.27778,0.29411764705882354,http://www.group15_KD_tr_onto/269,Lelystad,269,52.458,5.52,60,179,0,65,280
75,http://www.group15_KD_tr_onto/ALMM,Almere Muziekwijk railway station,ALMM,52.3675,5.19028,0.19642857142857142,http://www.group15_KD_tr_onto/269,Lelystad,269,52.458,5.52,60,179,0,65,280
76,http://www.group15_KD_tr_onto/ALMO,Almere Oostvaarders railway station,ALMO,52.4028,5.3,0.1927710843373494,http://www.group15_KD_tr_onto/269,Lelystad,269,52.458,5.52,60,179,0,65,280
77,http://www.group15_KD_tr_onto/ALMP,Almere Parkwijk railway station,ALMP,52.3767,5.24444,0.32941176470588235,http://www.group15_KD_tr_onto/269,Lelystad,269,52.458,5.52,60,179,0,65,280
78,http://www.group15_KD_tr_onto/ALM,Almere Centrum railway station,ALM,52.375,5.21778,0.5310077519379846,http://www.group15_KD_tr_onto/269,Lelystad,269,52.458,5.52,60,179,0,65,280
79,http://www.group15_KD_tr_onto/DL,Dalfsen railway station,DL,52.4981,6.25861,0.14130434782608695,http://www.group15_KD_tr_onto/269,Lelystad,269,52.458,5.52,60,179,0,65,280
80,http://www.group15_KD_tr_onto/DRON,Dronten railway station,DRON,52.5339,5.72306,0.33766233766233766,http://www.group15_KD_tr_onto/269,Lelystad,269,52.458,5.52,60,179,0,65,280
81,http://www.group15_KD_tr_onto/EML,Ermelo railway station,EML,52.3011,5.61444,0.3013698630136986,http://www.group15_KD_tr_onto/269,Lelystad,269,52.458,5.52,60,179,0,65,280
82,http://www.group15_KD_tr_onto/HDE,'t Harde railway station,HDE,52.4089,5.89306,0.2465753424657534,http://www.group15_KD_tr_onto/269,Lelystad,269,52.458,5.52,60,179,0,65,280
83,http://www.group15_KD_tr_onto/HD,Harderwijk railway station,HD,52.3375,5.61972,0.24324324324324326,http://www.group15_KD_tr_onto/269,Lelystad,269,52.458,5.52,60,179,0,65,280
84,http://www.group15_KD_tr_onto/KPNZ,Kampen Zuid railway station,KPNZ,52.5342,5.91583,0.3116883116883117,http://www.group15_KD_tr_onto/269,Lelystad,269,52.458,5.52,60,179,0,65,280
85,http://www.group15_KD_tr_onto/KPN,Kampen railway station,KPN,52.5597,5.92111,0.0,http://www.group15_KD_tr_onto/269,Lelystad,269,52.458,5.52,60,179,0,65,280
86,http://www.group15_KD_tr_onto/LLS,Lelystad Centrum railway station,LLS,52.5078,5.47333,0.535483870967742,http://www.group15_KD_tr_onto/269,Lelystad,269,52.458,5.52,60,179,0,65,280
87,http://www.group15_KD_tr_onto/MP,Meppel railway station,MP,52.6914,6.1975,0.5741626794258373,http://www.group15_KD_tr_onto/269,Lelystad,269,52.458,5.52,60,179,0,65,280
88,http://www.group15_KD_tr_onto/NS,Nunspeet railway station,NS,52.3708,5.78472,0.3287671232876712,http://www.group15_KD_tr_onto/269,Lelystad,269,52.458,5.52,60,179,0,65,280
89,http://www.group15_KD_tr_onto/OMN,Ommen railway station,OMN,52.5094,6.41694,0.5652173913043478,http://www.group15_KD_tr_onto/269,Lelystad,269,52.458,5.52,60,179,0,65,280
90,http://www.group15_KD_tr_onto/PT,Putten railway station,PT,52.2653,5.57611,0.1232876712328767,http://www.group15_KD_tr_onto/269,Lelystad,269,52.458,5.52,60,179,0,65,280
91,http://www.group15_KD_tr_onto/WZ,Wezep railway station,WZ,52.4536,6.00222,0.3013698630136986,http://www.group15_KD_tr_onto/269,Lelystad,269,52.458,5.52,60,179,0,65,280
92,http://www.group15_KD_tr_onto/ZLSH,Zwolle Stadshagen railway station,ZLSH,52.5279,6.05108,0.0,http://www.group15_KD_tr_onto/269,Lelystad,269,52.458,5.52,60,179,0,65,280
93,http://www.group15_KD_tr_onto/ZL,Zwolle railway station,ZL,52.5053,6.09056,0.574235807860262,http://www.group15_KD_tr_onto/269,Lelystad,269,52.458,5.52,60,179,0,65,280
94,http://www.group15_KD_tr_onto/AKM,Akkrum railway station,AKM,53.0472,5.84306,0.3235294117647059,http://www.group15_KD_tr_onto/270,Leeuwarden,270,53.224,5.752,50,172,0,65,284
95,http://www.group15_KD_tr_onto/DEI,Deinum railway station,DEI,53.1886,5.72778,0.17647058823529413,http://www.group15_KD_tr_onto/270,Leeuwarden,270,53.224,5.752,50,172,0,65,284
96,http://www.group15_KD_tr_onto/DRP,Dronryp railway station,DRP,53.1775,5.63472,0.08823529411764706,http://www.group15_KD_tr_onto/270,Leeuwarden,270,53.224,5.752,50,172,0,65,284
97,http://www.group15_KD_tr_onto/FN,Franeker railway station,FN,53.1822,5.54944,0.058823529411764705,http://www.group15_KD_tr_onto/270,Leeuwarden,270,53.224,5.752,50,172,0,65,284
98,http://www.group15_KD_tr_onto/GW,Grou-Jirnsum railway station,GW,53.0897,5.82222,0.3235294117647059,http://www.group15_KD_tr_onto/270,Leeuwarden,270,53.224,5.752,50,172,0,65,284
99,http://www.group15_KD_tr_onto/HDG,Hurdegaryp railway station,HDG,53.2186,5.93472,0.7794117647058824,http://www.group15_KD_tr_onto/270,Leeuwarden,270,53.224,5.752,50,172,0,65,284
100,http://www.group15_KD_tr_onto/HLG,Harlingen railway station,HLG,53.1703,5.42528,0.058823529411764705,http://www.group15_KD_tr_onto/270,Leeuwarden,270,53.224,5.752,50,172,0,65,284
101,http://www.group15_KD_tr_onto/HR,Heerenveen railway station,HR,52.9606,5.91528,0.34558823529411764,http://www.group15_KD_tr_onto/270,Leeuwarden,270,53.224,5.752,50,172,0,65,284
102,http://www.group15_KD_tr_onto/LW,Leeuwarden railway station,LW,53.1958,5.79111,0.5099009900990099,http://www.group15_KD_tr_onto/270,Leeuwarden,270,53.224,5.752,50,172,0,65,284
103,http://www.group15_KD_tr_onto/MG,Mantgum railway station,MG,53.1297,5.71333,1.1363636363636365,http://www.group15_KD_tr_onto/270,Leeuwarden,270,53.224,5.752,50,172,0,65,284
104,http://www.group15_KD_tr_onto/SK,Sneek railway station,SK,53.0322,5.65167,1.2456140350877194,http://www.group15_KD_tr_onto/270,Leeuwarden,270,53.224,5.752,50,172,0,65,284
105,http://www.group15_KD_tr_onto/AHPR,Arnhem Presikhaaf railway station,AHPR,51.9875,5.94306,0.4142857142857143,http://www.group15_KD_tr_onto/275,Deelen,275,52.056,5.873,50,178,0,50,295
106,http://www.group15_KD_tr_onto/AHZ,Arnhem Zuid railway station,AHZ,51.9542,5.85167,0.22302158273381295,http://www.group15_KD_tr_onto/275,Deelen,275,52.056,5.873,50,178,0,50,295
107,http://www.group15_KD_tr_onto/AML,Almelo railway station,AML,52.3572,6.655,0.24528301886792453,http://www.group15_KD_tr_onto/275,Deelen,275,52.056,5.873,50,178,0,50,295
108,http://www.group15_KD_tr_onto/APD,Apeldoorn railway station,APD,52.2092,5.96944,0.26229508196721313,http://www.group15_KD_tr_onto/275,Deelen,275,52.056,5.873,50,178,0,50,295
109,http://www.group15_KD_tr_onto/ATN,Aalten railway station,ATN,51.9211,6.57806,0.47297297297297297,http://www.group15_KD_tr_onto/275,Deelen,275,52.056,5.873,50,178,0,50,295
110,http://www.group15_KD_tr_onto/BMN,Brummen railway station,BMN,52.0908,6.14694,0.14285714285714285,http://www.group15_KD_tr_onto/275,Deelen,275,52.056,5.873,50,178,0,50,295
111,http://www.group15_KD_tr_onto/BN,Borne railway station,BN,52.2983,6.74833,0.12631578947368421,http://www.group15_KD_tr_onto/275,Deelen,275,52.056,5.873,50,178,0,50,295
112,http://www.group15_KD_tr_onto/CK,Cuijk railway station,CK,51.7264,5.87417,0.24050632911392406,http://www.group15_KD_tr_onto/275,Deelen,275,52.056,5.873,50,178,0,50,295
113,http://www.group15_KD_tr_onto/DA,Daarlerveen railway station,DA,52.4411,6.57583,0.07407407407407407,http://www.group15_KD_tr_onto/275,Deelen,275,52.056,5.873,50,178,0,50,295
114,http://www.group15_KD_tr_onto/DDN,Delden railway station,DDN,52.26,6.71444,0.3888888888888889,http://www.group15_KD_tr_onto/275,Deelen,275,52.056,5.873,50,178,0,50,295
115,http://www.group15_KD_tr_onto/DID,Didam railway station,DID,51.9333,6.13222,0.17054263565891473,http://www.group15_KD_tr_onto/275,Deelen,275,52.056,5.873,50,178,0,50,295
116,http://www.group15_KD_tr_onto/DR,Dieren railway station,DR,52.045,6.10333,0.6938775510204082,http://www.group15_KD_tr_onto/275,Deelen,275,52.056,5.873,50,178,0,50,295
117,http://www.group15_KD_tr_onto/DTC,Doetinchem railway station,DTC,51.9583,6.29528,0.5,http://www.group15_KD_tr_onto/275,Deelen,275,52.056,5.873,50,178,0,50,295
118,http://www.group15_KD_tr_onto/DVN,Duiven railway station,DVN,51.9433,6.01417,0.26356589147286824,http://www.group15_KD_tr_onto/275,Deelen,275,52.056,5.873,50,178,0,50,295
119,http://www.group15_KD_tr_onto/DV,Deventer railway station,DV,52.2572,6.16083,0.6626984126984127,http://www.group15_KD_tr_onto/275,Deelen,275,52.056,5.873,50,178,0,50,295
120,http://www.group15_KD_tr_onto/ED,Ede-Wageningen railway station,ED,52.0278,5.67194,0.3881278538812785,http://www.group15_KD_tr_onto/275,Deelen,275,52.056,5.873,50,178,0,50,295
121,http://www.group15_KD_tr_onto/EST,Elst railway station,EST,51.9167,5.855,0.4852941176470588,http://www.group15_KD_tr_onto/275,Deelen,275,52.056,5.873,50,178,0,50,295
122,http://www.group15_KD_tr_onto/ES,Enschede railway station,ES,52.2222,6.89,0.27611940298507465,http://www.group15_KD_tr_onto/275,Deelen,275,52.056,5.873,50,178,0,50,295
123,http://www.group15_KD_tr_onto/GBR,Glanerbrug railway station,GBR,52.2186,6.97389,0.0,http://www.group15_KD_tr_onto/275,Deelen,275,52.056,5.873,50,178,0,50,295
124,http://www.group15_KD_tr_onto/GDR,Gaanderen railway station,GDR,51.9308,6.34778,0.5675675675675675,http://www.group15_KD_tr_onto/275,Deelen,275,52.056,5.873,50,178,0,50,295
125,http://www.group15_KD_tr_onto/GO,Goor railway station,GO,52.2303,6.58444,0.11267605633802817,http://www.group15_KD_tr_onto/275,Deelen,275,52.056,5.873,50,178,0,50,295
126,http://www.group15_KD_tr_onto/HGL,Hengelo railway station,HGL,52.2619,6.79417,0.24503311258278146,http://www.group15_KD_tr_onto/275,Deelen,275,52.056,5.873,50,178,0,50,295
127,http://www.group15_KD_tr_onto/HMN,Hemmen-Dodewaard railway station,HMN,51.9222,5.67333,0.21875,http://www.group15_KD_tr_onto/275,Deelen,275,52.056,5.873,50,178,0,50,295
128,http://www.group15_KD_tr_onto/HNO,Heino railway station,HNO,52.4269,6.22194,0.14102564102564102,http://www.group15_KD_tr_onto/275,Deelen,275,52.056,5.873,50,178,0,50,295
129,http://www.group15_KD_tr_onto/HON,Holten railway station,HON,52.2839,6.42056,0.2876712328767123,http://www.group15_KD_tr_onto/275,Deelen,275,52.056,5.873,50,178,0,50,295
130,http://www.group15_KD_tr_onto/KBK,Klarenbeek railway station,KBK,52.1778,6.08417,0.03125,http://www.group15_KD_tr_onto/275,Deelen,275,52.056,5.873,50,178,0,50,295
131,http://www.group15_KD_tr_onto/KLP,Veenendaal-De Klomp railway station,KLP,52.0458,5.57389,0.4,http://www.group15_KD_tr_onto/275,Deelen,275,52.056,5.873,50,178,0,50,295
132,http://www.group15_KD_tr_onto/KTR,Kesteren railway station,KTR,51.9314,5.58361,0.171875,http://www.group15_KD_tr_onto/275,Deelen,275,52.056,5.873,50,178,0,50,295
133,http://www.group15_KD_tr_onto/LC,Lochem railway station,LC,52.1667,6.42583,0.08571428571428572,http://www.group15_KD_tr_onto/275,Deelen,275,52.056,5.873,50,178,0,50,295
134,http://www.group15_KD_tr_onto/LTV,Lichtenvoorde-Groenlo railway station,LTV,52.0117,6.59639,0.42028985507246375,http://www.group15_KD_tr_onto/275,Deelen,275,52.056,5.873,50,178,0,50,295
135,http://www.group15_KD_tr_onto/MMLH,Mook-Molenhoek railway station,MMLH,51.7647,5.8775,0.3333333333333333,http://www.group15_KD_tr_onto/275,Deelen,275,52.056,5.873,50,178,0,50,295
136,http://www.group15_KD_tr_onto/NM,Nijmegen railway station,NM,51.8433,5.8525,0.6927710843373494,http://www.group15_KD_tr_onto/275,Deelen,275,52.056,5.873,50,178,0,50,295
137,http://www.group15_KD_tr_onto/NVD,Nijverdal railway station,NVD,52.3656,6.47028,0.22115384615384615,http://www.group15_KD_tr_onto/275,Deelen,275,52.056,5.873,50,178,0,50,295
138,http://www.group15_KD_tr_onto/ODZ,Oldenzaal railway station,ODZ,52.3061,6.93361,0.25675675675675674,http://www.group15_KD_tr_onto/275,Deelen,275,52.056,5.873,50,178,0,50,295
139,http://www.group15_KD_tr_onto/OP,Opheusden railway station,OP,51.9261,5.63694,0.203125,http://www.group15_KD_tr_onto/275,Deelen,275,52.056,5.873,50,178,0,50,295
140,http://www.group15_KD_tr_onto/OST,Olst railway station,OST,52.335,6.11306,1.2531645569620253,http://www.group15_KD_tr_onto/275,Deelen,275,52.056,5.873,50,178,0,50,295
141,http://www.group15_KD_tr_onto/OTB,Oosterbeek railway station,OTB,51.9947,5.84,0.22727272727272727,http://www.group15_KD_tr_onto/275,Deelen,275,52.056,5.873,50,178,0,50,295
142,http://www.group15_KD_tr_onto/RAT,Raalte railway station,RAT,52.3908,6.27861,0.17307692307692307,http://www.group15_KD_tr_onto/275,Deelen,275,52.056,5.873,50,178,0,50,295
143,http://www.group15_KD_tr_onto/RHN,Rhenen railway station,RHN,51.9578,5.57833,0.40540540540540543,http://www.group15_KD_tr_onto/275,Deelen,275,52.056,5.873,50,178,0,50,295
144,http://www.group15_KD_tr_onto/RH,Rheden railway station,RH,52.0097,6.02972,0.22857142857142856,http://www.group15_KD_tr_onto/275,Deelen,275,52.056,5.873,50,178,0,50,295
145,http://www.group15_KD_tr_onto/RL,Ruurlo railway station,RL,52.0806,6.45,0.5072463768115942,http://www.group15_KD_tr_onto/275,Deelen,275,52.056,5.873,50,178,0,50,295
146,http://www.group15_KD_tr_onto/RSN,Rijssen railway station,RSN,52.3117,6.51917,0.1232876712328767,http://www.group15_KD_tr_onto/275,Deelen,275,52.056,5.873,50,178,0,50,295
147,http://www.group15_KD_tr_onto/RVS,Ravenstein railway station,RVS,51.7947,5.63722,0.4457831325301205,http://www.group15_KD_tr_onto/275,Deelen,275,52.056,5.873,50,178,0,50,295
148,http://www.group15_KD_tr_onto/TWL,Twello railway station,TWL,52.2381,6.1,0.16666666666666666,http://www.group15_KD_tr_onto/275,Deelen,275,52.056,5.873,50,178,0,50,295
149,http://www.group15_KD_tr_onto/VEM,Voorst-Empe railway station,VEM,52.1578,6.14278,0.140625,http://www.group15_KD_tr_onto/275,Deelen,275,52.056,5.873,50,178,0,50,295
150,http://www.group15_KD_tr_onto/VHP,Vroomshoop railway station,VHP,52.4411,6.57583,0.16666666666666666,http://www.group15_KD_tr_onto/275,Deelen,275,52.056,5.873,50,178,0,50,295
151,http://www.group15_KD_tr_onto/VP,Arnhem Velperpoort railway station,VP,51.985,5.92,0.2,http://www.group15_KD_tr_onto/275,Deelen,275,52.056,5.873,50,178,0,50,295
152,http://www.group15_KD_tr_onto/VSV,Varsseveld railway station,VSV,51.9369,6.45806,0.5,http://www.group15_KD_tr_onto/275,Deelen,275,52.056,5.873,50,178,0,50,295
153,http://www.group15_KD_tr_onto/VZ,Vriezenveen railway station,VZ,52.4019,6.60028,0.12962962962962962,http://www.group15_KD_tr_onto/275,Deelen,275,52.056,5.873,50,178,0,50,295
154,http://www.group15_KD_tr_onto/WC,Wijchen railway station,WC,51.8111,5.72944,0.3125,http://www.group15_KD_tr_onto/275,Deelen,275,52.056,5.873,50,178,0,50,295
155,http://www.group15_KD_tr_onto/WDN,Wierden railway station,WDN,52.3614,6.59111,0.12582781456953643,http://www.group15_KD_tr_onto/275,Deelen,275,52.056,5.873,50,178,0,50,295
156,http://www.group15_KD_tr_onto/WF,Wolfheze railway station,WF,52.0053,5.79361,0.19696969696969696,http://www.group15_KD_tr_onto/275,Deelen,275,52.056,5.873,50,178,0,50,295
157,http://www.group15_KD_tr_onto/WH,Wijhe railway station,WH,52.3936,6.14083,1.6708860759493671,http://www.group15_KD_tr_onto/275,Deelen,275,52.056,5.873,50,178,0,50,295
158,http://www.group15_KD_tr_onto/WL,Wehl railway station,WL,51.9567,6.2125,0.3333333333333333,http://www.group15_KD_tr_onto/275,Deelen,275,52.056,5.873,50,178,0,50,295
159,http://www.group15_KD_tr_onto/WWW,Winterswijk West railway station,WWW,51.9744,6.70361,0.4057971014492754,http://www.group15_KD_tr_onto/275,Deelen,275,52.056,5.873,50,178,0,50,295
160,http://www.group15_KD_tr_onto/WW,Winterswijk railway station,WW,51.9675,6.71556,0.625,http://www.group15_KD_tr_onto/275,Deelen,275,52.056,5.873,50,178,0,50,295
161,http://www.group15_KD_tr_onto/ZA,Zetten-Andelst railway station,ZA,51.9194,5.72306,0.234375,http://www.group15_KD_tr_onto/275,Deelen,275,52.056,5.873,50,178,0,50,295
162,http://www.group15_KD_tr_onto/ZP,Zutphen railway station,ZP,52.1444,6.19389,0.6543778801843319,http://www.group15_KD_tr_onto/275,Deelen,275,52.056,5.873,50,178,0,50,295
163,http://www.group15_KD_tr_onto/ZV,Zevenaar railway station,ZV,51.9231,6.07278,1.0242424242424242,http://www.group15_KD_tr_onto/275,Deelen,275,52.056,5.873,50,178,0,50,295
164,http://www.group15_KD_tr_onto/ASN,Assen railway station,ASN,52.9917,6.57056,0.8471337579617835,http://www.group15_KD_tr_onto/280,Eelde,280,53.125,6.585,50,172,0,57,285
165,http://www.group15_KD_tr_onto/BF,Baflo railway station,BF,53.3608,6.51833,0.14864864864864866,http://www.group15_KD_tr_onto/280,Eelde,280,53.125,6.585,50,172,0,57,285
166,http://www.group15_KD_tr_onto/BL,Beilen railway station,BL,52.8547,6.52083,0.5066666666666667,http://www.group15_KD_tr_onto/280,Eelde,280,53.125,6.585,50,172,0,57,285
167,http://www.group15_KD_tr_onto/DLN,Dalen railway station,DLN,52.6944,6.75806,0.02127659574468085,http://www.group15_KD_tr_onto/280,Eelde,280,53.125,6.585,50,172,0,57,285
168,http://www.group15_KD_tr_onto/EMNZ,Emmen Zuid railway station,EMNZ,52.7489,6.87472,0.07317073170731707,http://www.group15_KD_tr_onto/280,Eelde,280,53.125,6.585,50,172,0,57,285
169,http://www.group15_KD_tr_onto/EMN,Emmen railway station,EMN,52.7903,6.89917,0.1951219512195122,http://www.group15_KD_tr_onto/280,Eelde,280,53.125,6.585,50,172,0,57,285
170,http://www.group15_KD_tr_onto/GBG,Gramsbergen railway station,GBG,52.6094,6.67583,0.5106382978723404,http://www.group15_KD_tr_onto/280,Eelde,280,53.125,6.585,50,172,0,57,285
171,http://www.group15_KD_tr_onto/GK,Grijpskerk railway station,GK,53.2556,6.31056,0.16176470588235295,http://www.group15_KD_tr_onto/280,Eelde,280,53.125,6.585,50,172,0,57,285
172,http://www.group15_KD_tr_onto/GN,Groningen railway station,GN,53.2106,6.56472,0.48355263157894735,http://www.group15_KD_tr_onto/280,Eelde,280,53.125,6.585,50,172,0,57,285
173,http://www.group15_KD_tr_onto/HDB,Hardenberg railway station,HDB,52.5722,6.62778,0.11016949152542373,http://www.group15_KD_tr_onto/280,Eelde,280,53.125,6.585,50,172,0,57,285
174,http://www.group15_KD_tr_onto/HGV,Hoogeveen railway station,HGV,52.7333,6.4725,0.5466666666666666,http://www.group15_KD_tr_onto/280,Eelde,280,53.125,6.585,50,172,0,57,285
175,http://www.group15_KD_tr_onto/HRN,Haren (NL) railway station,HRN,53.175,6.61778,0.46,http://www.group15_KD_tr_onto/280,Eelde,280,53.125,6.585,50,172,0,57,285
176,http://www.group15_KD_tr_onto/KW,Kropswolde railway station,KW,53.1617,6.72139,0.3142857142857143,http://www.group15_KD_tr_onto/280,Eelde,280,53.125,6.585,50,172,0,57,285
177,http://www.group15_KD_tr_onto/NA,Nieuw Amsterdam railway station,NA,52.7186,6.84861,0.23684210526315788,http://www.group15_KD_tr_onto/280,Eelde,280,53.125,6.585,50,172,0,57,285
178,http://www.group15_KD_tr_onto/NSCH,Bad Nieuweschans railway station,NSCH,53.1842,7.19944,0.7435897435897436,http://www.group15_KD_tr_onto/280,Eelde,280,53.125,6.585,50,172,0,57,285
179,http://www.group15_KD_tr_onto/SWK,Steenwijk railway station,SWK,52.7908,6.11611,0.21323529411764705,http://www.group15_KD_tr_onto/280,Eelde,280,53.125,6.585,50,172,0,57,285
180,http://www.group15_KD_tr_onto/VDM,Veendam railway station,VDM,53.1036,6.88472,0.17142857142857143,http://www.group15_KD_tr_onto/280,Eelde,280,53.125,6.585,50,172,0,57,285
181,http://www.group15_KD_tr_onto/VD,Coevorden railway station,VD,52.6631,6.73556,0.6231884057971014,http://www.group15_KD_tr_onto/280,Eelde,280,53.125,6.585,50,172,0,57,285
182,http://www.group15_KD_tr_onto/BGN,Bergen op Zoom railway station,BGN,51.4947,4.29611,0.6068376068376068,http://www.group15_KD_tr_onto/340,Woensdrecht,340,51.449,4.342,50,174,0,59,291
183,http://www.group15_KD_tr_onto/KBD,Krabbendijke railway station,KBD,51.4333,4.11694,0.6506024096385542,http://www.group15_KD_tr_onto/340,Woensdrecht,340,51.449,4.342,50,174,0,59,291
184,http://www.group15_KD_tr_onto/KRG,Kruiningen-Yerseke railway station,KRG,51.4653,4.03694,0.4939759036144578,http://www.group15_KD_tr_onto/340,Woensdrecht,340,51.449,4.342,50,174,0,59,291
185,http://www.group15_KD_tr_onto/ODB,Oudenbosch railway station,ODB,51.5881,4.53361,0.6027397260273972,http://www.group15_KD_tr_onto/340,Woensdrecht,340,51.449,4.342,50,174,0,59,291
186,http://www.group15_KD_tr_onto/RB,Rilland-Bath railway station,RB,51.4222,4.16111,0.6867469879518072,http://www.group15_KD_tr_onto/340,Woensdrecht,340,51.449,4.342,50,174,0,59,291
187,http://www.group15_KD_tr_onto/RSD,Roosendaal railway station,RSD,51.5403,4.45889,1.07035175879397,http://www.group15_KD_tr_onto/340,Woensdrecht,340,51.449,4.342,50,174,0,59,291
188,http://www.group15_KD_tr_onto/BSKS,Boskoop Snijdelwijk railway station,BSKS,52.0676,4.6462,0.1,http://www.group15_KD_tr_onto/344,Rotterdam,344,51.962,4.447,50,175,0,6,275
189,http://www.group15_KD_tr_onto/CPS,Capelle Schollevaar railway station,CPS,51.9533,4.58417,1.0909090909090908,http://www.group15_KD_tr_onto/344,Rotterdam,344,51.962,4.447,50,175,0,6,275
190,http://www.group15_KD_tr_onto/DT,Rotterdam Delftsche Poort railway station,DT,51.9253,4.47361,0.40848806366047746,http://www.group15_KD_tr_onto/344,Rotterdam,344,51.962,4.447,50,175,0,6,275
191,http://www.group15_KD_tr_onto/EC,Dordrecht railway station,EC,51.8075,4.66778,0.6216216216216216,http://www.group15_KD_tr_onto/344,Rotterdam,344,51.962,4.447,50,175,0,6,275
192,http://www.group15_KD_tr_onto/GD,Gouda railway station,GD,52.0175,4.70556,0.4246031746031746,http://www.group15_KD_tr_onto/344,Rotterdam,344,51.962,4.447,50,175,0,6,275
193,http://www.group15_KD_tr_onto/GVMW,Den Haag Moerwijk railway station,GVMW,52.0533,4.30861,0.31654676258992803,http://www.group15_KD_tr_onto/344,Rotterdam,344,51.962,4.447,50,175,0,6,275
194,http://www.group15_KD_tr_onto/NWK,Nieuwerkerk aan den IJssel railway station,NWK,51.9653,4.61694,1.6022727272727273,http://www.group15_KD_tr_onto/344,Rotterdam,344,51.962,4.447,50,175,0,6,275
195,http://www.group15_KD_tr_onto/RLB,Rotterdam Lombardijen railway station,RLB,51.8797,4.53111,0.5473684210526316,http://www.group15_KD_tr_onto/344,Rotterdam,344,51.962,4.447,50,175,0,6,275
196,http://www.group15_KD_tr_onto/RSW,Rijswijk railway station,RSW,52.0394,4.31972,0.28776978417266186,http://www.group15_KD_tr_onto/344,Rotterdam,344,51.962,4.447,50,175,0,6,275
197,http://www.group15_KD_tr_onto/RTA,Rotterdam Alexander station,RTA,51.9519,4.55278,0.6964285714285714,http://www.group15_KD_tr_onto/344,Rotterdam,344,51.962,4.447,50,175,0,6,275
198,http://www.group15_KD_tr_onto/RTB,Rotterdam Blaak station,RTB,51.92,4.48917,0.4144927536231884,http://www.group15_KD_tr_onto/344,Rotterdam,344,51.962,4.447,50,175,0,6,275
199,http://www.group15_KD_tr_onto/RTD,Rotterdam Centraal station,RTD,51.9244,4.46944,1.644736842105263,http://www.group15_KD_tr_onto/344,Rotterdam,344,51.962,4.447,50,175,0,6,275
200,http://www.group15_KD_tr_onto/RTN,Rotterdam Noord railway station,RTN,51.9422,4.48139,1.4545454545454546,http://www.group15_KD_tr_onto/344,Rotterdam,344,51.962,4.447,50,175,0,6,275
201,http://www.group15_KD_tr_onto/RTZ,Rotterdam Zuid railway station,RTZ,51.9094,4.50944,0.47368421052631576,http://www.group15_KD_tr_onto/344,Rotterdam,344,51.962,4.447,50,175,0,6,275
202,http://www.group15_KD_tr_onto/SDM,Schiedam Centrum station,SDM,51.9219,4.41,0.4033898305084746,http://www.group15_KD_tr_onto/344,Rotterdam,344,51.962,4.447,50,175,0,6,275
203,http://www.group15_KD_tr_onto/SDT,Sliedrecht Baanhoek railway station,SDT,51.8297,4.74333,0.2839506172839506,http://www.group15_KD_tr_onto/344,Rotterdam,344,51.962,4.447,50,175,0,6,275
204,http://www.group15_KD_tr_onto/YPB,Den Haag Ypenburg railway station,YPB,52.0592,4.38972,0.22784810126582278,http://www.group15_KD_tr_onto/344,Rotterdam,344,51.962,4.447,50,175,0,6,275
205,http://www.group15_KD_tr_onto/ZTM,Lansingerland-Zoetermeer railway station,ZTM,52.0394,4.52556,0.21518987341772153,http://www.group15_KD_tr_onto/344,Rotterdam,344,51.962,4.447,50,175,0,6,275
206,http://www.group15_KD_tr_onto/ZWD,Zwijndrecht railway station,ZWD,51.8147,4.64222,0.5578947368421052,http://www.group15_KD_tr_onto/344,Rotterdam,344,51.962,4.447,50,175,0,6,275
207,http://www.group15_KD_tr_onto/BD,Breda railway station,BD,51.595,4.78,1.7708978328173375,http://www.group15_KD_tr_onto/350,Gilze-Rijen,350,51.566,4.936,50,180,0,62,295
208,http://www.group15_KD_tr_onto/BHDV,Boven Hardinxveld railway station,BHDV,51.8319,4.87472,0.12345679012345678,http://www.group15_KD_tr_onto/350,Gilze-Rijen,350,51.566,4.936,50,180,0,62,295
209,http://www.group15_KD_tr_onto/ETN,Etten-Leur railway station,ETN,51.5753,4.63694,1.0365853658536586,http://www.group15_KD_tr_onto/350,Gilze-Rijen,350,51.566,4.936,50,180,0,62,295
210,http://www.group15_KD_tr_onto/GND,Hardinxveld-Giessendam railway station,GND,51.8303,4.83528,0.19753086419753085,http://www.group15_KD_tr_onto/350,Gilze-Rijen,350,51.566,4.936,50,180,0,62,295
211,http://www.group15_KD_tr_onto/GR,Gorinchem railway station,GR,51.8336,4.9675,0.24050632911392406,http://www.group15_KD_tr_onto/350,Gilze-Rijen,350,51.566,4.936,50,180,0,62,295
212,http://www.group15_KD_tr_onto/GZ,Gilze-Rijen railway station,GZ,51.5839,4.925,1.4269662921348314,http://www.group15_KD_tr_onto/350,Gilze-Rijen,350,51.566,4.936,50,180,0,62,295
213,http://www.group15_KD_tr_onto/OT,Oisterwijk railway station,OT,51.5822,5.19444,0.2463768115942029,http://www.group15_KD_tr_onto/350,Gilze-Rijen,350,51.566,4.936,50,180,0,62,295
214,http://www.group15_KD_tr_onto/TBR,Tilburg Reeshof railway station,TBR,51.5739,4.99278,1.5568181818181819,http://www.group15_KD_tr_onto/350,Gilze-Rijen,350,51.566,4.936,50,180,0,62,295
215,http://www.group15_KD_tr_onto/TBU,Tilburg Universiteit railway station,TBU,51.5653,5.05139,1.1065573770491803,http://www.group15_KD_tr_onto/350,Gilze-Rijen,350,51.566,4.936,50,180,0,62,295
216,http://www.group15_KD_tr_onto/TB,Tilburg railway station,TB,51.5606,5.08278,1.0123076923076924,http://www.group15_KD_tr_onto/350,Gilze-Rijen,350,51.566,4.936,50,180,0,62,295
217,http://www.group15_KD_tr_onto/ZLW,Lage Zwaluwe railway station,ZLW,51.6906,4.66333,0.573170731707317,http://www.group15_KD_tr_onto/350,Gilze-Rijen,350,51.566,4.936,50,180,0,62,295
218,http://www.group15_KD_tr_onto/ZVB,Zevenbergen railway station,ZVB,51.6414,4.60972,0.7671232876712328,http://www.group15_KD_tr_onto/350,Gilze-Rijen,350,51.566,4.936,50,180,0,62,295
219,http://www.group15_KD_tr_onto/BET,Best railway station,BET,51.5097,5.38889,0.5,http://www.group15_KD_tr_onto/370,Eindhoven,370,51.451,5.377,40,180,0,65,299
220,http://www.group15_KD_tr_onto/BMR,Boxmeer railway station,BMR,51.6444,5.93944,0.24675324675324675,http://www.group15_KD_tr_onto/370,Eindhoven,370,51.451,5.377,40,180,0,65,299
221,http://www.group15_KD_tr_onto/BR,Blerick railway station,BR,51.3725,6.155,0.46496815286624205,http://www.group15_KD_tr_onto/370,Eindhoven,370,51.451,5.377,40,180,0,65,299
222,http://www.group15_KD_tr_onto/BTL,Boxtel railway station,BTL,51.5844,5.31889,0.474025974025974,http://www.group15_KD_tr_onto/370,Eindhoven,370,51.451,5.377,40,180,0,65,299
223,http://www.group15_KD_tr_onto/DN,Deurne railway station,DN,51.4558,5.78833,0.7256637168141593,http://www.group15_KD_tr_onto/370,Eindhoven,370,51.451,5.377,40,180,0,65,299
224,http://www.group15_KD_tr_onto/EHS,Eindhoven Stadion railway station,EHS,51.443,5.46731,0.35135135135135137,http://www.group15_KD_tr_onto/370,Eindhoven,370,51.451,5.377,40,180,0,65,299
225,http://www.group15_KD_tr_onto/EHV,Eindhoven Centraal railway station,EHV,51.4428,5.48028,1.0462724935732648,http://www.group15_KD_tr_onto/370,Eindhoven,370,51.451,5.377,40,180,0,65,299
226,http://www.group15_KD_tr_onto/GP,Geldrop railway station,GP,51.42,5.55111,0.4852941176470588,http://www.group15_KD_tr_onto/370,Eindhoven,370,51.451,5.377,40,180,0,65,299
227,http://www.group15_KD_tr_onto/HMH,Helmond 't Hout railway station,HMH,51.4678,5.63083,0.373134328358209,http://www.group15_KD_tr_onto/370,Eindhoven,370,51.451,5.377,40,180,0,65,299
228,http://www.group15_KD_tr_onto/HM,Helmond railway station,HM,51.4756,5.66167,0.4897959183673469,http://www.group15_KD_tr_onto/370,Eindhoven,370,51.451,5.377,40,180,0,65,299
229,http://www.group15_KD_tr_onto/HRT,Horst-Sevenum railway station,HRT,51.4267,6.04194,0.35,http://www.group15_KD_tr_onto/370,Eindhoven,370,51.451,5.377,40,180,0,65,299
230,http://www.group15_KD_tr_onto/HT,'s-Hertogenbosch railway station,HT,51.69,5.29333,0.5497630331753555,http://www.group15_KD_tr_onto/370,Eindhoven,370,51.451,5.377,40,180,0,65,299
231,http://www.group15_KD_tr_onto/HZ,Heeze railway station,HZ,51.385,5.56944,0.0,http://www.group15_KD_tr_onto/370,Eindhoven,370,51.451,5.377,40,180,0,65,299
232,http://www.group15_KD_tr_onto/MZ,Maarheeze railway station,MZ,51.3039,5.63028,0.36764705882352944,http://www.group15_KD_tr_onto/370,Eindhoven,370,51.451,5.377,40,180,0,65,299
233,http://www.group15_KD_tr_onto/OW,Oss West railway station,OW,51.7581,5.50611,0.26373626373626374,http://www.group15_KD_tr_onto/370,Eindhoven,370,51.451,5.377,40,180,0,65,299
234,http://www.group15_KD_tr_onto/O,Oss railway station,O,51.7653,5.53167,0.7159763313609467,http://www.group15_KD_tr_onto/370,Eindhoven,370,51.451,5.377,40,180,0,65,299
235,http://www.group15_KD_tr_onto/RS,Rosmalen railway station,RS,51.715,5.36889,0.26373626373626374,http://www.group15_KD_tr_onto/370,Eindhoven,370,51.451,5.377,40,180,0,65,299
236,http://www.group15_KD_tr_onto/TG,Tegelen railway station,TG,51.3411,6.14333,0.961038961038961,http://www.group15_KD_tr_onto/370,Eindhoven,370,51.451,5.377,40,180,0,65,299
237,http://www.group15_KD_tr_onto/VG,Vught railway station,VG,51.6547,5.29194,0.5316455696202531,http://www.group15_KD_tr_onto/370,Eindhoven,370,51.451,5.377,40,180,0,65,299
238,http://www.group15_KD_tr_onto/VLB,Vierlingsbeek railway station,VLB,51.5922,5.99667,0.6883116883116883,http://www.group15_KD_tr_onto/370,Eindhoven,370,51.451,5.377,40,180,0,65,299
239,http://www.group15_KD_tr_onto/VL,Venlo railway station,VL,51.3647,6.17139,0.5808823529411765,http://www.group15_KD_tr_onto/370,Eindhoven,370,51.451,5.377,40,180,0,65,299
240,http://www.group15_KD_tr_onto/VRY,Venray railway station,VRY,51.5264,6.01417,0.7142857142857143,http://www.group15_KD_tr_onto/370,Eindhoven,370,51.451,5.377,40,180,0,65,299
241,http://www.group15_KD_tr_onto/WT,Weert railway station,WT,51.2486,5.7025,0.6229508196721312,http://www.group15_KD_tr_onto/370,Eindhoven,370,51.451,5.377,40,180,0,65,299
242,http://www.group15_KD_tr_onto/CVM,Chevremont railway station,CVM,50.8758,6.05944,0.21052631578947367,http://www.group15_KD_tr_onto/380,Maastricht,380,50.906,5.762,30,181,0,70,330
243,http://www.group15_KD_tr_onto/EDN,Eijsden railway station,EDN,50.772,5.71004,0.4444444444444444,http://www.group15_KD_tr_onto/380,Maastricht,380,50.906,5.762,30,181,0,70,330
244,http://www.group15_KD_tr_onto/EGH,Eygelshoven railway station,EGH,50.8903,6.04556,0.13157894736842105,http://www.group15_KD_tr_onto/380,Maastricht,380,50.906,5.762,30,181,0,70,330
245,http://www.group15_KD_tr_onto/GLN,Geleen Oost railway station,GLN,50.9672,5.84306,0.23684210526315788,http://www.group15_KD_tr_onto/380,Maastricht,380,50.906,5.762,30,181,0,70,330
246,http://www.group15_KD_tr_onto/HB,Hoensbroek railway station,HB,50.9053,5.93111,0.5263157894736842,http://www.group15_KD_tr_onto/380,Maastricht,380,50.906,5.762,30,181,0,70,330
247,http://www.group15_KD_tr_onto/HRLW,Heerlen Woonboulevard railway station,HRLW,50.8961,5.95278,0.11538461538461539,http://www.group15_KD_tr_onto/380,Maastricht,380,50.906,5.762,30,181,0,70,330
248,http://www.group15_KD_tr_onto/HRL,Heerlen railway station,HRL,50.8908,5.97472,0.2557077625570776,http://www.group15_KD_tr_onto/380,Maastricht,380,50.906,5.762,30,181,0,70,330
249,http://www.group15_KD_tr_onto/KMR,Klimmen-Ransdaal railway station,KMR,50.8667,5.89056,0.15384615384615385,http://www.group15_KD_tr_onto/380,Maastricht,380,50.906,5.762,30,181,0,70,330
250,http://www.group15_KD_tr_onto/KRD,Kerkrade Centrum railway station,KRD,50.8614,6.0575,0.2631578947368421,http://www.group15_KD_tr_onto/380,Maastricht,380,50.906,5.762,30,181,0,70,330
251,http://www.group15_KD_tr_onto/LG,Landgraaf railway station,LG,50.8964,6.02,0.09090909090909091,http://www.group15_KD_tr_onto/380,Maastricht,380,50.906,5.762,30,181,0,70,330
252,http://www.group15_KD_tr_onto/MT,Maastricht railway station,MT,50.85,5.70528,0.28112449799196787,http://www.group15_KD_tr_onto/380,Maastricht,380,50.906,5.762,30,181,0,70,330
253,http://www.group15_KD_tr_onto/NH,Nuth railway station,NH,50.9197,5.8925,0.34210526315789475,http://www.group15_KD_tr_onto/380,Maastricht,380,50.906,5.762,30,181,0,70,330
254,http://www.group15_KD_tr_onto/RM,Roermond railway station,RM,51.1933,5.99472,0.6355555555555555,http://www.group15_KD_tr_onto/380,Maastricht,380,50.906,5.762,30,181,0,70,330
255,http://www.group15_KD_tr_onto/RV,Reuver railway station,RV,51.2831,6.07944,0.948051948051948,http://www.group15_KD_tr_onto/380,Maastricht,380,50.906,5.762,30,181,0,70,330
256,http://www.group15_KD_tr_onto/SBK,Spaubeek railway station,SBK,50.9431,5.84972,0.5,http://www.group15_KD_tr_onto/380,Maastricht,380,50.906,5.762,30,181,0,70,330
257,http://www.group15_KD_tr_onto/SM,Swalmen railway station,SM,51.2358,6.0325,0.3246753246753247,http://www.group15_KD_tr_onto/380,Maastricht,380,50.906,5.762,30,181,0,70,330
258,http://www.group15_KD_tr_onto/SN,Schinnen railway station,SN,50.9386,5.87611,0.5657894736842105,http://www.group15_KD_tr_onto/380,Maastricht,380,50.906,5.762,30,181,0,70,330
259,http://www.group15_KD_tr_onto/SRN,Susteren railway station,SRN,51.0608,5.86278,0.527027027027027,http://www.group15_KD_tr_onto/380,Maastricht,380,50.906,5.762,30,181,0,70,330
260,http://www.group15_KD_tr_onto/STD,Sittard railway station,STD,51.0011,5.85833,0.4699248120300752,http://www.group15_KD_tr_onto/380,Maastricht,380,50.906,5.762,30,181,0,70,330
261,http://www.group15_KD_tr_onto/VDL,Voerendaal railway station,VDL,50.8867,5.92944,0.11538461538461539,http://www.group15_KD_tr_onto/380,Maastricht,380,50.906,5.762,30,181,0,70,330
