,station,station_name,station_code,ts_lat,ts_long,delay,ws,ws_name,ws_code,ws_lat,ws_long,windspeed,mean_temp,percipitation,visibility,wind_direction
0,http://www.group15_KD_tr_onto/AMR,Alkmaar railway station,AMR,52.6378,4.74056,1.763819095477387,http://www.group15_KD_tr_onto/235,De Kooy,235,52.928,4.781,40,136,83,30,182
1,http://www.group15_KD_tr_onto/ANA,Anna Paulowna railway station,ANA,52.8669,4.81111,2.36144578313253,http://www.group15_KD_tr_onto/235,De Kooy,235,52.928,4.781,40,136,83,30,182
2,http://www.group15_KD_tr_onto/HDRZ,Den Helder Zuid railway station,HDRZ,52.9331,4.76389,2.1325301204819276,http://www.group15_KD_tr_onto/235,De Kooy,235,52.928,4.781,40,136,83,30,182
3,http://www.group15_KD_tr_onto/HDR,Den Helder railway station,HDR,52.9564,4.76083,3.4186046511627906,http://www.group15_KD_tr_onto/235,De Kooy,235,52.928,4.781,40,136,83,30,182
4,http://www.group15_KD_tr_onto/HWD,Heerhugowaard railway station,HWD,52.67,4.82361,1.2327044025157232,http://www.group15_KD_tr_onto/235,De Kooy,235,52.928,4.781,40,136,83,30,182
5,http://www.group15_KD_tr_onto/OBD,Obdam railway station,OBD,52.6781,4.90833,0.7246376811594203,http://www.group15_KD_tr_onto/235,De Kooy,235,52.928,4.781,40,136,83,30,182
6,http://www.group15_KD_tr_onto/SGN,Schagen railway station,SGN,52.7861,4.80528,2.0352941176470587,http://www.group15_KD_tr_onto/235,De Kooy,235,52.928,4.781,40,136,83,30,182
7,http://www.group15_KD_tr_onto/AC,Abcoude railway station,AC,52.2744,4.98222,0.5217391304347826,http://www.group15_KD_tr_onto/240,Schiphol,240,52.318,4.79,50,140,92,20,186
8,http://www.group15_KD_tr_onto/AMPO,Almere Poort railway station,AMPO,52.3428,5.15194,0.3716216216216216,http://www.group15_KD_tr_onto/240,Schiphol,240,52.318,4.79,50,140,92,20,186
9,http://www.group15_KD_tr_onto/ASA,Amsterdam Amstel station,ASA,52.3464,4.91778,1.6793103448275861,http://www.group15_KD_tr_onto/240,Schiphol,240,52.318,4.79,50,140,92,20,186
10,http://www.group15_KD_tr_onto/ASB,Amsterdam Bijlmer ArenA station,ASB,52.3131,4.94611,1.1240875912408759,http://www.group15_KD_tr_onto/240,Schiphol,240,52.318,4.79,50,140,92,20,186
11,http://www.group15_KD_tr_onto/ASDL,Amsterdam Lelylaan station,ASDL,52.3572,4.83389,0.42483660130718953,http://www.group15_KD_tr_onto/240,Schiphol,240,52.318,4.79,50,140,92,20,186
12,http://www.group15_KD_tr_onto/ASDM,Amsterdam Muiderpoort railway station,ASDM,52.3608,4.93111,0.581081081081081,http://www.group15_KD_tr_onto/240,Schiphol,240,52.318,4.79,50,140,92,20,186
13,http://www.group15_KD_tr_onto/ASDZ,Amsterdam Zuid station,ASDZ,52.3389,4.87306,0.600375234521576,http://www.group15_KD_tr_onto/240,Schiphol,240,52.318,4.79,50,140,92,20,186
14,http://www.group15_KD_tr_onto/ASD,Amsterdam Centraal station,ASD,52.3783,4.9,1.5371428571428571,http://www.group15_KD_tr_onto/240,Schiphol,240,52.318,4.79,50,140,92,20,186
15,http://www.group15_KD_tr_onto/ASSP,Amsterdam Science Park railway station,ASSP,52.3525,4.94861,0.46320346320346323,http://www.group15_KD_tr_onto/240,Schiphol,240,52.318,4.79,50,140,92,20,186
16,http://www.group15_KD_tr_onto/ASS,Amsterdam Sloterdijk station,ASS,52.3892,4.83806,0.8797399783315276,http://www.group15_KD_tr_onto/240,Schiphol,240,52.318,4.79,50,140,92,20,186
17,http://www.group15_KD_tr_onto/BLL,Bloemendaal railway station,BLL,52.4042,4.6275,1.2875,http://www.group15_KD_tr_onto/240,Schiphol,240,52.318,4.79,50,140,92,20,186
18,http://www.group15_KD_tr_onto/BV,Beverwijk railway station,BV,52.4783,4.65611,0.7254901960784313,http://www.group15_KD_tr_onto/240,Schiphol,240,52.318,4.79,50,140,92,20,186
19,http://www.group15_KD_tr_onto/CAS,Castricum railway station,CAS,52.5456,4.65889,1.347457627118644,http://www.group15_KD_tr_onto/240,Schiphol,240,52.318,4.79,50,140,92,20,186
20,http://www.group15_KD_tr_onto/DMNZ,Diemen Zuid station,DMNZ,52.3303,4.95639,0.6074074074074074,http://www.group15_KD_tr_onto/240,Schiphol,240,52.318,4.79,50,140,92,20,186
21,http://www.group15_KD_tr_onto/DMN,Diemen railway station,DMN,52.3453,4.96694,0.44155844155844154,http://www.group15_KD_tr_onto/240,Schiphol,240,52.318,4.79,50,140,92,20,186
22,http://www.group15_KD_tr_onto/HAD,Heemstede-Aerdenhout railway station,HAD,52.3597,4.60694,0.4953271028037383,http://www.group15_KD_tr_onto/240,Schiphol,240,52.318,4.79,50,140,92,20,186
23,http://www.group15_KD_tr_onto/HFD,Hoofddorp railway station,HFD,52.2933,4.7,0.5201238390092879,http://www.group15_KD_tr_onto/240,Schiphol,240,52.318,4.79,50,140,92,20,186
24,http://www.group15_KD_tr_onto/HIL,Hillegom railway station,HIL,52.3028,4.56583,0.43037974683544306,http://www.group15_KD_tr_onto/240,Schiphol,240,52.318,4.79,50,140,92,20,186
25,http://www.group15_KD_tr_onto/HK,Heemskerk railway station,HK,52.4947,4.68611,0.7125,http://www.group15_KD_tr_onto/240,Schiphol,240,52.318,4.79,50,140,92,20,186
26,http://www.group15_KD_tr_onto/HLMS,Haarlem Spaarnwoude railway station,HLMS,52.3828,4.67111,0.8467153284671532,http://www.group15_KD_tr_onto/240,Schiphol,240,52.318,4.79,50,140,92,20,186
27,http://www.group15_KD_tr_onto/HLM,Haarlem railway station,HLM,52.3878,4.63889,0.41317365269461076,http://www.group15_KD_tr_onto/240,Schiphol,240,52.318,4.79,50,140,92,20,186
28,http://www.group15_KD_tr_onto/HLO,Heiloo railway station,HLO,52.6,4.70083,1.4230769230769231,http://www.group15_KD_tr_onto/240,Schiphol,240,52.318,4.79,50,140,92,20,186
29,http://www.group15_KD_tr_onto/HWZB,Halfweg-Zwanenburg railway station,HWZB,52.3847,4.75167,0.7664233576642335,http://www.group15_KD_tr_onto/240,Schiphol,240,52.318,4.79,50,140,92,20,186
30,http://www.group15_KD_tr_onto/NVP,Nieuw-Vennep railway station,NVP,52.2597,4.64556,0.400990099009901,http://www.group15_KD_tr_onto/240,Schiphol,240,52.318,4.79,50,140,92,20,186
31,http://www.group15_KD_tr_onto/OVN,Overveen railway station,OVN,52.3908,4.60778,0.16883116883116883,http://www.group15_KD_tr_onto/240,Schiphol,240,52.318,4.79,50,140,92,20,186
32,http://www.group15_KD_tr_onto/PMR,Purmerend railway station,PMR,52.5033,4.95417,0.7088607594936709,http://www.group15_KD_tr_onto/240,Schiphol,240,52.318,4.79,50,140,92,20,186
33,http://www.group15_KD_tr_onto/PMW,Purmerend Weidevenne railway station,PMW,52.4967,4.93667,0.7721518987341772,http://www.group15_KD_tr_onto/240,Schiphol,240,52.318,4.79,50,140,92,20,186
34,http://www.group15_KD_tr_onto/RAI,Amsterdam RAI station,RAI,52.3367,4.89056,0.6222222222222222,http://www.group15_KD_tr_onto/240,Schiphol,240,52.318,4.79,50,140,92,20,186
35,http://www.group15_KD_tr_onto/SHL,Schiphol Airport railway station,SHL,52.3089,4.76167,0.9670912951167728,http://www.group15_KD_tr_onto/240,Schiphol,240,52.318,4.79,50,140,92,20,186
36,http://www.group15_KD_tr_onto/SPTN,Santpoort Noord railway station,SPTN,52.4428,4.63917,0.8375,http://www.group15_KD_tr_onto/240,Schiphol,240,52.318,4.79,50,140,92,20,186
37,http://www.group15_KD_tr_onto/SPTZ,Santpoort Zuid railway station,SPTZ,52.4194,4.63167,0.85,http://www.group15_KD_tr_onto/240,Schiphol,240,52.318,4.79,50,140,92,20,186
38,http://www.group15_KD_tr_onto/UTG,Uitgeest railway station,UTG,52.5219,4.70278,0.993421052631579,http://www.group15_KD_tr_onto/240,Schiphol,240,52.318,4.79,50,140,92,20,186
39,http://www.group15_KD_tr_onto/WM,Wormerveer railway station,WM,52.4892,4.79278,1.3333333333333333,http://www.group15_KD_tr_onto/240,Schiphol,240,52.318,4.79,50,140,92,20,186
40,http://www.group15_KD_tr_onto/WP,Weesp railway station,WP,52.3131,5.04361,0.4344262295081967,http://www.group15_KD_tr_onto/240,Schiphol,240,52.318,4.79,50,140,92,20,186
41,http://www.group15_KD_tr_onto/ZD,Zaandam railway station,ZD,52.4389,4.81472,1.1358381502890174,http://www.group15_KD_tr_onto/240,Schiphol,240,52.318,4.79,50,140,92,20,186
42,http://www.group15_KD_tr_onto/ZVT,Zandvoort aan Zee railway station,ZVT,52.3758,4.53139,0.2894736842105263,http://www.group15_KD_tr_onto/240,Schiphol,240,52.318,4.79,50,140,92,20,186
43,http://www.group15_KD_tr_onto/AKL,Arkel railway station,AKL,51.8719,4.99278,0.47435897435897434,http://www.group15_KD_tr_onto/260,De Bilt,260,52.1,5.18,30,134,8,47,189
44,http://www.group15_KD_tr_onto/BHV,Bilthoven railway station,BHV,52.13,5.20528,0.9530201342281879,http://www.group15_KD_tr_onto/260,De Bilt,260,52.1,5.18,30,134,8,47,189
45,http://www.group15_KD_tr_onto/BKL,Breukelen railway station,BKL,52.17,4.99056,0.8171428571428572,http://www.group15_KD_tr_onto/260,De Bilt,260,52.1,5.18,30,134,8,47,189
46,http://www.group15_KD_tr_onto/BNK,Bunnik railway station,BNK,52.0631,5.19556,0.7109375,http://www.group15_KD_tr_onto/260,De Bilt,260,52.1,5.18,30,134,8,47,189
47,http://www.group15_KD_tr_onto/BSD,Beesd railway station,BSD,51.8992,5.195,0.5897435897435898,http://www.group15_KD_tr_onto/260,De Bilt,260,52.1,5.18,30,134,8,47,189
48,http://www.group15_KD_tr_onto/CL,Culemborg railway station,CL,51.9472,5.22722,0.6118421052631579,http://www.group15_KD_tr_onto/260,De Bilt,260,52.1,5.18,30,134,8,47,189
49,http://www.group15_KD_tr_onto/DB,Driebergen-Zeist railway station,DB,52.065,5.26,1.2849740932642486,http://www.group15_KD_tr_onto/260,De Bilt,260,52.1,5.18,30,134,8,47,189
50,http://www.group15_KD_tr_onto/GDM,Geldermalsen railway station,GDM,51.8839,5.27083,0.6963350785340314,http://www.group15_KD_tr_onto/260,De Bilt,260,52.1,5.18,30,134,8,47,189
51,http://www.group15_KD_tr_onto/HTN,Houten railway station,HTN,52.0344,5.16778,0.35359116022099446,http://www.group15_KD_tr_onto/260,De Bilt,260,52.1,5.18,30,134,8,47,189
52,http://www.group15_KD_tr_onto/LDM,Leerdam railway station,LDM,51.8947,5.09333,0.4358974358974359,http://www.group15_KD_tr_onto/260,De Bilt,260,52.1,5.18,30,134,8,47,189
53,http://www.group15_KD_tr_onto/MAS,Maarssen railway station,MAS,52.1358,5.03306,1.7185185185185186,http://www.group15_KD_tr_onto/260,De Bilt,260,52.1,5.18,30,134,8,47,189
54,http://www.group15_KD_tr_onto/UTLR,Utrecht Leidsche Rijn railway station,UTLR,52.0983,5.06917,0.16793893129770993,http://www.group15_KD_tr_onto/260,De Bilt,260,52.1,5.18,30,134,8,47,189
55,http://www.group15_KD_tr_onto/UTO,Utrecht Overvecht railway station,UTO,52.11,5.12528,0.7950530035335689,http://www.group15_KD_tr_onto/260,De Bilt,260,52.1,5.18,30,134,8,47,189
56,http://www.group15_KD_tr_onto/UTT,Utrecht Terwijde railway station,UTT,52.1008,5.04306,0.1297709923664122,http://www.group15_KD_tr_onto/260,De Bilt,260,52.1,5.18,30,134,8,47,189
57,http://www.group15_KD_tr_onto/UTVR,Utrecht Vaartsche Rijn railway station,UTVR,52.0786,5.1225,0.47896440129449835,http://www.group15_KD_tr_onto/260,De Bilt,260,52.1,5.18,30,134,8,47,189
58,http://www.group15_KD_tr_onto/UTZL,Utrecht Zuilen railway station,UTZL,52.1031,5.08917,0.3208955223880597,http://www.group15_KD_tr_onto/260,De Bilt,260,52.1,5.18,30,134,8,47,189
59,http://www.group15_KD_tr_onto/UT,Utrecht Centraal railway station,UT,52.0892,5.10972,1.3180396246089676,http://www.group15_KD_tr_onto/260,De Bilt,260,52.1,5.18,30,134,8,47,189
60,http://www.group15_KD_tr_onto/VTN,Vleuten railway station,VTN,52.1031,5.01194,0.22137404580152673,http://www.group15_KD_tr_onto/260,De Bilt,260,52.1,5.18,30,134,8,47,189
61,http://www.group15_KD_tr_onto/WD,Woerden railway station,WD,52.0847,4.89306,0.33088235294117646,http://www.group15_KD_tr_onto/260,De Bilt,260,52.1,5.18,30,134,8,47,189
62,http://www.group15_KD_tr_onto/ZBM,Zaltbommel railway station,ZBM,51.8069,5.26472,0.7662337662337663,http://www.group15_KD_tr_onto/260,De Bilt,260,52.1,5.18,30,134,8,47,189
63,http://www.group15_KD_tr_onto/BKF,Bovenkarspel Flora railway station,BKF,52.6958,5.25306,1.1153846153846154,http://www.group15_KD_tr_onto/267,Stavoren,267,52.898,5.384,40,136,6,42,187
64,http://www.group15_KD_tr_onto/BKG,Bovenkarspel-Grootebroek railway station,BKG,52.695,5.23611,1.1153846153846154,http://www.group15_KD_tr_onto/267,Stavoren,267,52.898,5.384,40,136,6,42,187
65,http://www.group15_KD_tr_onto/EKZ,Enkhuizen railway station,EKZ,52.6994,5.28778,1.7692307692307692,http://www.group15_KD_tr_onto/267,Stavoren,267,52.898,5.384,40,136,6,42,187
66,http://www.group15_KD_tr_onto/HKS,Hoogkarspel railway station,HKS,52.6906,5.18389,1.294871794871795,http://www.group15_KD_tr_onto/267,Stavoren,267,52.898,5.384,40,136,6,42,187
67,http://www.group15_KD_tr_onto/HNP,Hindeloopen railway station,HNP,52.9461,5.42306,1.7708333333333333,http://www.group15_KD_tr_onto/267,Stavoren,267,52.898,5.384,40,136,6,42,187
68,http://www.group15_KD_tr_onto/HN,Hoorn railway station,HN,52.645,5.05472,0.9301075268817204,http://www.group15_KD_tr_onto/267,Stavoren,267,52.898,5.384,40,136,6,42,187
69,http://www.group15_KD_tr_onto/IJT,IJlst railway station,IJT,53.0147,5.61639,1.0208333333333333,http://www.group15_KD_tr_onto/267,Stavoren,267,52.898,5.384,40,136,6,42,187
70,http://www.group15_KD_tr_onto/KMW,Koudum-Molkwerum railway station,KMW,52.9022,5.41056,1.75,http://www.group15_KD_tr_onto/267,Stavoren,267,52.898,5.384,40,136,6,42,187
71,http://www.group15_KD_tr_onto/STV,Stavoren railway station,STV,52.8867,5.35972,1.8333333333333333,http://www.group15_KD_tr_onto/267,Stavoren,267,52.898,5.384,40,136,6,42,187
72,http://www.group15_KD_tr_onto/WK,Workum railway station,WK,52.9714,5.45583,1.4166666666666667,http://www.group15_KD_tr_onto/267,Stavoren,267,52.898,5.384,40,136,6,42,187
73,http://www.group15_KD_tr_onto/WV,Wolvega railway station,WV,52.8797,6.00472,0.2777777777777778,http://www.group15_KD_tr_onto/267,Stavoren,267,52.898,5.384,40,136,6,42,187
74,http://www.group15_KD_tr_onto/ALMB,Almere Buiten railway station,ALMB,52.3942,5.27778,0.1596958174904943,http://www.group15_KD_tr_onto/269,Lelystad,269,52.458,5.52,30,133,4,47,186
75,http://www.group15_KD_tr_onto/ALMM,Almere Muziekwijk railway station,ALMM,52.3675,5.19028,0.38175675675675674,http://www.group15_KD_tr_onto/269,Lelystad,269,52.458,5.52,30,133,4,47,186
76,http://www.group15_KD_tr_onto/ALMO,Almere Oostvaarders railway station,ALMO,52.4028,5.3,0.2087912087912088,http://www.group15_KD_tr_onto/269,Lelystad,269,52.458,5.52,30,133,4,47,186
77,http://www.group15_KD_tr_onto/ALMP,Almere Parkwijk railway station,ALMP,52.3767,5.24444,0.19339622641509435,http://www.group15_KD_tr_onto/269,Lelystad,269,52.458,5.52,30,133,4,47,186
78,http://www.group15_KD_tr_onto/ALM,Almere Centrum railway station,ALM,52.375,5.21778,0.29124236252545826,http://www.group15_KD_tr_onto/269,Lelystad,269,52.458,5.52,30,133,4,47,186
79,http://www.group15_KD_tr_onto/DL,Dalfsen railway station,DL,52.4981,6.25861,0.40217391304347827,http://www.group15_KD_tr_onto/269,Lelystad,269,52.458,5.52,30,133,4,47,186
80,http://www.group15_KD_tr_onto/DRON,Dronten railway station,DRON,52.5339,5.72306,0.09417040358744394,http://www.group15_KD_tr_onto/269,Lelystad,269,52.458,5.52,30,133,4,47,186
81,http://www.group15_KD_tr_onto/EML,Ermelo railway station,EML,52.3011,5.61444,0.6438356164383562,http://www.group15_KD_tr_onto/269,Lelystad,269,52.458,5.52,30,133,4,47,186
82,http://www.group15_KD_tr_onto/HDE,'t Harde railway station,HDE,52.4089,5.89306,0.4657534246575342,http://www.group15_KD_tr_onto/269,Lelystad,269,52.458,5.52,30,133,4,47,186
83,http://www.group15_KD_tr_onto/HD,Harderwijk railway station,HD,52.3375,5.61972,0.5512820512820513,http://www.group15_KD_tr_onto/269,Lelystad,269,52.458,5.52,30,133,4,47,186
84,http://www.group15_KD_tr_onto/KPNZ,Kampen Zuid railway station,KPNZ,52.5342,5.91583,0.1794871794871795,http://www.group15_KD_tr_onto/269,Lelystad,269,52.458,5.52,30,133,4,47,186
85,http://www.group15_KD_tr_onto/KPN,Kampen railway station,KPN,52.5597,5.92111,0.07894736842105263,http://www.group15_KD_tr_onto/269,Lelystad,269,52.458,5.52,30,133,4,47,186
86,http://www.group15_KD_tr_onto/LLS,Lelystad Centrum railway station,LLS,52.5078,5.47333,0.14925373134328357,http://www.group15_KD_tr_onto/269,Lelystad,269,52.458,5.52,30,133,4,47,186
87,http://www.group15_KD_tr_onto/MP,Meppel railway station,MP,52.6914,6.1975,0.504,http://www.group15_KD_tr_onto/269,Lelystad,269,52.458,5.52,30,133,4,47,186
88,http://www.group15_KD_tr_onto/NS,Nunspeet railway station,NS,52.3708,5.78472,0.5205479452054794,http://www.group15_KD_tr_onto/269,Lelystad,269,52.458,5.52,30,133,4,47,186
89,http://www.group15_KD_tr_onto/OMN,Ommen railway station,OMN,52.5094,6.41694,1.1521739130434783,http://www.group15_KD_tr_onto/269,Lelystad,269,52.458,5.52,30,133,4,47,186
90,http://www.group15_KD_tr_onto/PT,Putten railway station,PT,52.2653,5.57611,0.4246575342465753,http://www.group15_KD_tr_onto/269,Lelystad,269,52.458,5.52,30,133,4,47,186
91,http://www.group15_KD_tr_onto/WZ,Wezep railway station,WZ,52.4536,6.00222,0.4657534246575342,http://www.group15_KD_tr_onto/269,Lelystad,269,52.458,5.52,30,133,4,47,186
92,http://www.group15_KD_tr_onto/ZLSH,Zwolle Stadshagen railway station,ZLSH,52.5279,6.05108,0.07894736842105263,http://www.group15_KD_tr_onto/269,Lelystad,269,52.458,5.52,30,133,4,47,186
93,http://www.group15_KD_tr_onto/ZL,Zwolle railway station,ZL,52.5053,6.09056,0.4755244755244755,http://www.group15_KD_tr_onto/269,Lelystad,269,52.458,5.52,30,133,4,47,186
94,http://www.group15_KD_tr_onto/AKM,Akkrum railway station,AKM,53.0472,5.84306,0.18055555555555555,http://www.group15_KD_tr_onto/270,Leeuwarden,270,53.224,5.752,40,130,14,21,181
95,http://www.group15_KD_tr_onto/DEI,Deinum railway station,DEI,53.1886,5.72778,0.25806451612903225,http://www.group15_KD_tr_onto/270,Leeuwarden,270,53.224,5.752,40,130,14,21,181
96,http://www.group15_KD_tr_onto/DRP,Dronryp railway station,DRP,53.1775,5.63472,0.1774193548387097,http://www.group15_KD_tr_onto/270,Leeuwarden,270,53.224,5.752,40,130,14,21,181
97,http://www.group15_KD_tr_onto/FN,Franeker railway station,FN,53.1822,5.54944,0.08064516129032258,http://www.group15_KD_tr_onto/270,Leeuwarden,270,53.224,5.752,40,130,14,21,181
98,http://www.group15_KD_tr_onto/GW,Grou-Jirnsum railway station,GW,53.0897,5.82222,0.1527777777777778,http://www.group15_KD_tr_onto/270,Leeuwarden,270,53.224,5.752,40,130,14,21,181
99,http://www.group15_KD_tr_onto/HDG,Hurdegaryp railway station,HDG,53.2186,5.93472,1.121212121212121,http://www.group15_KD_tr_onto/270,Leeuwarden,270,53.224,5.752,40,130,14,21,181
100,http://www.group15_KD_tr_onto/HLG,Harlingen railway station,HLG,53.1703,5.42528,0.04838709677419355,http://www.group15_KD_tr_onto/270,Leeuwarden,270,53.224,5.752,40,130,14,21,181
101,http://www.group15_KD_tr_onto/HR,Heerenveen railway station,HR,52.9606,5.91528,0.25862068965517243,http://www.group15_KD_tr_onto/270,Leeuwarden,270,53.224,5.752,40,130,14,21,181
102,http://www.group15_KD_tr_onto/LW,Leeuwarden railway station,LW,53.1958,5.79111,0.5727272727272728,http://www.group15_KD_tr_onto/270,Leeuwarden,270,53.224,5.752,40,130,14,21,181
103,http://www.group15_KD_tr_onto/MG,Mantgum railway station,MG,53.1297,5.71333,0.782608695652174,http://www.group15_KD_tr_onto/270,Leeuwarden,270,53.224,5.752,40,130,14,21,181
104,http://www.group15_KD_tr_onto/SK,Sneek railway station,SK,53.0322,5.65167,0.96875,http://www.group15_KD_tr_onto/270,Leeuwarden,270,53.224,5.752,40,130,14,21,181
105,http://www.group15_KD_tr_onto/AHPR,Arnhem Presikhaaf railway station,AHPR,51.9875,5.94306,0.7714285714285715,http://www.group15_KD_tr_onto/275,Deelen,275,52.056,5.873,30,128,3,29,176
106,http://www.group15_KD_tr_onto/AHZ,Arnhem Zuid railway station,AHZ,51.9542,5.85167,0.5230769230769231,http://www.group15_KD_tr_onto/275,Deelen,275,52.056,5.873,30,128,3,29,176
107,http://www.group15_KD_tr_onto/AML,Almelo railway station,AML,52.3572,6.655,0.6716981132075471,http://www.group15_KD_tr_onto/275,Deelen,275,52.056,5.873,30,128,3,29,176
108,http://www.group15_KD_tr_onto/APD,Apeldoorn railway station,APD,52.2092,5.96944,0.6363636363636364,http://www.group15_KD_tr_onto/275,Deelen,275,52.056,5.873,30,128,3,29,176
109,http://www.group15_KD_tr_onto/ATN,Aalten railway station,ATN,51.9211,6.57806,0.475,http://www.group15_KD_tr_onto/275,Deelen,275,52.056,5.873,30,128,3,29,176
110,http://www.group15_KD_tr_onto/BMN,Brummen railway station,BMN,52.0908,6.14694,0.5571428571428572,http://www.group15_KD_tr_onto/275,Deelen,275,52.056,5.873,30,128,3,29,176
111,http://www.group15_KD_tr_onto/BN,Borne railway station,BN,52.2983,6.74833,0.17894736842105263,http://www.group15_KD_tr_onto/275,Deelen,275,52.056,5.873,30,128,3,29,176
112,http://www.group15_KD_tr_onto/CK,Cuijk railway station,CK,51.7264,5.87417,0.6370967741935484,http://www.group15_KD_tr_onto/275,Deelen,275,52.056,5.873,30,128,3,29,176
113,http://www.group15_KD_tr_onto/DA,Daarlerveen railway station,DA,52.4411,6.57583,0.3148148148148148,http://www.group15_KD_tr_onto/275,Deelen,275,52.056,5.873,30,128,3,29,176
114,http://www.group15_KD_tr_onto/DDN,Delden railway station,DDN,52.26,6.71444,0.9583333333333334,http://www.group15_KD_tr_onto/275,Deelen,275,52.056,5.873,30,128,3,29,176
115,http://www.group15_KD_tr_onto/DID,Didam railway station,DID,51.9333,6.13222,0.34074074074074073,http://www.group15_KD_tr_onto/275,Deelen,275,52.056,5.873,30,128,3,29,176
116,http://www.group15_KD_tr_onto/DR,Dieren railway station,DR,52.045,6.10333,0.6524822695035462,http://www.group15_KD_tr_onto/275,Deelen,275,52.056,5.873,30,128,3,29,176
117,http://www.group15_KD_tr_onto/DTC,Doetinchem railway station,DTC,51.9583,6.29528,0.5660377358490566,http://www.group15_KD_tr_onto/275,Deelen,275,52.056,5.873,30,128,3,29,176
118,http://www.group15_KD_tr_onto/DVN,Duiven railway station,DVN,51.9433,6.01417,0.45185185185185184,http://www.group15_KD_tr_onto/275,Deelen,275,52.056,5.873,30,128,3,29,176
119,http://www.group15_KD_tr_onto/DV,Deventer railway station,DV,52.2572,6.16083,0.865546218487395,http://www.group15_KD_tr_onto/275,Deelen,275,52.056,5.873,30,128,3,29,176
120,http://www.group15_KD_tr_onto/ED,Ede-Wageningen railway station,ED,52.0278,5.67194,0.6682692307692307,http://www.group15_KD_tr_onto/275,Deelen,275,52.056,5.873,30,128,3,29,176
121,http://www.group15_KD_tr_onto/EST,Elst railway station,EST,51.9167,5.855,0.38974358974358975,http://www.group15_KD_tr_onto/275,Deelen,275,52.056,5.873,30,128,3,29,176
122,http://www.group15_KD_tr_onto/ES,Enschede railway station,ES,52.2222,6.89,0.48120300751879697,http://www.group15_KD_tr_onto/275,Deelen,275,52.056,5.873,30,128,3,29,176
123,http://www.group15_KD_tr_onto/GBR,Glanerbrug railway station,GBR,52.2186,6.97389,0.0,http://www.group15_KD_tr_onto/275,Deelen,275,52.056,5.873,30,128,3,29,176
124,http://www.group15_KD_tr_onto/GDR,Gaanderen railway station,GDR,51.9308,6.34778,0.9,http://www.group15_KD_tr_onto/275,Deelen,275,52.056,5.873,30,128,3,29,176
125,http://www.group15_KD_tr_onto/GO,Goor railway station,GO,52.2303,6.58444,0.8169014084507042,http://www.group15_KD_tr_onto/275,Deelen,275,52.056,5.873,30,128,3,29,176
126,http://www.group15_KD_tr_onto/HGL,Hengelo railway station,HGL,52.2619,6.79417,0.7674418604651163,http://www.group15_KD_tr_onto/275,Deelen,275,52.056,5.873,30,128,3,29,176
127,http://www.group15_KD_tr_onto/HMN,Hemmen-Dodewaard railway station,HMN,51.9222,5.67333,0.0,http://www.group15_KD_tr_onto/275,Deelen,275,52.056,5.873,30,128,3,29,176
128,http://www.group15_KD_tr_onto/HNO,Heino railway station,HNO,52.4269,6.22194,0.1282051282051282,http://www.group15_KD_tr_onto/275,Deelen,275,52.056,5.873,30,128,3,29,176
129,http://www.group15_KD_tr_onto/HON,Holten railway station,HON,52.2839,6.42056,0.7671232876712328,http://www.group15_KD_tr_onto/275,Deelen,275,52.056,5.873,30,128,3,29,176
130,http://www.group15_KD_tr_onto/KBK,Klarenbeek railway station,KBK,52.1778,6.08417,0.140625,http://www.group15_KD_tr_onto/275,Deelen,275,52.056,5.873,30,128,3,29,176
131,http://www.group15_KD_tr_onto/KLP,Veenendaal-De Klomp railway station,KLP,52.0458,5.57389,0.717948717948718,http://www.group15_KD_tr_onto/275,Deelen,275,52.056,5.873,30,128,3,29,176
132,http://www.group15_KD_tr_onto/KTR,Kesteren railway station,KTR,51.9314,5.58361,0.0,http://www.group15_KD_tr_onto/275,Deelen,275,52.056,5.873,30,128,3,29,176
133,http://www.group15_KD_tr_onto/LC,Lochem railway station,LC,52.1667,6.42583,0.5571428571428572,http://www.group15_KD_tr_onto/275,Deelen,275,52.056,5.873,30,128,3,29,176
134,http://www.group15_KD_tr_onto/LTV,Lichtenvoorde-Groenlo railway station,LTV,52.0117,6.59639,0.2753623188405797,http://www.group15_KD_tr_onto/275,Deelen,275,52.056,5.873,30,128,3,29,176
135,http://www.group15_KD_tr_onto/MMLH,Mook-Molenhoek railway station,MMLH,51.7647,5.8775,0.8629032258064516,http://www.group15_KD_tr_onto/275,Deelen,275,52.056,5.873,30,128,3,29,176
136,http://www.group15_KD_tr_onto/NM,Nijmegen railway station,NM,51.8433,5.8525,0.7349397590361446,http://www.group15_KD_tr_onto/275,Deelen,275,52.056,5.873,30,128,3,29,176
137,http://www.group15_KD_tr_onto/NVD,Nijverdal railway station,NVD,52.3656,6.47028,0.5288461538461539,http://www.group15_KD_tr_onto/275,Deelen,275,52.056,5.873,30,128,3,29,176
138,http://www.group15_KD_tr_onto/ODZ,Oldenzaal railway station,ODZ,52.3061,6.93361,0.6103896103896104,http://www.group15_KD_tr_onto/275,Deelen,275,52.056,5.873,30,128,3,29,176
139,http://www.group15_KD_tr_onto/OP,Opheusden railway station,OP,51.9261,5.63694,0.0,http://www.group15_KD_tr_onto/275,Deelen,275,52.056,5.873,30,128,3,29,176
140,http://www.group15_KD_tr_onto/OST,Olst railway station,OST,52.335,6.11306,0.6986301369863014,http://www.group15_KD_tr_onto/275,Deelen,275,52.056,5.873,30,128,3,29,176
141,http://www.group15_KD_tr_onto/OTB,Oosterbeek railway station,OTB,51.9947,5.84,0.21212121212121213,http://www.group15_KD_tr_onto/275,Deelen,275,52.056,5.873,30,128,3,29,176
142,http://www.group15_KD_tr_onto/RAT,Raalte railway station,RAT,52.3908,6.27861,0.21153846153846154,http://www.group15_KD_tr_onto/275,Deelen,275,52.056,5.873,30,128,3,29,176
143,http://www.group15_KD_tr_onto/RHN,Rhenen railway station,RHN,51.9578,5.57833,1.6486486486486487,http://www.group15_KD_tr_onto/275,Deelen,275,52.056,5.873,30,128,3,29,176
144,http://www.group15_KD_tr_onto/RH,Rheden railway station,RH,52.0097,6.02972,0.6285714285714286,http://www.group15_KD_tr_onto/275,Deelen,275,52.056,5.873,30,128,3,29,176
145,http://www.group15_KD_tr_onto/RL,Ruurlo railway station,RL,52.0806,6.45,0.2463768115942029,http://www.group15_KD_tr_onto/275,Deelen,275,52.056,5.873,30,128,3,29,176
146,http://www.group15_KD_tr_onto/RSN,Rijssen railway station,RSN,52.3117,6.51917,0.5342465753424658,http://www.group15_KD_tr_onto/275,Deelen,275,52.056,5.873,30,128,3,29,176
147,http://www.group15_KD_tr_onto/RVS,Ravenstein railway station,RVS,51.7947,5.63722,0.8082191780821918,http://www.group15_KD_tr_onto/275,Deelen,275,52.056,5.873,30,128,3,29,176
148,http://www.group15_KD_tr_onto/TWL,Twello railway station,TWL,52.2381,6.1,0.5,http://www.group15_KD_tr_onto/275,Deelen,275,52.056,5.873,30,128,3,29,176
149,http://www.group15_KD_tr_onto/VEM,Voorst-Empe railway station,VEM,52.1578,6.14278,0.359375,http://www.group15_KD_tr_onto/275,Deelen,275,52.056,5.873,30,128,3,29,176
150,http://www.group15_KD_tr_onto/VHP,Vroomshoop railway station,VHP,52.4411,6.57583,0.2962962962962963,http://www.group15_KD_tr_onto/275,Deelen,275,52.056,5.873,30,128,3,29,176
151,http://www.group15_KD_tr_onto/VP,Arnhem Velperpoort railway station,VP,51.985,5.92,0.6285714285714286,http://www.group15_KD_tr_onto/275,Deelen,275,52.056,5.873,30,128,3,29,176
152,http://www.group15_KD_tr_onto/VSV,Varsseveld railway station,VSV,51.9369,6.45806,0.7625,http://www.group15_KD_tr_onto/275,Deelen,275,52.056,5.873,30,128,3,29,176
153,http://www.group15_KD_tr_onto/VZ,Vriezenveen railway station,VZ,52.4019,6.60028,0.3333333333333333,http://www.group15_KD_tr_onto/275,Deelen,275,52.056,5.873,30,128,3,29,176
154,http://www.group15_KD_tr_onto/WC,Wijchen railway station,WC,51.8111,5.72944,0.5490196078431373,http://www.group15_KD_tr_onto/275,Deelen,275,52.056,5.873,30,128,3,29,176
155,http://www.group15_KD_tr_onto/WDN,Wierden railway station,WDN,52.3614,6.59111,0.33774834437086093,http://www.group15_KD_tr_onto/275,Deelen,275,52.056,5.873,30,128,3,29,176
156,http://www.group15_KD_tr_onto/WF,Wolfheze railway station,WF,52.0053,5.79361,0.21212121212121213,http://www.group15_KD_tr_onto/275,Deelen,275,52.056,5.873,30,128,3,29,176
157,http://www.group15_KD_tr_onto/WH,Wijhe railway station,WH,52.3936,6.14083,0.9726027397260274,http://www.group15_KD_tr_onto/275,Deelen,275,52.056,5.873,30,128,3,29,176
158,http://www.group15_KD_tr_onto/WL,Wehl railway station,WL,51.9567,6.2125,0.562962962962963,http://www.group15_KD_tr_onto/275,Deelen,275,52.056,5.873,30,128,3,29,176
159,http://www.group15_KD_tr_onto/WWW,Winterswijk West railway station,WWW,51.9744,6.70361,0.17391304347826086,http://www.group15_KD_tr_onto/275,Deelen,275,52.056,5.873,30,128,3,29,176
160,http://www.group15_KD_tr_onto/WW,Winterswijk railway station,WW,51.9675,6.71556,0.7066666666666667,http://www.group15_KD_tr_onto/275,Deelen,275,52.056,5.873,30,128,3,29,176
161,http://www.group15_KD_tr_onto/ZA,Zetten-Andelst railway station,ZA,51.9194,5.72306,0.0,http://www.group15_KD_tr_onto/275,Deelen,275,52.056,5.873,30,128,3,29,176
162,http://www.group15_KD_tr_onto/ZP,Zutphen railway station,ZP,52.1444,6.19389,0.7203791469194313,http://www.group15_KD_tr_onto/275,Deelen,275,52.056,5.873,30,128,3,29,176
163,http://www.group15_KD_tr_onto/ZV,Zevenaar railway station,ZV,51.9231,6.07278,0.9005847953216374,http://www.group15_KD_tr_onto/275,Deelen,275,52.056,5.873,30,128,3,29,176
164,http://www.group15_KD_tr_onto/ASN,Assen railway station,ASN,52.9917,6.57056,0.33505154639175255,http://www.group15_KD_tr_onto/280,Eelde,280,53.125,6.585,30,120,1,50,180
165,http://www.group15_KD_tr_onto/BF,Baflo railway station,BF,53.3608,6.51833,0.855072463768116,http://www.group15_KD_tr_onto/280,Eelde,280,53.125,6.585,30,120,1,50,180
166,http://www.group15_KD_tr_onto/BL,Beilen railway station,BL,52.8547,6.52083,0.6282051282051282,http://www.group15_KD_tr_onto/280,Eelde,280,53.125,6.585,30,120,1,50,180
167,http://www.group15_KD_tr_onto/DLN,Dalen railway station,DLN,52.6944,6.75806,0.19148936170212766,http://www.group15_KD_tr_onto/280,Eelde,280,53.125,6.585,30,120,1,50,180
168,http://www.group15_KD_tr_onto/EMNZ,Emmen Zuid railway station,EMNZ,52.7489,6.87472,0.3902439024390244,http://www.group15_KD_tr_onto/280,Eelde,280,53.125,6.585,30,120,1,50,180
169,http://www.group15_KD_tr_onto/EMN,Emmen railway station,EMN,52.7903,6.89917,0.6341463414634146,http://www.group15_KD_tr_onto/280,Eelde,280,53.125,6.585,30,120,1,50,180
170,http://www.group15_KD_tr_onto/GBG,Gramsbergen railway station,GBG,52.6094,6.67583,0.9787234042553191,http://www.group15_KD_tr_onto/280,Eelde,280,53.125,6.585,30,120,1,50,180
171,http://www.group15_KD_tr_onto/GK,Grijpskerk railway station,GK,53.2556,6.31056,0.6818181818181818,http://www.group15_KD_tr_onto/280,Eelde,280,53.125,6.585,30,120,1,50,180
172,http://www.group15_KD_tr_onto/GN,Groningen railway station,GN,53.2106,6.56472,0.7993920972644377,http://www.group15_KD_tr_onto/280,Eelde,280,53.125,6.585,30,120,1,50,180
173,http://www.group15_KD_tr_onto/HDB,Hardenberg railway station,HDB,52.5722,6.62778,0.6016949152542372,http://www.group15_KD_tr_onto/280,Eelde,280,53.125,6.585,30,120,1,50,180
174,http://www.group15_KD_tr_onto/HGV,Hoogeveen railway station,HGV,52.7333,6.4725,0.1794871794871795,http://www.group15_KD_tr_onto/280,Eelde,280,53.125,6.585,30,120,1,50,180
175,http://www.group15_KD_tr_onto/HRN,Haren (NL) railway station,HRN,53.175,6.61778,0.2912621359223301,http://www.group15_KD_tr_onto/280,Eelde,280,53.125,6.585,30,120,1,50,180
176,http://www.group15_KD_tr_onto/KW,Kropswolde railway station,KW,53.1617,6.72139,1.2406015037593985,http://www.group15_KD_tr_onto/280,Eelde,280,53.125,6.585,30,120,1,50,180
177,http://www.group15_KD_tr_onto/NA,Nieuw Amsterdam railway station,NA,52.7186,6.84861,0.5526315789473685,http://www.group15_KD_tr_onto/280,Eelde,280,53.125,6.585,30,120,1,50,180
178,http://www.group15_KD_tr_onto/NSCH,Bad Nieuweschans railway station,NSCH,53.1842,7.19944,1.2564102564102564,http://www.group15_KD_tr_onto/280,Eelde,280,53.125,6.585,30,120,1,50,180
179,http://www.group15_KD_tr_onto/SWK,Steenwijk railway station,SWK,52.7908,6.11611,0.23563218390804597,http://www.group15_KD_tr_onto/280,Eelde,280,53.125,6.585,30,120,1,50,180
180,http://www.group15_KD_tr_onto/VDM,Veendam railway station,VDM,53.1036,6.88472,0.7575757575757576,http://www.group15_KD_tr_onto/280,Eelde,280,53.125,6.585,30,120,1,50,180
181,http://www.group15_KD_tr_onto/VD,Coevorden railway station,VD,52.6631,6.73556,0.5072463768115942,http://www.group15_KD_tr_onto/280,Eelde,280,53.125,6.585,30,120,1,50,180
182,http://www.group15_KD_tr_onto/BGN,Bergen op Zoom railway station,BGN,51.4947,4.29611,1.0,http://www.group15_KD_tr_onto/340,Woensdrecht,340,51.449,4.342,40,131,15,50,213
183,http://www.group15_KD_tr_onto/KBD,Krabbendijke railway station,KBD,51.4333,4.11694,1.2133333333333334,http://www.group15_KD_tr_onto/340,Woensdrecht,340,51.449,4.342,40,131,15,50,213
184,http://www.group15_KD_tr_onto/KRG,Kruiningen-Yerseke railway station,KRG,51.4653,4.03694,0.8933333333333333,http://www.group15_KD_tr_onto/340,Woensdrecht,340,51.449,4.342,40,131,15,50,213
185,http://www.group15_KD_tr_onto/ODB,Oudenbosch railway station,ODB,51.5881,4.53361,0.463768115942029,http://www.group15_KD_tr_onto/340,Woensdrecht,340,51.449,4.342,40,131,15,50,213
186,http://www.group15_KD_tr_onto/RB,Rilland-Bath railway station,RB,51.4222,4.16111,1.2133333333333334,http://www.group15_KD_tr_onto/340,Woensdrecht,340,51.449,4.342,40,131,15,50,213
187,http://www.group15_KD_tr_onto/RSD,Roosendaal railway station,RSD,51.5403,4.45889,1.1555555555555554,http://www.group15_KD_tr_onto/340,Woensdrecht,340,51.449,4.342,40,131,15,50,213
188,http://www.group15_KD_tr_onto/BSKS,Boskoop Snijdelwijk railway station,BSKS,52.0676,4.6462,0.07692307692307693,http://www.group15_KD_tr_onto/344,Rotterdam,344,51.962,4.447,50,146,108,50,201
189,http://www.group15_KD_tr_onto/CPS,Capelle Schollevaar railway station,CPS,51.9533,4.58417,0.37037037037037035,http://www.group15_KD_tr_onto/344,Rotterdam,344,51.962,4.447,50,146,108,50,201
190,http://www.group15_KD_tr_onto/DT,Rotterdam Delftsche Poort railway station,DT,51.9253,4.47361,0.632768361581921,http://www.group15_KD_tr_onto/344,Rotterdam,344,51.962,4.447,50,146,108,50,201
191,http://www.group15_KD_tr_onto/EC,Dordrecht railway station,EC,51.8075,4.66778,0.7748344370860927,http://www.group15_KD_tr_onto/344,Rotterdam,344,51.962,4.447,50,146,108,50,201
192,http://www.group15_KD_tr_onto/GD,Gouda railway station,GD,52.0175,4.70556,0.2975206611570248,http://www.group15_KD_tr_onto/344,Rotterdam,344,51.962,4.447,50,146,108,50,201
193,http://www.group15_KD_tr_onto/GVMW,Den Haag Moerwijk railway station,GVMW,52.0533,4.30861,0.460431654676259,http://www.group15_KD_tr_onto/344,Rotterdam,344,51.962,4.447,50,146,108,50,201
194,http://www.group15_KD_tr_onto/NWK,Nieuwerkerk aan den IJssel railway station,NWK,51.9653,4.61694,0.37037037037037035,http://www.group15_KD_tr_onto/344,Rotterdam,344,51.962,4.447,50,146,108,50,201
195,http://www.group15_KD_tr_onto/RLB,Rotterdam Lombardijen railway station,RLB,51.8797,4.53111,0.3621621621621622,http://www.group15_KD_tr_onto/344,Rotterdam,344,51.962,4.447,50,146,108,50,201
196,http://www.group15_KD_tr_onto/RSW,Rijswijk railway station,RSW,52.0394,4.31972,0.41007194244604317,http://www.group15_KD_tr_onto/344,Rotterdam,344,51.962,4.447,50,146,108,50,201
197,http://www.group15_KD_tr_onto/RTA,Rotterdam Alexander station,RTA,51.9519,4.55278,0.45794392523364486,http://www.group15_KD_tr_onto/344,Rotterdam,344,51.962,4.447,50,146,108,50,201
198,http://www.group15_KD_tr_onto/RTB,Rotterdam Blaak station,RTB,51.92,4.48917,0.4921135646687697,http://www.group15_KD_tr_onto/344,Rotterdam,344,51.962,4.447,50,146,108,50,201
199,http://www.group15_KD_tr_onto/RTD,Rotterdam Centraal station,RTD,51.9244,4.46944,1.0756172839506173,http://www.group15_KD_tr_onto/344,Rotterdam,344,51.962,4.447,50,146,108,50,201
200,http://www.group15_KD_tr_onto/RTN,Rotterdam Noord railway station,RTN,51.9422,4.48139,0.6049382716049383,http://www.group15_KD_tr_onto/344,Rotterdam,344,51.962,4.447,50,146,108,50,201
201,http://www.group15_KD_tr_onto/RTZ,Rotterdam Zuid railway station,RTZ,51.9094,4.50944,0.3675675675675676,http://www.group15_KD_tr_onto/344,Rotterdam,344,51.962,4.447,50,146,108,50,201
202,http://www.group15_KD_tr_onto/SDM,Schiedam Centrum station,SDM,51.9219,4.41,0.46715328467153283,http://www.group15_KD_tr_onto/344,Rotterdam,344,51.962,4.447,50,146,108,50,201
203,http://www.group15_KD_tr_onto/SDT,Sliedrecht Baanhoek railway station,SDT,51.8297,4.74333,0.9481481481481482,http://www.group15_KD_tr_onto/344,Rotterdam,344,51.962,4.447,50,146,108,50,201
204,http://www.group15_KD_tr_onto/YPB,Den Haag Ypenburg railway station,YPB,52.0592,4.38972,0.27906976744186046,http://www.group15_KD_tr_onto/344,Rotterdam,344,51.962,4.447,50,146,108,50,201
205,http://www.group15_KD_tr_onto/ZTM,Lansingerland-Zoetermeer railway station,ZTM,52.0394,4.52556,0.27906976744186046,http://www.group15_KD_tr_onto/344,Rotterdam,344,51.962,4.447,50,146,108,50,201
206,http://www.group15_KD_tr_onto/ZWD,Zwijndrecht railway station,ZWD,51.8147,4.64222,0.4594594594594595,http://www.group15_KD_tr_onto/344,Rotterdam,344,51.962,4.447,50,146,108,50,201
207,http://www.group15_KD_tr_onto/BD,Breda railway station,BD,51.595,4.78,1.4,http://www.group15_KD_tr_onto/350,Gilze-Rijen,350,51.566,4.936,30,131,8,56,201
208,http://www.group15_KD_tr_onto/BHDV,Boven Hardinxveld railway station,BHDV,51.8319,4.87472,0.4444444444444444,http://www.group15_KD_tr_onto/350,Gilze-Rijen,350,51.566,4.936,30,131,8,56,201
209,http://www.group15_KD_tr_onto/ETN,Etten-Leur railway station,ETN,51.5753,4.63694,0.68,http://www.group15_KD_tr_onto/350,Gilze-Rijen,350,51.566,4.936,30,131,8,56,201
210,http://www.group15_KD_tr_onto/GND,Hardinxveld-Giessendam railway station,GND,51.8303,4.83528,0.8074074074074075,http://www.group15_KD_tr_onto/350,Gilze-Rijen,350,51.566,4.936,30,131,8,56,201
211,http://www.group15_KD_tr_onto/GR,Gorinchem railway station,GR,51.8336,4.9675,0.660377358490566,http://www.group15_KD_tr_onto/350,Gilze-Rijen,350,51.566,4.936,30,131,8,56,201
212,http://www.group15_KD_tr_onto/GZ,Gilze-Rijen railway station,GZ,51.5839,4.925,1.0512820512820513,http://www.group15_KD_tr_onto/350,Gilze-Rijen,350,51.566,4.936,30,131,8,56,201
213,http://www.group15_KD_tr_onto/OT,Oisterwijk railway station,OT,51.5822,5.19444,0.11594202898550725,http://www.group15_KD_tr_onto/350,Gilze-Rijen,350,51.566,4.936,30,131,8,56,201
214,http://www.group15_KD_tr_onto/TBR,Tilburg Reeshof railway station,TBR,51.5739,4.99278,1.1538461538461537,http://www.group15_KD_tr_onto/350,Gilze-Rijen,350,51.566,4.936,30,131,8,56,201
215,http://www.group15_KD_tr_onto/TBU,Tilburg Universiteit railway station,TBU,51.5653,5.05139,0.9196428571428571,http://www.group15_KD_tr_onto/350,Gilze-Rijen,350,51.566,4.936,30,131,8,56,201
216,http://www.group15_KD_tr_onto/TB,Tilburg railway station,TB,51.5606,5.08278,0.9865319865319865,http://www.group15_KD_tr_onto/350,Gilze-Rijen,350,51.566,4.936,30,131,8,56,201
217,http://www.group15_KD_tr_onto/ZLW,Lage Zwaluwe railway station,ZLW,51.6906,4.66333,0.5918367346938775,http://www.group15_KD_tr_onto/350,Gilze-Rijen,350,51.566,4.936,30,131,8,56,201
218,http://www.group15_KD_tr_onto/ZVB,Zevenbergen railway station,ZVB,51.6414,4.60972,1.0289855072463767,http://www.group15_KD_tr_onto/350,Gilze-Rijen,350,51.566,4.936,30,131,8,56,201
219,http://www.group15_KD_tr_onto/BET,Best railway station,BET,51.5097,5.38889,0.30405405405405406,http://www.group15_KD_tr_onto/370,Eindhoven,370,51.451,5.377,40,132,12,57,204
220,http://www.group15_KD_tr_onto/BMR,Boxmeer railway station,BMR,51.6444,5.93944,0.4596774193548387,http://www.group15_KD_tr_onto/370,Eindhoven,370,51.451,5.377,40,132,12,57,204
221,http://www.group15_KD_tr_onto/BR,Blerick railway station,BR,51.3725,6.155,0.7697368421052632,http://www.group15_KD_tr_onto/370,Eindhoven,370,51.451,5.377,40,132,12,57,204
222,http://www.group15_KD_tr_onto/BTL,Boxtel railway station,BTL,51.5844,5.31889,0.2905405405405405,http://www.group15_KD_tr_onto/370,Eindhoven,370,51.451,5.377,40,132,12,57,204
223,http://www.group15_KD_tr_onto/DN,Deurne railway station,DN,51.4558,5.78833,1.0666666666666667,http://www.group15_KD_tr_onto/370,Eindhoven,370,51.451,5.377,40,132,12,57,204
224,http://www.group15_KD_tr_onto/EHS,Eindhoven Stadion railway station,EHS,51.443,5.46731,0.22297297297297297,http://www.group15_KD_tr_onto/370,Eindhoven,370,51.451,5.377,40,132,12,57,204
225,http://www.group15_KD_tr_onto/EHV,Eindhoven Centraal railway station,EHV,51.4428,5.48028,1.0089820359281436,http://www.group15_KD_tr_onto/370,Eindhoven,370,51.451,5.377,40,132,12,57,204
226,http://www.group15_KD_tr_onto/GP,Geldrop railway station,GP,51.42,5.55111,0.7941176470588235,http://www.group15_KD_tr_onto/370,Eindhoven,370,51.451,5.377,40,132,12,57,204
227,http://www.group15_KD_tr_onto/HMH,Helmond 't Hout railway station,HMH,51.4678,5.63083,0.26865671641791045,http://www.group15_KD_tr_onto/370,Eindhoven,370,51.451,5.377,40,132,12,57,204
228,http://www.group15_KD_tr_onto/HM,Helmond railway station,HM,51.4756,5.66167,0.6474820143884892,http://www.group15_KD_tr_onto/370,Eindhoven,370,51.451,5.377,40,132,12,57,204
229,http://www.group15_KD_tr_onto/HRT,Horst-Sevenum railway station,HRT,51.4267,6.04194,0.7222222222222222,http://www.group15_KD_tr_onto/370,Eindhoven,370,51.451,5.377,40,132,12,57,204
230,http://www.group15_KD_tr_onto/HT,'s-Hertogenbosch railway station,HT,51.69,5.29333,1.3228346456692914,http://www.group15_KD_tr_onto/370,Eindhoven,370,51.451,5.377,40,132,12,57,204
231,http://www.group15_KD_tr_onto/HZ,Heeze railway station,HZ,51.385,5.56944,1.8421052631578947,http://www.group15_KD_tr_onto/370,Eindhoven,370,51.451,5.377,40,132,12,57,204
232,http://www.group15_KD_tr_onto/MZ,Maarheeze railway station,MZ,51.3039,5.63028,0.6911764705882353,http://www.group15_KD_tr_onto/370,Eindhoven,370,51.451,5.377,40,132,12,57,204
233,http://www.group15_KD_tr_onto/OW,Oss West railway station,OW,51.7581,5.50611,0.5555555555555556,http://www.group15_KD_tr_onto/370,Eindhoven,370,51.451,5.377,40,132,12,57,204
234,http://www.group15_KD_tr_onto/O,Oss railway station,O,51.7653,5.53167,0.8431372549019608,http://www.group15_KD_tr_onto/370,Eindhoven,370,51.451,5.377,40,132,12,57,204
235,http://www.group15_KD_tr_onto/RS,Rosmalen railway station,RS,51.715,5.36889,0.5185185185185185,http://www.group15_KD_tr_onto/370,Eindhoven,370,51.451,5.377,40,132,12,57,204
236,http://www.group15_KD_tr_onto/TG,Tegelen railway station,TG,51.3411,6.14333,1.3289473684210527,http://www.group15_KD_tr_onto/370,Eindhoven,370,51.451,5.377,40,132,12,57,204
237,http://www.group15_KD_tr_onto/VG,Vught railway station,VG,51.6547,5.29194,0.6075949367088608,http://www.group15_KD_tr_onto/370,Eindhoven,370,51.451,5.377,40,132,12,57,204
238,http://www.group15_KD_tr_onto/VLB,Vierlingsbeek railway station,VLB,51.5922,5.99667,0.7419354838709677,http://www.group15_KD_tr_onto/370,Eindhoven,370,51.451,5.377,40,132,12,57,204
239,http://www.group15_KD_tr_onto/VL,Venlo railway station,VL,51.3647,6.17139,0.6524822695035462,http://www.group15_KD_tr_onto/370,Eindhoven,370,51.451,5.377,40,132,12,57,204
240,http://www.group15_KD_tr_onto/VRY,Venray railway station,VRY,51.5264,6.01417,0.8349514563106796,http://www.group15_KD_tr_onto/370,Eindhoven,370,51.451,5.377,40,132,12,57,204
241,http://www.group15_KD_tr_onto/WT,Weert railway station,WT,51.2486,5.7025,1.1842105263157894,http://www.group15_KD_tr_onto/370,Eindhoven,370,51.451,5.377,40,132,12,57,204
242,http://www.group15_KD_tr_onto/CVM,Chevremont railway station,CVM,50.8758,6.05944,0.18,http://www.group15_KD_tr_onto/380,Maastricht,380,50.906,5.762,40,132,-1,69,202
243,http://www.group15_KD_tr_onto/EDN,Eijsden railway station,EDN,50.772,5.71004,5.166666666666667,http://www.group15_KD_tr_onto/380,Maastricht,380,50.906,5.762,40,132,-1,69,202
244,http://www.group15_KD_tr_onto/EGH,Eygelshoven railway station,EGH,50.8903,6.04556,0.07,http://www.group15_KD_tr_onto/380,Maastricht,380,50.906,5.762,40,132,-1,69,202
245,http://www.group15_KD_tr_onto/GLN,Geleen Oost railway station,GLN,50.9672,5.84306,0.20192307692307693,http://www.group15_KD_tr_onto/380,Maastricht,380,50.906,5.762,40,132,-1,69,202
246,http://www.group15_KD_tr_onto/HB,Hoensbroek railway station,HB,50.9053,5.93111,0.38461538461538464,http://www.group15_KD_tr_onto/380,Maastricht,380,50.906,5.762,40,132,-1,69,202
247,http://www.group15_KD_tr_onto/HRLW,Heerlen Woonboulevard railway station,HRLW,50.8961,5.95278,0.24444444444444444,http://www.group15_KD_tr_onto/380,Maastricht,380,50.906,5.762,40,132,-1,69,202
248,http://www.group15_KD_tr_onto/HRL,Heerlen railway station,HRL,50.8908,5.97472,0.3562231759656652,http://www.group15_KD_tr_onto/380,Maastricht,380,50.906,5.762,40,132,-1,69,202
249,http://www.group15_KD_tr_onto/KMR,Klimmen-Ransdaal railway station,KMR,50.8667,5.89056,0.22826086956521738,http://www.group15_KD_tr_onto/380,Maastricht,380,50.906,5.762,40,132,-1,69,202
250,http://www.group15_KD_tr_onto/KRD,Kerkrade Centrum railway station,KRD,50.8614,6.0575,0.2,http://www.group15_KD_tr_onto/380,Maastricht,380,50.906,5.762,40,132,-1,69,202
251,http://www.group15_KD_tr_onto/LG,Landgraaf railway station,LG,50.8964,6.02,0.47101449275362317,http://www.group15_KD_tr_onto/380,Maastricht,380,50.906,5.762,40,132,-1,69,202
252,http://www.group15_KD_tr_onto/MT,Maastricht railway station,MT,50.85,5.70528,0.9450980392156862,http://www.group15_KD_tr_onto/380,Maastricht,380,50.906,5.762,40,132,-1,69,202
253,http://www.group15_KD_tr_onto/NH,Nuth railway station,NH,50.9197,5.8925,0.27884615384615385,http://www.group15_KD_tr_onto/380,Maastricht,380,50.906,5.762,40,132,-1,69,202
254,http://www.group15_KD_tr_onto/RM,Roermond railway station,RM,51.1933,5.99472,1.1103896103896105,http://www.group15_KD_tr_onto/380,Maastricht,380,50.906,5.762,40,132,-1,69,202
255,http://www.group15_KD_tr_onto/RV,Reuver railway station,RV,51.2831,6.07944,1.1710526315789473,http://www.group15_KD_tr_onto/380,Maastricht,380,50.906,5.762,40,132,-1,69,202
256,http://www.group15_KD_tr_onto/SBK,Spaubeek railway station,SBK,50.9431,5.84972,0.4423076923076923,http://www.group15_KD_tr_onto/380,Maastricht,380,50.906,5.762,40,132,-1,69,202
257,http://www.group15_KD_tr_onto/SM,Swalmen railway station,SM,51.2358,6.0325,0.6578947368421053,http://www.group15_KD_tr_onto/380,Maastricht,380,50.906,5.762,40,132,-1,69,202
258,http://www.group15_KD_tr_onto/SN,Schinnen railway station,SN,50.9386,5.87611,0.4519230769230769,http://www.group15_KD_tr_onto/380,Maastricht,380,50.906,5.762,40,132,-1,69,202
259,http://www.group15_KD_tr_onto/SRN,Susteren railway station,SRN,51.0608,5.86278,0.3697916666666667,http://www.group15_KD_tr_onto/380,Maastricht,380,50.906,5.762,40,132,-1,69,202
260,http://www.group15_KD_tr_onto/STD,Sittard railway station,STD,51.0011,5.85833,0.29411764705882354,http://www.group15_KD_tr_onto/380,Maastricht,380,50.906,5.762,40,132,-1,69,202
261,http://www.group15_KD_tr_onto/VDL,Voerendaal railway station,VDL,50.8867,5.92944,0.2,http://www.group15_KD_tr_onto/380,Maastricht,380,50.906,5.762,40,132,-1,69,202
