,station,station_name,station_code,ts_lat,ts_long,delay,ws,ws_name,ws_code,ws_lat,ws_long,windspeed,mean_temp,percipitation,visibility,wind_direction
0,http://www.group15_KD_tr_onto/AMR,Alkmaar railway station,AMR,52.6378,4.74056,1.0677966101694916,http://www.group15_KD_tr_onto/235,De Kooy,235,52.928,4.781,80,100,24,8,155
1,http://www.group15_KD_tr_onto/ANA,Anna Paulowna railway station,ANA,52.8669,4.81111,1.3703703703703705,http://www.group15_KD_tr_onto/235,De Kooy,235,52.928,4.781,80,100,24,8,155
2,http://www.group15_KD_tr_onto/HDRZ,Den Helder Zuid railway station,HDRZ,52.9331,4.76389,1.271604938271605,http://www.group15_KD_tr_onto/235,De Kooy,235,52.928,4.781,80,100,24,8,155
3,http://www.group15_KD_tr_onto/HDR,Den Helder railway station,HDR,52.9564,4.76083,2.1,http://www.group15_KD_tr_onto/235,De Kooy,235,52.928,4.781,80,100,24,8,155
4,http://www.group15_KD_tr_onto/HWD,Heerhugowaard railway station,HWD,52.67,4.82361,0.831081081081081,http://www.group15_KD_tr_onto/235,De Kooy,235,52.928,4.781,80,100,24,8,155
5,http://www.group15_KD_tr_onto/OBD,Obdam railway station,OBD,52.6781,4.90833,0.7014925373134329,http://www.group15_KD_tr_onto/235,De Kooy,235,52.928,4.781,80,100,24,8,155
6,http://www.group15_KD_tr_onto/SGN,Schagen railway station,SGN,52.7861,4.80528,1.1851851851851851,http://www.group15_KD_tr_onto/235,De Kooy,235,52.928,4.781,80,100,24,8,155
7,http://www.group15_KD_tr_onto/AC,Abcoude railway station,AC,52.2744,4.98222,1.1,http://www.group15_KD_tr_onto/240,Schiphol,240,52.318,4.79,80,105,56,5,151
8,http://www.group15_KD_tr_onto/AMPO,Almere Poort railway station,AMPO,52.3428,5.15194,1.036697247706422,http://www.group15_KD_tr_onto/240,Schiphol,240,52.318,4.79,80,105,56,5,151
9,http://www.group15_KD_tr_onto/ASA,Amsterdam Amstel station,ASA,52.3464,4.91778,1.070967741935484,http://www.group15_KD_tr_onto/240,Schiphol,240,52.318,4.79,80,105,56,5,151
10,http://www.group15_KD_tr_onto/ASB,Amsterdam Bijlmer ArenA station,ASB,52.3131,4.94611,0.9272151898734177,http://www.group15_KD_tr_onto/240,Schiphol,240,52.318,4.79,80,105,56,5,151
11,http://www.group15_KD_tr_onto/ASDL,Amsterdam Lelylaan station,ASDL,52.3572,4.83389,1.040983606557377,http://www.group15_KD_tr_onto/240,Schiphol,240,52.318,4.79,80,105,56,5,151
12,http://www.group15_KD_tr_onto/ASDM,Amsterdam Muiderpoort railway station,ASDM,52.3608,4.93111,1.5795454545454546,http://www.group15_KD_tr_onto/240,Schiphol,240,52.318,4.79,80,105,56,5,151
13,http://www.group15_KD_tr_onto/ASDZ,Amsterdam Zuid station,ASDZ,52.3389,4.87306,0.0,http://www.group15_KD_tr_onto/240,Schiphol,240,52.318,4.79,80,105,56,5,151
14,http://www.group15_KD_tr_onto/ASD,Amsterdam Centraal station,ASD,52.3783,4.9,1.713026444662096,http://www.group15_KD_tr_onto/240,Schiphol,240,52.318,4.79,80,105,56,5,151
15,http://www.group15_KD_tr_onto/ASSP,Amsterdam Science Park railway station,ASSP,52.3525,4.94861,1.8766233766233766,http://www.group15_KD_tr_onto/240,Schiphol,240,52.318,4.79,80,105,56,5,151
16,http://www.group15_KD_tr_onto/ASS,Amsterdam Sloterdijk station,ASS,52.3892,4.83806,1.4413965087281795,http://www.group15_KD_tr_onto/240,Schiphol,240,52.318,4.79,80,105,56,5,151
17,http://www.group15_KD_tr_onto/BLL,Bloemendaal railway station,BLL,52.4042,4.6275,1.2435897435897436,http://www.group15_KD_tr_onto/240,Schiphol,240,52.318,4.79,80,105,56,5,151
18,http://www.group15_KD_tr_onto/BV,Beverwijk railway station,BV,52.4783,4.65611,0.6538461538461539,http://www.group15_KD_tr_onto/240,Schiphol,240,52.318,4.79,80,105,56,5,151
19,http://www.group15_KD_tr_onto/CAS,Castricum railway station,CAS,52.5456,4.65889,0.8203883495145631,http://www.group15_KD_tr_onto/240,Schiphol,240,52.318,4.79,80,105,56,5,151
20,http://www.group15_KD_tr_onto/DMNZ,Diemen Zuid station,DMNZ,52.3303,4.95639,0.4161073825503356,http://www.group15_KD_tr_onto/240,Schiphol,240,52.318,4.79,80,105,56,5,151
21,http://www.group15_KD_tr_onto/DMN,Diemen railway station,DMN,52.3453,4.96694,1.8181818181818181,http://www.group15_KD_tr_onto/240,Schiphol,240,52.318,4.79,80,105,56,5,151
22,http://www.group15_KD_tr_onto/HAD,Heemstede-Aerdenhout railway station,HAD,52.3597,4.60694,1.0046511627906978,http://www.group15_KD_tr_onto/240,Schiphol,240,52.318,4.79,80,105,56,5,151
23,http://www.group15_KD_tr_onto/HFD,Hoofddorp railway station,HFD,52.2933,4.7,1.6902654867256637,http://www.group15_KD_tr_onto/240,Schiphol,240,52.318,4.79,80,105,56,5,151
24,http://www.group15_KD_tr_onto/HIL,Hillegom railway station,HIL,52.3028,4.56583,0.7215189873417721,http://www.group15_KD_tr_onto/240,Schiphol,240,52.318,4.79,80,105,56,5,151
25,http://www.group15_KD_tr_onto/HK,Heemskerk railway station,HK,52.4947,4.68611,0.7051282051282052,http://www.group15_KD_tr_onto/240,Schiphol,240,52.318,4.79,80,105,56,5,151
26,http://www.group15_KD_tr_onto/HLMS,Haarlem Spaarnwoude railway station,HLMS,52.3828,4.67111,1.0,http://www.group15_KD_tr_onto/240,Schiphol,240,52.318,4.79,80,105,56,5,151
27,http://www.group15_KD_tr_onto/HLM,Haarlem railway station,HLM,52.3878,4.63889,0.8535825545171339,http://www.group15_KD_tr_onto/240,Schiphol,240,52.318,4.79,80,105,56,5,151
28,http://www.group15_KD_tr_onto/HLO,Heiloo railway station,HLO,52.6,4.70083,0.8471337579617835,http://www.group15_KD_tr_onto/240,Schiphol,240,52.318,4.79,80,105,56,5,151
29,http://www.group15_KD_tr_onto/HWZB,Halfweg-Zwanenburg railway station,HWZB,52.3847,4.75167,0.8888888888888888,http://www.group15_KD_tr_onto/240,Schiphol,240,52.318,4.79,80,105,56,5,151
30,http://www.group15_KD_tr_onto/NVP,Nieuw-Vennep railway station,NVP,52.2597,4.64556,1.5454545454545454,http://www.group15_KD_tr_onto/240,Schiphol,240,52.318,4.79,80,105,56,5,151
31,http://www.group15_KD_tr_onto/OVN,Overveen railway station,OVN,52.3908,4.60778,0.40789473684210525,http://www.group15_KD_tr_onto/240,Schiphol,240,52.318,4.79,80,105,56,5,151
32,http://www.group15_KD_tr_onto/PMR,Purmerend railway station,PMR,52.5033,4.95417,1.0294117647058822,http://www.group15_KD_tr_onto/240,Schiphol,240,52.318,4.79,80,105,56,5,151
33,http://www.group15_KD_tr_onto/PMW,Purmerend Weidevenne railway station,PMW,52.4967,4.93667,1.0588235294117647,http://www.group15_KD_tr_onto/240,Schiphol,240,52.318,4.79,80,105,56,5,151
34,http://www.group15_KD_tr_onto/RAI,Amsterdam RAI station,RAI,52.3367,4.89056,0.16298342541436464,http://www.group15_KD_tr_onto/240,Schiphol,240,52.318,4.79,80,105,56,5,151
35,http://www.group15_KD_tr_onto/SHL,Schiphol Airport railway station,SHL,52.3089,4.76167,2.4095634095634098,http://www.group15_KD_tr_onto/240,Schiphol,240,52.318,4.79,80,105,56,5,151
36,http://www.group15_KD_tr_onto/SPTN,Santpoort Noord railway station,SPTN,52.4428,4.63917,0.6923076923076923,http://www.group15_KD_tr_onto/240,Schiphol,240,52.318,4.79,80,105,56,5,151
37,http://www.group15_KD_tr_onto/SPTZ,Santpoort Zuid railway station,SPTZ,52.4194,4.63167,0.7564102564102564,http://www.group15_KD_tr_onto/240,Schiphol,240,52.318,4.79,80,105,56,5,151
38,http://www.group15_KD_tr_onto/UTG,Uitgeest railway station,UTG,52.5219,4.70278,1.1954887218045114,http://www.group15_KD_tr_onto/240,Schiphol,240,52.318,4.79,80,105,56,5,151
39,http://www.group15_KD_tr_onto/WM,Wormerveer railway station,WM,52.4892,4.79278,1.6944444444444444,http://www.group15_KD_tr_onto/240,Schiphol,240,52.318,4.79,80,105,56,5,151
40,http://www.group15_KD_tr_onto/WP,Weesp railway station,WP,52.3131,5.04361,1.2442244224422443,http://www.group15_KD_tr_onto/240,Schiphol,240,52.318,4.79,80,105,56,5,151
41,http://www.group15_KD_tr_onto/ZD,Zaandam railway station,ZD,52.4389,4.81472,1.0114285714285713,http://www.group15_KD_tr_onto/240,Schiphol,240,52.318,4.79,80,105,56,5,151
42,http://www.group15_KD_tr_onto/ZVT,Zandvoort aan Zee railway station,ZVT,52.3758,4.53139,0.8421052631578947,http://www.group15_KD_tr_onto/240,Schiphol,240,52.318,4.79,80,105,56,5,151
43,http://www.group15_KD_tr_onto/AKL,Arkel railway station,AKL,51.8719,4.99278,2.68,http://www.group15_KD_tr_onto/260,De Bilt,260,52.1,5.18,60,107,85,7,154
44,http://www.group15_KD_tr_onto/BHV,Bilthoven railway station,BHV,52.13,5.20528,1.0214285714285714,http://www.group15_KD_tr_onto/260,De Bilt,260,52.1,5.18,60,107,85,7,154
45,http://www.group15_KD_tr_onto/BKL,Breukelen railway station,BKL,52.17,4.99056,0.9863945578231292,http://www.group15_KD_tr_onto/260,De Bilt,260,52.1,5.18,60,107,85,7,154
46,http://www.group15_KD_tr_onto/BNK,Bunnik railway station,BNK,52.0631,5.19556,0.8144329896907216,http://www.group15_KD_tr_onto/260,De Bilt,260,52.1,5.18,60,107,85,7,154
47,http://www.group15_KD_tr_onto/BSD,Beesd railway station,BSD,51.8992,5.195,1.6933333333333334,http://www.group15_KD_tr_onto/260,De Bilt,260,52.1,5.18,60,107,85,7,154
48,http://www.group15_KD_tr_onto/CL,Culemborg railway station,CL,51.9472,5.22722,0.4966887417218543,http://www.group15_KD_tr_onto/260,De Bilt,260,52.1,5.18,60,107,85,7,154
49,http://www.group15_KD_tr_onto/DB,Driebergen-Zeist railway station,DB,52.065,5.26,0.7678571428571429,http://www.group15_KD_tr_onto/260,De Bilt,260,52.1,5.18,60,107,85,7,154
50,http://www.group15_KD_tr_onto/GDM,Geldermalsen railway station,GDM,51.8839,5.27083,0.9470899470899471,http://www.group15_KD_tr_onto/260,De Bilt,260,52.1,5.18,60,107,85,7,154
51,http://www.group15_KD_tr_onto/HTN,Houten railway station,HTN,52.0344,5.16778,0.3443708609271523,http://www.group15_KD_tr_onto/260,De Bilt,260,52.1,5.18,60,107,85,7,154
52,http://www.group15_KD_tr_onto/LDM,Leerdam railway station,LDM,51.8947,5.09333,1.96,http://www.group15_KD_tr_onto/260,De Bilt,260,52.1,5.18,60,107,85,7,154
53,http://www.group15_KD_tr_onto/MAS,Maarssen railway station,MAS,52.1358,5.03306,0.7037037037037037,http://www.group15_KD_tr_onto/260,De Bilt,260,52.1,5.18,60,107,85,7,154
54,http://www.group15_KD_tr_onto/UTLR,Utrecht Leidsche Rijn railway station,UTLR,52.0983,5.06917,0.2748091603053435,http://www.group15_KD_tr_onto/260,De Bilt,260,52.1,5.18,60,107,85,7,154
55,http://www.group15_KD_tr_onto/UTO,Utrecht Overvecht railway station,UTO,52.11,5.12528,0.6319444444444444,http://www.group15_KD_tr_onto/260,De Bilt,260,52.1,5.18,60,107,85,7,154
56,http://www.group15_KD_tr_onto/UTT,Utrecht Terwijde railway station,UTT,52.1008,5.04306,0.25190839694656486,http://www.group15_KD_tr_onto/260,De Bilt,260,52.1,5.18,60,107,85,7,154
57,http://www.group15_KD_tr_onto/UTVR,Utrecht Vaartsche Rijn railway station,UTVR,52.0786,5.1225,0.49193548387096775,http://www.group15_KD_tr_onto/260,De Bilt,260,52.1,5.18,60,107,85,7,154
58,http://www.group15_KD_tr_onto/UTZL,Utrecht Zuilen railway station,UTZL,52.1031,5.08917,0.6574074074074074,http://www.group15_KD_tr_onto/260,De Bilt,260,52.1,5.18,60,107,85,7,154
59,http://www.group15_KD_tr_onto/UT,Utrecht Centraal railway station,UT,52.0892,5.10972,1.1701680672268908,http://www.group15_KD_tr_onto/260,De Bilt,260,52.1,5.18,60,107,85,7,154
60,http://www.group15_KD_tr_onto/VTN,Vleuten railway station,VTN,52.1031,5.01194,0.2900763358778626,http://www.group15_KD_tr_onto/260,De Bilt,260,52.1,5.18,60,107,85,7,154
61,http://www.group15_KD_tr_onto/WD,Woerden railway station,WD,52.0847,4.89306,0.6150943396226415,http://www.group15_KD_tr_onto/260,De Bilt,260,52.1,5.18,60,107,85,7,154
62,http://www.group15_KD_tr_onto/ZBM,Zaltbommel railway station,ZBM,51.8069,5.26472,0.3026315789473684,http://www.group15_KD_tr_onto/260,De Bilt,260,52.1,5.18,60,107,85,7,154
63,http://www.group15_KD_tr_onto/BKF,Bovenkarspel Flora railway station,BKF,52.6958,5.25306,0.0,http://www.group15_KD_tr_onto/267,Stavoren,267,52.898,5.384,80,99,26,19,152
64,http://www.group15_KD_tr_onto/BKG,Bovenkarspel-Grootebroek railway station,BKG,52.695,5.23611,0.07692307692307693,http://www.group15_KD_tr_onto/267,Stavoren,267,52.898,5.384,80,99,26,19,152
65,http://www.group15_KD_tr_onto/EKZ,Enkhuizen railway station,EKZ,52.6994,5.28778,0.10810810810810811,http://www.group15_KD_tr_onto/267,Stavoren,267,52.898,5.384,80,99,26,19,152
66,http://www.group15_KD_tr_onto/HKS,Hoogkarspel railway station,HKS,52.6906,5.18389,0.07692307692307693,http://www.group15_KD_tr_onto/267,Stavoren,267,52.898,5.384,80,99,26,19,152
67,http://www.group15_KD_tr_onto/HNP,Hindeloopen railway station,HNP,52.9461,5.42306,1.6521739130434783,http://www.group15_KD_tr_onto/267,Stavoren,267,52.898,5.384,80,99,26,19,152
68,http://www.group15_KD_tr_onto/HN,Hoorn railway station,HN,52.645,5.05472,0.655367231638418,http://www.group15_KD_tr_onto/267,Stavoren,267,52.898,5.384,80,99,26,19,152
69,http://www.group15_KD_tr_onto/IJT,IJlst railway station,IJT,53.0147,5.61639,0.6086956521739131,http://www.group15_KD_tr_onto/267,Stavoren,267,52.898,5.384,80,99,26,19,152
70,http://www.group15_KD_tr_onto/KMW,Koudum-Molkwerum railway station,KMW,52.9022,5.41056,1.6521739130434783,http://www.group15_KD_tr_onto/267,Stavoren,267,52.898,5.384,80,99,26,19,152
71,http://www.group15_KD_tr_onto/STV,Stavoren railway station,STV,52.8867,5.35972,1.434782608695652,http://www.group15_KD_tr_onto/267,Stavoren,267,52.898,5.384,80,99,26,19,152
72,http://www.group15_KD_tr_onto/WK,Workum railway station,WK,52.9714,5.45583,1.173913043478261,http://www.group15_KD_tr_onto/267,Stavoren,267,52.898,5.384,80,99,26,19,152
73,http://www.group15_KD_tr_onto/WV,Wolvega railway station,WV,52.8797,6.00472,0.5671641791044776,http://www.group15_KD_tr_onto/267,Stavoren,267,52.898,5.384,80,99,26,19,152
74,http://www.group15_KD_tr_onto/ALMB,Almere Buiten railway station,ALMB,52.3942,5.27778,1.438423645320197,http://www.group15_KD_tr_onto/269,Lelystad,269,52.458,5.52,60,106,21,21,159
75,http://www.group15_KD_tr_onto/ALMM,Almere Muziekwijk railway station,ALMM,52.3675,5.19028,1.0825688073394495,http://www.group15_KD_tr_onto/269,Lelystad,269,52.458,5.52,60,106,21,21,159
76,http://www.group15_KD_tr_onto/ALMO,Almere Oostvaarders railway station,ALMO,52.4028,5.3,1.3478260869565217,http://www.group15_KD_tr_onto/269,Lelystad,269,52.458,5.52,60,106,21,21,159
77,http://www.group15_KD_tr_onto/ALMP,Almere Parkwijk railway station,ALMP,52.3767,5.24444,1.2039473684210527,http://www.group15_KD_tr_onto/269,Lelystad,269,52.458,5.52,60,106,21,21,159
78,http://www.group15_KD_tr_onto/ALM,Almere Centrum railway station,ALM,52.375,5.21778,1.4983922829581993,http://www.group15_KD_tr_onto/269,Lelystad,269,52.458,5.52,60,106,21,21,159
79,http://www.group15_KD_tr_onto/DL,Dalfsen railway station,DL,52.4981,6.25861,0.8260869565217391,http://www.group15_KD_tr_onto/269,Lelystad,269,52.458,5.52,60,106,21,21,159
80,http://www.group15_KD_tr_onto/DRON,Dronten railway station,DRON,52.5339,5.72306,0.0684931506849315,http://www.group15_KD_tr_onto/269,Lelystad,269,52.458,5.52,60,106,21,21,159
81,http://www.group15_KD_tr_onto/EML,Ermelo railway station,EML,52.3011,5.61444,0.8904109589041096,http://www.group15_KD_tr_onto/269,Lelystad,269,52.458,5.52,60,106,21,21,159
82,http://www.group15_KD_tr_onto/HDE,'t Harde railway station,HDE,52.4089,5.89306,0.589041095890411,http://www.group15_KD_tr_onto/269,Lelystad,269,52.458,5.52,60,106,21,21,159
83,http://www.group15_KD_tr_onto/HD,Harderwijk railway station,HD,52.3375,5.61972,0.8378378378378378,http://www.group15_KD_tr_onto/269,Lelystad,269,52.458,5.52,60,106,21,21,159
84,http://www.group15_KD_tr_onto/KPNZ,Kampen Zuid railway station,KPNZ,52.5342,5.91583,0.05333333333333334,http://www.group15_KD_tr_onto/269,Lelystad,269,52.458,5.52,60,106,21,21,159
85,http://www.group15_KD_tr_onto/KPN,Kampen railway station,KPN,52.5597,5.92111,0.47619047619047616,http://www.group15_KD_tr_onto/269,Lelystad,269,52.458,5.52,60,106,21,21,159
86,http://www.group15_KD_tr_onto/LLS,Lelystad Centrum railway station,LLS,52.5078,5.47333,1.6330935251798562,http://www.group15_KD_tr_onto/269,Lelystad,269,52.458,5.52,60,106,21,21,159
87,http://www.group15_KD_tr_onto/MP,Meppel railway station,MP,52.6914,6.1975,1.2822966507177034,http://www.group15_KD_tr_onto/269,Lelystad,269,52.458,5.52,60,106,21,21,159
88,http://www.group15_KD_tr_onto/NS,Nunspeet railway station,NS,52.3708,5.78472,0.8356164383561644,http://www.group15_KD_tr_onto/269,Lelystad,269,52.458,5.52,60,106,21,21,159
89,http://www.group15_KD_tr_onto/OMN,Ommen railway station,OMN,52.5094,6.41694,1.9021739130434783,http://www.group15_KD_tr_onto/269,Lelystad,269,52.458,5.52,60,106,21,21,159
90,http://www.group15_KD_tr_onto/PT,Putten railway station,PT,52.2653,5.57611,0.5616438356164384,http://www.group15_KD_tr_onto/269,Lelystad,269,52.458,5.52,60,106,21,21,159
91,http://www.group15_KD_tr_onto/WZ,Wezep railway station,WZ,52.4536,6.00222,0.5342465753424658,http://www.group15_KD_tr_onto/269,Lelystad,269,52.458,5.52,60,106,21,21,159
92,http://www.group15_KD_tr_onto/ZLSH,Zwolle Stadshagen railway station,ZLSH,52.5279,6.05108,0.35714285714285715,http://www.group15_KD_tr_onto/269,Lelystad,269,52.458,5.52,60,106,21,21,159
93,http://www.group15_KD_tr_onto/ZL,Zwolle railway station,ZL,52.5053,6.09056,0.9606126914660832,http://www.group15_KD_tr_onto/269,Lelystad,269,52.458,5.52,60,106,21,21,159
94,http://www.group15_KD_tr_onto/AKM,Akkrum railway station,AKM,53.0472,5.84306,1.164179104477612,http://www.group15_KD_tr_onto/270,Leeuwarden,270,53.224,5.752,70,99,24,17,150
95,http://www.group15_KD_tr_onto/DEI,Deinum railway station,DEI,53.1886,5.72778,0.06451612903225806,http://www.group15_KD_tr_onto/270,Leeuwarden,270,53.224,5.752,70,99,24,17,150
96,http://www.group15_KD_tr_onto/DRP,Dronryp railway station,DRP,53.1775,5.63472,0.12903225806451613,http://www.group15_KD_tr_onto/270,Leeuwarden,270,53.224,5.752,70,99,24,17,150
97,http://www.group15_KD_tr_onto/FN,Franeker railway station,FN,53.1822,5.54944,0.04838709677419355,http://www.group15_KD_tr_onto/270,Leeuwarden,270,53.224,5.752,70,99,24,17,150
98,http://www.group15_KD_tr_onto/GW,Grou-Jirnsum railway station,GW,53.0897,5.82222,1.1492537313432836,http://www.group15_KD_tr_onto/270,Leeuwarden,270,53.224,5.752,70,99,24,17,150
99,http://www.group15_KD_tr_onto/HDG,Hurdegaryp railway station,HDG,53.2186,5.93472,1.121212121212121,http://www.group15_KD_tr_onto/270,Leeuwarden,270,53.224,5.752,70,99,24,17,150
100,http://www.group15_KD_tr_onto/HLG,Harlingen railway station,HLG,53.1703,5.42528,0.016129032258064516,http://www.group15_KD_tr_onto/270,Leeuwarden,270,53.224,5.752,70,99,24,17,150
101,http://www.group15_KD_tr_onto/HR,Heerenveen railway station,HR,52.9606,5.91528,1.2262773722627738,http://www.group15_KD_tr_onto/270,Leeuwarden,270,53.224,5.752,70,99,24,17,150
102,http://www.group15_KD_tr_onto/LW,Leeuwarden railway station,LW,53.1958,5.79111,1.1732673267326732,http://www.group15_KD_tr_onto/270,Leeuwarden,270,53.224,5.752,70,99,24,17,150
103,http://www.group15_KD_tr_onto/MG,Mantgum railway station,MG,53.1297,5.71333,0.6764705882352942,http://www.group15_KD_tr_onto/270,Leeuwarden,270,53.224,5.752,70,99,24,17,150
104,http://www.group15_KD_tr_onto/SK,Sneek railway station,SK,53.0322,5.65167,0.8253968253968254,http://www.group15_KD_tr_onto/270,Leeuwarden,270,53.224,5.752,70,99,24,17,150
105,http://www.group15_KD_tr_onto/AHPR,Arnhem Presikhaaf railway station,AHPR,51.9875,5.94306,0.9428571428571428,http://www.group15_KD_tr_onto/275,Deelen,275,52.056,5.873,60,108,55,13,151
106,http://www.group15_KD_tr_onto/AHZ,Arnhem Zuid railway station,AHZ,51.9542,5.85167,1.123076923076923,http://www.group15_KD_tr_onto/275,Deelen,275,52.056,5.873,60,108,55,13,151
107,http://www.group15_KD_tr_onto/AML,Almelo railway station,AML,52.3572,6.655,1.7432950191570882,http://www.group15_KD_tr_onto/275,Deelen,275,52.056,5.873,60,108,55,13,151
108,http://www.group15_KD_tr_onto/APD,Apeldoorn railway station,APD,52.2092,5.96944,1.3160919540229885,http://www.group15_KD_tr_onto/275,Deelen,275,52.056,5.873,60,108,55,13,151
109,http://www.group15_KD_tr_onto/ATN,Aalten railway station,ATN,51.9211,6.57806,0.24324324324324326,http://www.group15_KD_tr_onto/275,Deelen,275,52.056,5.873,60,108,55,13,151
110,http://www.group15_KD_tr_onto/BMN,Brummen railway station,BMN,52.0908,6.14694,0.5,http://www.group15_KD_tr_onto/275,Deelen,275,52.056,5.873,60,108,55,13,151
111,http://www.group15_KD_tr_onto/BN,Borne railway station,BN,52.2983,6.74833,0.7741935483870968,http://www.group15_KD_tr_onto/275,Deelen,275,52.056,5.873,60,108,55,13,151
112,http://www.group15_KD_tr_onto/CK,Cuijk railway station,CK,51.7264,5.87417,0.3951612903225806,http://www.group15_KD_tr_onto/275,Deelen,275,52.056,5.873,60,108,55,13,151
113,http://www.group15_KD_tr_onto/DA,Daarlerveen railway station,DA,52.4411,6.57583,0.4444444444444444,http://www.group15_KD_tr_onto/275,Deelen,275,52.056,5.873,60,108,55,13,151
114,http://www.group15_KD_tr_onto/DDN,Delden railway station,DDN,52.26,6.71444,1.7638888888888888,http://www.group15_KD_tr_onto/275,Deelen,275,52.056,5.873,60,108,55,13,151
115,http://www.group15_KD_tr_onto/DID,Didam railway station,DID,51.9333,6.13222,0.2713178294573643,http://www.group15_KD_tr_onto/275,Deelen,275,52.056,5.873,60,108,55,13,151
116,http://www.group15_KD_tr_onto/DR,Dieren railway station,DR,52.045,6.10333,1.4305555555555556,http://www.group15_KD_tr_onto/275,Deelen,275,52.056,5.873,60,108,55,13,151
117,http://www.group15_KD_tr_onto/DTC,Doetinchem railway station,DTC,51.9583,6.29528,0.53,http://www.group15_KD_tr_onto/275,Deelen,275,52.056,5.873,60,108,55,13,151
118,http://www.group15_KD_tr_onto/DVN,Duiven railway station,DVN,51.9433,6.01417,0.3798449612403101,http://www.group15_KD_tr_onto/275,Deelen,275,52.056,5.873,60,108,55,13,151
119,http://www.group15_KD_tr_onto/DV,Deventer railway station,DV,52.2572,6.16083,1.8983739837398375,http://www.group15_KD_tr_onto/275,Deelen,275,52.056,5.873,60,108,55,13,151
120,http://www.group15_KD_tr_onto/ED,Ede-Wageningen railway station,ED,52.0278,5.67194,0.7821782178217822,http://www.group15_KD_tr_onto/275,Deelen,275,52.056,5.873,60,108,55,13,151
121,http://www.group15_KD_tr_onto/EST,Elst railway station,EST,51.9167,5.855,0.8645833333333334,http://www.group15_KD_tr_onto/275,Deelen,275,52.056,5.873,60,108,55,13,151
122,http://www.group15_KD_tr_onto/ES,Enschede railway station,ES,52.2222,6.89,1.6717557251908397,http://www.group15_KD_tr_onto/275,Deelen,275,52.056,5.873,60,108,55,13,151
123,http://www.group15_KD_tr_onto/GBR,Glanerbrug railway station,GBR,52.2186,6.97389,0.0,http://www.group15_KD_tr_onto/275,Deelen,275,52.056,5.873,60,108,55,13,151
124,http://www.group15_KD_tr_onto/GDR,Gaanderen railway station,GDR,51.9308,6.34778,0.4864864864864865,http://www.group15_KD_tr_onto/275,Deelen,275,52.056,5.873,60,108,55,13,151
125,http://www.group15_KD_tr_onto/GO,Goor railway station,GO,52.2303,6.58444,1.6619718309859155,http://www.group15_KD_tr_onto/275,Deelen,275,52.056,5.873,60,108,55,13,151
126,http://www.group15_KD_tr_onto/HGL,Hengelo railway station,HGL,52.2619,6.79417,1.7641196013289036,http://www.group15_KD_tr_onto/275,Deelen,275,52.056,5.873,60,108,55,13,151
127,http://www.group15_KD_tr_onto/HMN,Hemmen-Dodewaard railway station,HMN,51.9222,5.67333,0.40625,http://www.group15_KD_tr_onto/275,Deelen,275,52.056,5.873,60,108,55,13,151
128,http://www.group15_KD_tr_onto/HNO,Heino railway station,HNO,52.4269,6.22194,0.7236842105263158,http://www.group15_KD_tr_onto/275,Deelen,275,52.056,5.873,60,108,55,13,151
129,http://www.group15_KD_tr_onto/HON,Holten railway station,HON,52.2839,6.42056,1.4861111111111112,http://www.group15_KD_tr_onto/275,Deelen,275,52.056,5.873,60,108,55,13,151
130,http://www.group15_KD_tr_onto/KBK,Klarenbeek railway station,KBK,52.1778,6.08417,0.109375,http://www.group15_KD_tr_onto/275,Deelen,275,52.056,5.873,60,108,55,13,151
131,http://www.group15_KD_tr_onto/KLP,Veenendaal-De Klomp railway station,KLP,52.0458,5.57389,0.9102564102564102,http://www.group15_KD_tr_onto/275,Deelen,275,52.056,5.873,60,108,55,13,151
132,http://www.group15_KD_tr_onto/KTR,Kesteren railway station,KTR,51.9314,5.58361,0.296875,http://www.group15_KD_tr_onto/275,Deelen,275,52.056,5.873,60,108,55,13,151
133,http://www.group15_KD_tr_onto/LC,Lochem railway station,LC,52.1667,6.42583,1.4,http://www.group15_KD_tr_onto/275,Deelen,275,52.056,5.873,60,108,55,13,151
134,http://www.group15_KD_tr_onto/LTV,Lichtenvoorde-Groenlo railway station,LTV,52.0117,6.59639,0.11594202898550725,http://www.group15_KD_tr_onto/275,Deelen,275,52.056,5.873,60,108,55,13,151
135,http://www.group15_KD_tr_onto/MMLH,Mook-Molenhoek railway station,MMLH,51.7647,5.8775,0.5806451612903226,http://www.group15_KD_tr_onto/275,Deelen,275,52.056,5.873,60,108,55,13,151
136,http://www.group15_KD_tr_onto/NM,Nijmegen railway station,NM,51.8433,5.8525,1.344311377245509,http://www.group15_KD_tr_onto/275,Deelen,275,52.056,5.873,60,108,55,13,151
137,http://www.group15_KD_tr_onto/NVD,Nijverdal railway station,NVD,52.3656,6.47028,1.6666666666666667,http://www.group15_KD_tr_onto/275,Deelen,275,52.056,5.873,60,108,55,13,151
138,http://www.group15_KD_tr_onto/ODZ,Oldenzaal railway station,ODZ,52.3061,6.93361,0.7948717948717948,http://www.group15_KD_tr_onto/275,Deelen,275,52.056,5.873,60,108,55,13,151
139,http://www.group15_KD_tr_onto/OP,Opheusden railway station,OP,51.9261,5.63694,0.34375,http://www.group15_KD_tr_onto/275,Deelen,275,52.056,5.873,60,108,55,13,151
140,http://www.group15_KD_tr_onto/OST,Olst railway station,OST,52.335,6.11306,2.3815789473684212,http://www.group15_KD_tr_onto/275,Deelen,275,52.056,5.873,60,108,55,13,151
141,http://www.group15_KD_tr_onto/OTB,Oosterbeek railway station,OTB,51.9947,5.84,0.2878787878787879,http://www.group15_KD_tr_onto/275,Deelen,275,52.056,5.873,60,108,55,13,151
142,http://www.group15_KD_tr_onto/RAT,Raalte railway station,RAT,52.3908,6.27861,1.0980392156862746,http://www.group15_KD_tr_onto/275,Deelen,275,52.056,5.873,60,108,55,13,151
143,http://www.group15_KD_tr_onto/RHN,Rhenen railway station,RHN,51.9578,5.57833,1.135135135135135,http://www.group15_KD_tr_onto/275,Deelen,275,52.056,5.873,60,108,55,13,151
144,http://www.group15_KD_tr_onto/RH,Rheden railway station,RH,52.0097,6.02972,0.6142857142857143,http://www.group15_KD_tr_onto/275,Deelen,275,52.056,5.873,60,108,55,13,151
145,http://www.group15_KD_tr_onto/RL,Ruurlo railway station,RL,52.0806,6.45,0.11594202898550725,http://www.group15_KD_tr_onto/275,Deelen,275,52.056,5.873,60,108,55,13,151
146,http://www.group15_KD_tr_onto/RSN,Rijssen railway station,RSN,52.3117,6.51917,1.0694444444444444,http://www.group15_KD_tr_onto/275,Deelen,275,52.056,5.873,60,108,55,13,151
147,http://www.group15_KD_tr_onto/RVS,Ravenstein railway station,RVS,51.7947,5.63722,1.445945945945946,http://www.group15_KD_tr_onto/275,Deelen,275,52.056,5.873,60,108,55,13,151
148,http://www.group15_KD_tr_onto/TWL,Twello railway station,TWL,52.2381,6.1,0.5757575757575758,http://www.group15_KD_tr_onto/275,Deelen,275,52.056,5.873,60,108,55,13,151
149,http://www.group15_KD_tr_onto/VEM,Voorst-Empe railway station,VEM,52.1578,6.14278,0.328125,http://www.group15_KD_tr_onto/275,Deelen,275,52.056,5.873,60,108,55,13,151
150,http://www.group15_KD_tr_onto/VHP,Vroomshoop railway station,VHP,52.4411,6.57583,0.5370370370370371,http://www.group15_KD_tr_onto/275,Deelen,275,52.056,5.873,60,108,55,13,151
151,http://www.group15_KD_tr_onto/VP,Arnhem Velperpoort railway station,VP,51.985,5.92,0.5,http://www.group15_KD_tr_onto/275,Deelen,275,52.056,5.873,60,108,55,13,151
152,http://www.group15_KD_tr_onto/VSV,Varsseveld railway station,VSV,51.9369,6.45806,0.25675675675675674,http://www.group15_KD_tr_onto/275,Deelen,275,52.056,5.873,60,108,55,13,151
153,http://www.group15_KD_tr_onto/VZ,Vriezenveen railway station,VZ,52.4019,6.60028,0.2962962962962963,http://www.group15_KD_tr_onto/275,Deelen,275,52.056,5.873,60,108,55,13,151
154,http://www.group15_KD_tr_onto/WC,Wijchen railway station,WC,51.8111,5.72944,1.2233009708737863,http://www.group15_KD_tr_onto/275,Deelen,275,52.056,5.873,60,108,55,13,151
155,http://www.group15_KD_tr_onto/WDN,Wierden railway station,WDN,52.3614,6.59111,1.0135135135135136,http://www.group15_KD_tr_onto/275,Deelen,275,52.056,5.873,60,108,55,13,151
156,http://www.group15_KD_tr_onto/WF,Wolfheze railway station,WF,52.0053,5.79361,0.3787878787878788,http://www.group15_KD_tr_onto/275,Deelen,275,52.056,5.873,60,108,55,13,151
157,http://www.group15_KD_tr_onto/WH,Wijhe railway station,WH,52.3936,6.14083,2.013157894736842,http://www.group15_KD_tr_onto/275,Deelen,275,52.056,5.873,60,108,55,13,151
158,http://www.group15_KD_tr_onto/WL,Wehl railway station,WL,51.9567,6.2125,0.5968992248062015,http://www.group15_KD_tr_onto/275,Deelen,275,52.056,5.873,60,108,55,13,151
159,http://www.group15_KD_tr_onto/WWW,Winterswijk West railway station,WWW,51.9744,6.70361,0.028985507246376812,http://www.group15_KD_tr_onto/275,Deelen,275,52.056,5.873,60,108,55,13,151
160,http://www.group15_KD_tr_onto/WW,Winterswijk railway station,WW,51.9675,6.71556,0.3472222222222222,http://www.group15_KD_tr_onto/275,Deelen,275,52.056,5.873,60,108,55,13,151
161,http://www.group15_KD_tr_onto/ZA,Zetten-Andelst railway station,ZA,51.9194,5.72306,0.40625,http://www.group15_KD_tr_onto/275,Deelen,275,52.056,5.873,60,108,55,13,151
162,http://www.group15_KD_tr_onto/ZP,Zutphen railway station,ZP,52.1444,6.19389,1.3831775700934579,http://www.group15_KD_tr_onto/275,Deelen,275,52.056,5.873,60,108,55,13,151
163,http://www.group15_KD_tr_onto/ZV,Zevenaar railway station,ZV,51.9231,6.07278,1.6727272727272726,http://www.group15_KD_tr_onto/275,Deelen,275,52.056,5.873,60,108,55,13,151
164,http://www.group15_KD_tr_onto/ASN,Assen railway station,ASN,52.9917,6.57056,0.8251748251748252,http://www.group15_KD_tr_onto/280,Eelde,280,53.125,6.585,40,103,12,21,149
165,http://www.group15_KD_tr_onto/BF,Baflo railway station,BF,53.3608,6.51833,1.2205882352941178,http://www.group15_KD_tr_onto/280,Eelde,280,53.125,6.585,40,103,12,21,149
166,http://www.group15_KD_tr_onto/BL,Beilen railway station,BL,52.8547,6.52083,1.027027027027027,http://www.group15_KD_tr_onto/280,Eelde,280,53.125,6.585,40,103,12,21,149
167,http://www.group15_KD_tr_onto/DLN,Dalen railway station,DLN,52.6944,6.75806,0.574468085106383,http://www.group15_KD_tr_onto/280,Eelde,280,53.125,6.585,40,103,12,21,149
168,http://www.group15_KD_tr_onto/EMNZ,Emmen Zuid railway station,EMNZ,52.7489,6.87472,0.8170731707317073,http://www.group15_KD_tr_onto/280,Eelde,280,53.125,6.585,40,103,12,21,149
169,http://www.group15_KD_tr_onto/EMN,Emmen railway station,EMN,52.7903,6.89917,1.2195121951219512,http://www.group15_KD_tr_onto/280,Eelde,280,53.125,6.585,40,103,12,21,149
170,http://www.group15_KD_tr_onto/GBG,Gramsbergen railway station,GBG,52.6094,6.67583,1.6595744680851063,http://www.group15_KD_tr_onto/280,Eelde,280,53.125,6.585,40,103,12,21,149
171,http://www.group15_KD_tr_onto/GK,Grijpskerk railway station,GK,53.2556,6.31056,0.7272727272727273,http://www.group15_KD_tr_onto/280,Eelde,280,53.125,6.585,40,103,12,21,149
172,http://www.group15_KD_tr_onto/GN,Groningen railway station,GN,53.2106,6.56472,0.9461279461279462,http://www.group15_KD_tr_onto/280,Eelde,280,53.125,6.585,40,103,12,21,149
173,http://www.group15_KD_tr_onto/HDB,Hardenberg railway station,HDB,52.5722,6.62778,0.9576271186440678,http://www.group15_KD_tr_onto/280,Eelde,280,53.125,6.585,40,103,12,21,149
174,http://www.group15_KD_tr_onto/HGV,Hoogeveen railway station,HGV,52.7333,6.4725,0.6621621621621622,http://www.group15_KD_tr_onto/280,Eelde,280,53.125,6.585,40,103,12,21,149
175,http://www.group15_KD_tr_onto/HRN,Haren (NL) railway station,HRN,53.175,6.61778,0.5921052631578947,http://www.group15_KD_tr_onto/280,Eelde,280,53.125,6.585,40,103,12,21,149
176,http://www.group15_KD_tr_onto/KW,Kropswolde railway station,KW,53.1617,6.72139,1.0,http://www.group15_KD_tr_onto/280,Eelde,280,53.125,6.585,40,103,12,21,149
177,http://www.group15_KD_tr_onto/NA,Nieuw Amsterdam railway station,NA,52.7186,6.84861,1.0657894736842106,http://www.group15_KD_tr_onto/280,Eelde,280,53.125,6.585,40,103,12,21,149
178,http://www.group15_KD_tr_onto/NSCH,Bad Nieuweschans railway station,NSCH,53.1842,7.19944,1.5897435897435896,http://www.group15_KD_tr_onto/280,Eelde,280,53.125,6.585,40,103,12,21,149
179,http://www.group15_KD_tr_onto/SWK,Steenwijk railway station,SWK,52.7908,6.11611,1.3065693430656935,http://www.group15_KD_tr_onto/280,Eelde,280,53.125,6.585,40,103,12,21,149
180,http://www.group15_KD_tr_onto/VDM,Veendam railway station,VDM,53.1036,6.88472,0.696969696969697,http://www.group15_KD_tr_onto/280,Eelde,280,53.125,6.585,40,103,12,21,149
181,http://www.group15_KD_tr_onto/VD,Coevorden railway station,VD,52.6631,6.73556,0.2753623188405797,http://www.group15_KD_tr_onto/280,Eelde,280,53.125,6.585,40,103,12,21,149
182,http://www.group15_KD_tr_onto/BGN,Bergen op Zoom railway station,BGN,51.4947,4.29611,2.1634615384615383,http://www.group15_KD_tr_onto/340,Woensdrecht,340,51.449,4.342,50,115,36,57,168
183,http://www.group15_KD_tr_onto/KBD,Krabbendijke railway station,KBD,51.4333,4.11694,2.3,http://www.group15_KD_tr_onto/340,Woensdrecht,340,51.449,4.342,50,115,36,57,168
184,http://www.group15_KD_tr_onto/KRG,Kruiningen-Yerseke railway station,KRG,51.4653,4.03694,1.8714285714285714,http://www.group15_KD_tr_onto/340,Woensdrecht,340,51.449,4.342,50,115,36,57,168
185,http://www.group15_KD_tr_onto/ODB,Oudenbosch railway station,ODB,51.5881,4.53361,0.927536231884058,http://www.group15_KD_tr_onto/340,Woensdrecht,340,51.449,4.342,50,115,36,57,168
186,http://www.group15_KD_tr_onto/RB,Rilland-Bath railway station,RB,51.4222,4.16111,2.1857142857142855,http://www.group15_KD_tr_onto/340,Woensdrecht,340,51.449,4.342,50,115,36,57,168
187,http://www.group15_KD_tr_onto/RSD,Roosendaal railway station,RSD,51.5403,4.45889,2.300546448087432,http://www.group15_KD_tr_onto/340,Woensdrecht,340,51.449,4.342,50,115,36,57,168
188,http://www.group15_KD_tr_onto/BSKS,Boskoop Snijdelwijk railway station,BSKS,52.0676,4.6462,0.2230769230769231,http://www.group15_KD_tr_onto/344,Rotterdam,344,51.962,4.447,70,110,44,18,160
189,http://www.group15_KD_tr_onto/CPS,Capelle Schollevaar railway station,CPS,51.9533,4.58417,0.9493670886075949,http://www.group15_KD_tr_onto/344,Rotterdam,344,51.962,4.447,70,110,44,18,160
190,http://www.group15_KD_tr_onto/DT,Rotterdam Delftsche Poort railway station,DT,51.9253,4.47361,1.9106699751861043,http://www.group15_KD_tr_onto/344,Rotterdam,344,51.962,4.447,70,110,44,18,160
191,http://www.group15_KD_tr_onto/EC,Dordrecht railway station,EC,51.8075,4.66778,0.4864864864864865,http://www.group15_KD_tr_onto/344,Rotterdam,344,51.962,4.447,70,110,44,18,160
192,http://www.group15_KD_tr_onto/GD,Gouda railway station,GD,52.0175,4.70556,0.9414225941422594,http://www.group15_KD_tr_onto/344,Rotterdam,344,51.962,4.447,70,110,44,18,160
193,http://www.group15_KD_tr_onto/GVMW,Den Haag Moerwijk railway station,GVMW,52.0533,4.30861,1.4428571428571428,http://www.group15_KD_tr_onto/344,Rotterdam,344,51.962,4.447,70,110,44,18,160
194,http://www.group15_KD_tr_onto/NWK,Nieuwerkerk aan den IJssel railway station,NWK,51.9653,4.61694,1.0253164556962024,http://www.group15_KD_tr_onto/344,Rotterdam,344,51.962,4.447,70,110,44,18,160
195,http://www.group15_KD_tr_onto/RLB,Rotterdam Lombardijen railway station,RLB,51.8797,4.53111,1.1014492753623188,http://www.group15_KD_tr_onto/344,Rotterdam,344,51.962,4.447,70,110,44,18,160
196,http://www.group15_KD_tr_onto/RSW,Rijswijk railway station,RSW,52.0394,4.31972,1.3857142857142857,http://www.group15_KD_tr_onto/344,Rotterdam,344,51.962,4.447,70,110,44,18,160
197,http://www.group15_KD_tr_onto/RTA,Rotterdam Alexander station,RTA,51.9519,4.55278,1.2459016393442623,http://www.group15_KD_tr_onto/344,Rotterdam,344,51.962,4.447,70,110,44,18,160
198,http://www.group15_KD_tr_onto/RTB,Rotterdam Blaak station,RTB,51.92,4.48917,1.4578754578754578,http://www.group15_KD_tr_onto/344,Rotterdam,344,51.962,4.447,70,110,44,18,160
199,http://www.group15_KD_tr_onto/RTD,Rotterdam Centraal station,RTD,51.9244,4.46944,2.0929432013769365,http://www.group15_KD_tr_onto/344,Rotterdam,344,51.962,4.447,70,110,44,18,160
200,http://www.group15_KD_tr_onto/RTN,Rotterdam Noord railway station,RTN,51.9422,4.48139,1.3164556962025316,http://www.group15_KD_tr_onto/344,Rotterdam,344,51.962,4.447,70,110,44,18,160
201,http://www.group15_KD_tr_onto/RTZ,Rotterdam Zuid railway station,RTZ,51.9094,4.50944,1.1884057971014492,http://www.group15_KD_tr_onto/344,Rotterdam,344,51.962,4.447,70,110,44,18,160
202,http://www.group15_KD_tr_onto/SDM,Schiedam Centrum station,SDM,51.9219,4.41,1.5768025078369905,http://www.group15_KD_tr_onto/344,Rotterdam,344,51.962,4.447,70,110,44,18,160
203,http://www.group15_KD_tr_onto/SDT,Sliedrecht Baanhoek railway station,SDT,51.8297,4.74333,2.5671641791044775,http://www.group15_KD_tr_onto/344,Rotterdam,344,51.962,4.447,70,110,44,18,160
204,http://www.group15_KD_tr_onto/YPB,Den Haag Ypenburg railway station,YPB,52.0592,4.38972,0.5294117647058824,http://www.group15_KD_tr_onto/344,Rotterdam,344,51.962,4.447,70,110,44,18,160
205,http://www.group15_KD_tr_onto/ZTM,Lansingerland-Zoetermeer railway station,ZTM,52.0394,4.52556,0.5294117647058824,http://www.group15_KD_tr_onto/344,Rotterdam,344,51.962,4.447,70,110,44,18,160
206,http://www.group15_KD_tr_onto/ZWD,Zwijndrecht railway station,ZWD,51.8147,4.64222,0.9782608695652174,http://www.group15_KD_tr_onto/344,Rotterdam,344,51.962,4.447,70,110,44,18,160
207,http://www.group15_KD_tr_onto/BD,Breda railway station,BD,51.595,4.78,2.0073260073260073,http://www.group15_KD_tr_onto/350,Gilze-Rijen,350,51.566,4.936,70,111,71,50,160
208,http://www.group15_KD_tr_onto/BHDV,Boven Hardinxveld railway station,BHDV,51.8319,4.87472,1.8923076923076922,http://www.group15_KD_tr_onto/350,Gilze-Rijen,350,51.566,4.936,70,111,71,50,160
209,http://www.group15_KD_tr_onto/ETN,Etten-Leur railway station,ETN,51.5753,4.63694,1.1538461538461537,http://www.group15_KD_tr_onto/350,Gilze-Rijen,350,51.566,4.936,70,111,71,50,160
210,http://www.group15_KD_tr_onto/GND,Hardinxveld-Giessendam railway station,GND,51.8303,4.83528,2.5182481751824817,http://www.group15_KD_tr_onto/350,Gilze-Rijen,350,51.566,4.936,70,111,71,50,160
211,http://www.group15_KD_tr_onto/GR,Gorinchem railway station,GR,51.8336,4.9675,2.6116504854368934,http://www.group15_KD_tr_onto/350,Gilze-Rijen,350,51.566,4.936,70,111,71,50,160
212,http://www.group15_KD_tr_onto/GZ,Gilze-Rijen railway station,GZ,51.5839,4.925,1.1794871794871795,http://www.group15_KD_tr_onto/350,Gilze-Rijen,350,51.566,4.936,70,111,71,50,160
213,http://www.group15_KD_tr_onto/OT,Oisterwijk railway station,OT,51.5822,5.19444,0.647887323943662,http://www.group15_KD_tr_onto/350,Gilze-Rijen,350,51.566,4.936,70,111,71,50,160
214,http://www.group15_KD_tr_onto/TBR,Tilburg Reeshof railway station,TBR,51.5739,4.99278,1.2179487179487178,http://www.group15_KD_tr_onto/350,Gilze-Rijen,350,51.566,4.936,70,111,71,50,160
215,http://www.group15_KD_tr_onto/TBU,Tilburg Universiteit railway station,TBU,51.5653,5.05139,1.0707964601769913,http://www.group15_KD_tr_onto/350,Gilze-Rijen,350,51.566,4.936,70,111,71,50,160
216,http://www.group15_KD_tr_onto/TB,Tilburg railway station,TB,51.5606,5.08278,1.6228956228956228,http://www.group15_KD_tr_onto/350,Gilze-Rijen,350,51.566,4.936,70,111,71,50,160
217,http://www.group15_KD_tr_onto/ZLW,Lage Zwaluwe railway station,ZLW,51.6906,4.66333,1.2635135135135136,http://www.group15_KD_tr_onto/350,Gilze-Rijen,350,51.566,4.936,70,111,71,50,160
218,http://www.group15_KD_tr_onto/ZVB,Zevenbergen railway station,ZVB,51.6414,4.60972,1.6231884057971016,http://www.group15_KD_tr_onto/350,Gilze-Rijen,350,51.566,4.936,70,111,71,50,160
219,http://www.group15_KD_tr_onto/BET,Best railway station,BET,51.5097,5.38889,0.9530201342281879,http://www.group15_KD_tr_onto/370,Eindhoven,370,51.451,5.377,60,114,39,56,157
220,http://www.group15_KD_tr_onto/BMR,Boxmeer railway station,BMR,51.6444,5.93944,0.33064516129032256,http://www.group15_KD_tr_onto/370,Eindhoven,370,51.451,5.377,60,114,39,56,157
221,http://www.group15_KD_tr_onto/BR,Blerick railway station,BR,51.3725,6.155,1.0849673202614378,http://www.group15_KD_tr_onto/370,Eindhoven,370,51.451,5.377,60,114,39,56,157
222,http://www.group15_KD_tr_onto/BTL,Boxtel railway station,BTL,51.5844,5.31889,0.7248322147651006,http://www.group15_KD_tr_onto/370,Eindhoven,370,51.451,5.377,60,114,39,56,157
223,http://www.group15_KD_tr_onto/DN,Deurne railway station,DN,51.4558,5.78833,1.4245283018867925,http://www.group15_KD_tr_onto/370,Eindhoven,370,51.451,5.377,60,114,39,56,157
224,http://www.group15_KD_tr_onto/EHS,Eindhoven Stadion railway station,EHS,51.443,5.46731,0.9530201342281879,http://www.group15_KD_tr_onto/370,Eindhoven,370,51.451,5.377,60,114,39,56,157
225,http://www.group15_KD_tr_onto/EHV,Eindhoven Centraal railway station,EHV,51.4428,5.48028,1.481586402266289,http://www.group15_KD_tr_onto/370,Eindhoven,370,51.451,5.377,60,114,39,56,157
226,http://www.group15_KD_tr_onto/GP,Geldrop railway station,GP,51.42,5.55111,0.391304347826087,http://www.group15_KD_tr_onto/370,Eindhoven,370,51.451,5.377,60,114,39,56,157
227,http://www.group15_KD_tr_onto/HMH,Helmond 't Hout railway station,HMH,51.4678,5.63083,0.5074626865671642,http://www.group15_KD_tr_onto/370,Eindhoven,370,51.451,5.377,60,114,39,56,157
228,http://www.group15_KD_tr_onto/HM,Helmond railway station,HM,51.4756,5.66167,1.0214285714285714,http://www.group15_KD_tr_onto/370,Eindhoven,370,51.451,5.377,60,114,39,56,157
229,http://www.group15_KD_tr_onto/HRT,Horst-Sevenum railway station,HRT,51.4267,6.04194,1.273972602739726,http://www.group15_KD_tr_onto/370,Eindhoven,370,51.451,5.377,60,114,39,56,157
230,http://www.group15_KD_tr_onto/HT,'s-Hertogenbosch railway station,HT,51.69,5.29333,1.1246612466124661,http://www.group15_KD_tr_onto/370,Eindhoven,370,51.451,5.377,60,114,39,56,157
231,http://www.group15_KD_tr_onto/HZ,Heeze railway station,HZ,51.385,5.56944,0.0,http://www.group15_KD_tr_onto/370,Eindhoven,370,51.451,5.377,60,114,39,56,157
232,http://www.group15_KD_tr_onto/MZ,Maarheeze railway station,MZ,51.3039,5.63028,0.2898550724637681,http://www.group15_KD_tr_onto/370,Eindhoven,370,51.451,5.377,60,114,39,56,157
233,http://www.group15_KD_tr_onto/OW,Oss West railway station,OW,51.7581,5.50611,1.155844155844156,http://www.group15_KD_tr_onto/370,Eindhoven,370,51.451,5.377,60,114,39,56,157
234,http://www.group15_KD_tr_onto/O,Oss railway station,O,51.7653,5.53167,1.563758389261745,http://www.group15_KD_tr_onto/370,Eindhoven,370,51.451,5.377,60,114,39,56,157
235,http://www.group15_KD_tr_onto/RS,Rosmalen railway station,RS,51.715,5.36889,1.2162162162162162,http://www.group15_KD_tr_onto/370,Eindhoven,370,51.451,5.377,60,114,39,56,157
236,http://www.group15_KD_tr_onto/TG,Tegelen railway station,TG,51.3411,6.14333,1.2894736842105263,http://www.group15_KD_tr_onto/370,Eindhoven,370,51.451,5.377,60,114,39,56,157
237,http://www.group15_KD_tr_onto/VG,Vught railway station,VG,51.6547,5.29194,0.6282051282051282,http://www.group15_KD_tr_onto/370,Eindhoven,370,51.451,5.377,60,114,39,56,157
238,http://www.group15_KD_tr_onto/VLB,Vierlingsbeek railway station,VLB,51.5922,5.99667,0.6290322580645161,http://www.group15_KD_tr_onto/370,Eindhoven,370,51.451,5.377,60,114,39,56,157
239,http://www.group15_KD_tr_onto/VL,Venlo railway station,VL,51.3647,6.17139,1.3233082706766917,http://www.group15_KD_tr_onto/370,Eindhoven,370,51.451,5.377,60,114,39,56,157
240,http://www.group15_KD_tr_onto/VRY,Venray railway station,VRY,51.5264,6.01417,0.9029126213592233,http://www.group15_KD_tr_onto/370,Eindhoven,370,51.451,5.377,60,114,39,56,157
241,http://www.group15_KD_tr_onto/WT,Weert railway station,WT,51.2486,5.7025,0.7134146341463414,http://www.group15_KD_tr_onto/370,Eindhoven,370,51.451,5.377,60,114,39,56,157
242,http://www.group15_KD_tr_onto/CVM,Chevremont railway station,CVM,50.8758,6.05944,0.4473684210526316,http://www.group15_KD_tr_onto/380,Maastricht,380,50.906,5.762,60,118,29,63,173
243,http://www.group15_KD_tr_onto/EDN,Eijsden railway station,EDN,50.772,5.71004,1.2777777777777777,http://www.group15_KD_tr_onto/380,Maastricht,380,50.906,5.762,60,118,29,63,173
244,http://www.group15_KD_tr_onto/EGH,Eygelshoven railway station,EGH,50.8903,6.04556,0.25,http://www.group15_KD_tr_onto/380,Maastricht,380,50.906,5.762,60,118,29,63,173
245,http://www.group15_KD_tr_onto/GLN,Geleen Oost railway station,GLN,50.9672,5.84306,0.7631578947368421,http://www.group15_KD_tr_onto/380,Maastricht,380,50.906,5.762,60,118,29,63,173
246,http://www.group15_KD_tr_onto/HB,Hoensbroek railway station,HB,50.9053,5.93111,1.118421052631579,http://www.group15_KD_tr_onto/380,Maastricht,380,50.906,5.762,60,118,29,63,173
247,http://www.group15_KD_tr_onto/HRLW,Heerlen Woonboulevard railway station,HRLW,50.8961,5.95278,0.6666666666666666,http://www.group15_KD_tr_onto/380,Maastricht,380,50.906,5.762,60,118,29,63,173
248,http://www.group15_KD_tr_onto/HRL,Heerlen railway station,HRL,50.8908,5.97472,0.7839195979899497,http://www.group15_KD_tr_onto/380,Maastricht,380,50.906,5.762,60,118,29,63,173
249,http://www.group15_KD_tr_onto/KMR,Klimmen-Ransdaal railway station,KMR,50.8667,5.89056,0.5384615384615384,http://www.group15_KD_tr_onto/380,Maastricht,380,50.906,5.762,60,118,29,63,173
250,http://www.group15_KD_tr_onto/KRD,Kerkrade Centrum railway station,KRD,50.8614,6.0575,0.6052631578947368,http://www.group15_KD_tr_onto/380,Maastricht,380,50.906,5.762,60,118,29,63,173
251,http://www.group15_KD_tr_onto/LG,Landgraaf railway station,LG,50.8964,6.02,0.391304347826087,http://www.group15_KD_tr_onto/380,Maastricht,380,50.906,5.762,60,118,29,63,173
252,http://www.group15_KD_tr_onto/MT,Maastricht railway station,MT,50.85,5.70528,0.825,http://www.group15_KD_tr_onto/380,Maastricht,380,50.906,5.762,60,118,29,63,173
253,http://www.group15_KD_tr_onto/NH,Nuth railway station,NH,50.9197,5.8925,0.868421052631579,http://www.group15_KD_tr_onto/380,Maastricht,380,50.906,5.762,60,118,29,63,173
254,http://www.group15_KD_tr_onto/RM,Roermond railway station,RM,51.1933,5.99472,0.6634146341463415,http://www.group15_KD_tr_onto/380,Maastricht,380,50.906,5.762,60,118,29,63,173
255,http://www.group15_KD_tr_onto/RV,Reuver railway station,RV,51.2831,6.07944,1.013157894736842,http://www.group15_KD_tr_onto/380,Maastricht,380,50.906,5.762,60,118,29,63,173
256,http://www.group15_KD_tr_onto/SBK,Spaubeek railway station,SBK,50.9431,5.84972,1.105263157894737,http://www.group15_KD_tr_onto/380,Maastricht,380,50.906,5.762,60,118,29,63,173
257,http://www.group15_KD_tr_onto/SM,Swalmen railway station,SM,51.2358,6.0325,0.3157894736842105,http://www.group15_KD_tr_onto/380,Maastricht,380,50.906,5.762,60,118,29,63,173
258,http://www.group15_KD_tr_onto/SN,Schinnen railway station,SN,50.9386,5.87611,1.1578947368421053,http://www.group15_KD_tr_onto/380,Maastricht,380,50.906,5.762,60,118,29,63,173
259,http://www.group15_KD_tr_onto/SRN,Susteren railway station,SRN,51.0608,5.86278,0.47297297297297297,http://www.group15_KD_tr_onto/380,Maastricht,380,50.906,5.762,60,118,29,63,173
260,http://www.group15_KD_tr_onto/STD,Sittard railway station,STD,51.0011,5.85833,0.6234817813765182,http://www.group15_KD_tr_onto/380,Maastricht,380,50.906,5.762,60,118,29,63,173
261,http://www.group15_KD_tr_onto/VDL,Voerendaal railway station,VDL,50.8867,5.92944,0.5,http://www.group15_KD_tr_onto/380,Maastricht,380,50.906,5.762,60,118,29,63,173
