,station,station_name,station_code,ts_lat,ts_long,delay,ws,ws_name,ws_code,ws_lat,ws_long,windspeed,mean_temp,percipitation,visibility,wind_direction
0,http://www.group15_KD_tr_onto/AMR,Alkmaar railway station,AMR,52.6378,4.74056,0.9269662921348315,http://www.group15_KD_tr_onto/235,De Kooy,235,52.928,4.781,60,71,13,0,216
1,http://www.group15_KD_tr_onto/ANA,Anna Paulowna railway station,ANA,52.8669,4.81111,1.2222222222222223,http://www.group15_KD_tr_onto/235,De Kooy,235,52.928,4.781,60,71,13,0,216
2,http://www.group15_KD_tr_onto/HDRZ,Den Helder Zuid railway station,HDRZ,52.9331,4.76389,0.6419753086419753,http://www.group15_KD_tr_onto/235,De Kooy,235,52.928,4.781,60,71,13,0,216
3,http://www.group15_KD_tr_onto/HDR,Den Helder railway station,HDR,52.9564,4.76083,0.4878048780487805,http://www.group15_KD_tr_onto/235,De Kooy,235,52.928,4.781,60,71,13,0,216
4,http://www.group15_KD_tr_onto/HWD,Heerhugowaard railway station,HWD,52.67,4.82361,0.8843537414965986,http://www.group15_KD_tr_onto/235,De Kooy,235,52.928,4.781,60,71,13,0,216
5,http://www.group15_KD_tr_onto/OBD,Obdam railway station,OBD,52.6781,4.90833,0.7575757575757576,http://www.group15_KD_tr_onto/235,De Kooy,235,52.928,4.781,60,71,13,0,216
6,http://www.group15_KD_tr_onto/SGN,Schagen railway station,SGN,52.7861,4.80528,0.9259259259259259,http://www.group15_KD_tr_onto/235,De Kooy,235,52.928,4.781,60,71,13,0,216
7,http://www.group15_KD_tr_onto/AC,Abcoude railway station,AC,52.2744,4.98222,0.7410714285714286,http://www.group15_KD_tr_onto/240,Schiphol,240,52.318,4.79,60,83,37,2,216
8,http://www.group15_KD_tr_onto/AMPO,Almere Poort railway station,AMPO,52.3428,5.15194,0.5576036866359447,http://www.group15_KD_tr_onto/240,Schiphol,240,52.318,4.79,60,83,37,2,216
9,http://www.group15_KD_tr_onto/ASA,Amsterdam Amstel station,ASA,52.3464,4.91778,0.774294670846395,http://www.group15_KD_tr_onto/240,Schiphol,240,52.318,4.79,60,83,37,2,216
10,http://www.group15_KD_tr_onto/ASB,Amsterdam Bijlmer ArenA station,ASB,52.3131,4.94611,0.6268656716417911,http://www.group15_KD_tr_onto/240,Schiphol,240,52.318,4.79,60,83,37,2,216
11,http://www.group15_KD_tr_onto/ASDL,Amsterdam Lelylaan station,ASDL,52.3572,4.83389,1.0,http://www.group15_KD_tr_onto/240,Schiphol,240,52.318,4.79,60,83,37,2,216
12,http://www.group15_KD_tr_onto/ASDM,Amsterdam Muiderpoort railway station,ASDM,52.3608,4.93111,0.8888888888888888,http://www.group15_KD_tr_onto/240,Schiphol,240,52.318,4.79,60,83,37,2,216
13,http://www.group15_KD_tr_onto/ASDZ,Amsterdam Zuid station,ASDZ,52.3389,4.87306,0.8185745140388769,http://www.group15_KD_tr_onto/240,Schiphol,240,52.318,4.79,60,83,37,2,216
14,http://www.group15_KD_tr_onto/ASD,Amsterdam Centraal station,ASD,52.3783,4.9,2.4766233766233765,http://www.group15_KD_tr_onto/240,Schiphol,240,52.318,4.79,60,83,37,2,216
15,http://www.group15_KD_tr_onto/ASSP,Amsterdam Science Park railway station,ASSP,52.3525,4.94861,1.1139240506329113,http://www.group15_KD_tr_onto/240,Schiphol,240,52.318,4.79,60,83,37,2,216
16,http://www.group15_KD_tr_onto/ASS,Amsterdam Sloterdijk station,ASS,52.3892,4.83806,0.9670184696569921,http://www.group15_KD_tr_onto/240,Schiphol,240,52.318,4.79,60,83,37,2,216
17,http://www.group15_KD_tr_onto/BLL,Bloemendaal railway station,BLL,52.4042,4.6275,1.294871794871795,http://www.group15_KD_tr_onto/240,Schiphol,240,52.318,4.79,60,83,37,2,216
18,http://www.group15_KD_tr_onto/BV,Beverwijk railway station,BV,52.4783,4.65611,0.717948717948718,http://www.group15_KD_tr_onto/240,Schiphol,240,52.318,4.79,60,83,37,2,216
19,http://www.group15_KD_tr_onto/CAS,Castricum railway station,CAS,52.5456,4.65889,0.8086124401913876,http://www.group15_KD_tr_onto/240,Schiphol,240,52.318,4.79,60,83,37,2,216
20,http://www.group15_KD_tr_onto/DMNZ,Diemen Zuid station,DMNZ,52.3303,4.95639,0.6136363636363636,http://www.group15_KD_tr_onto/240,Schiphol,240,52.318,4.79,60,83,37,2,216
21,http://www.group15_KD_tr_onto/DMN,Diemen railway station,DMN,52.3453,4.96694,1.0759493670886076,http://www.group15_KD_tr_onto/240,Schiphol,240,52.318,4.79,60,83,37,2,216
22,http://www.group15_KD_tr_onto/HAD,Heemstede-Aerdenhout railway station,HAD,52.3597,4.60694,0.6476683937823834,http://www.group15_KD_tr_onto/240,Schiphol,240,52.318,4.79,60,83,37,2,216
23,http://www.group15_KD_tr_onto/HFD,Hoofddorp railway station,HFD,52.2933,4.7,0.8982300884955752,http://www.group15_KD_tr_onto/240,Schiphol,240,52.318,4.79,60,83,37,2,216
24,http://www.group15_KD_tr_onto/HIL,Hillegom railway station,HIL,52.3028,4.56583,0.6329113924050633,http://www.group15_KD_tr_onto/240,Schiphol,240,52.318,4.79,60,83,37,2,216
25,http://www.group15_KD_tr_onto/HK,Heemskerk railway station,HK,52.4947,4.68611,0.7948717948717948,http://www.group15_KD_tr_onto/240,Schiphol,240,52.318,4.79,60,83,37,2,216
26,http://www.group15_KD_tr_onto/HLMS,Haarlem Spaarnwoude railway station,HLMS,52.3828,4.67111,1.4179104477611941,http://www.group15_KD_tr_onto/240,Schiphol,240,52.318,4.79,60,83,37,2,216
27,http://www.group15_KD_tr_onto/HLM,Haarlem railway station,HLM,52.3878,4.63889,0.8154362416107382,http://www.group15_KD_tr_onto/240,Schiphol,240,52.318,4.79,60,83,37,2,216
28,http://www.group15_KD_tr_onto/HLO,Heiloo railway station,HLO,52.6,4.70083,0.8451612903225807,http://www.group15_KD_tr_onto/240,Schiphol,240,52.318,4.79,60,83,37,2,216
29,http://www.group15_KD_tr_onto/HWZB,Halfweg-Zwanenburg railway station,HWZB,52.3847,4.75167,1.2537313432835822,http://www.group15_KD_tr_onto/240,Schiphol,240,52.318,4.79,60,83,37,2,216
30,http://www.group15_KD_tr_onto/NVP,Nieuw-Vennep railway station,NVP,52.2597,4.64556,0.8444444444444444,http://www.group15_KD_tr_onto/240,Schiphol,240,52.318,4.79,60,83,37,2,216
31,http://www.group15_KD_tr_onto/OVN,Overveen railway station,OVN,52.3908,4.60778,1.0657894736842106,http://www.group15_KD_tr_onto/240,Schiphol,240,52.318,4.79,60,83,37,2,216
32,http://www.group15_KD_tr_onto/PMR,Purmerend railway station,PMR,52.5033,4.95417,0.5616438356164384,http://www.group15_KD_tr_onto/240,Schiphol,240,52.318,4.79,60,83,37,2,216
33,http://www.group15_KD_tr_onto/PMW,Purmerend Weidevenne railway station,PMW,52.4967,4.93667,0.547945205479452,http://www.group15_KD_tr_onto/240,Schiphol,240,52.318,4.79,60,83,37,2,216
34,http://www.group15_KD_tr_onto/RAI,Amsterdam RAI station,RAI,52.3367,4.89056,0.7196969696969697,http://www.group15_KD_tr_onto/240,Schiphol,240,52.318,4.79,60,83,37,2,216
35,http://www.group15_KD_tr_onto/SHL,Schiphol Airport railway station,SHL,52.3089,4.76167,2.5815217391304346,http://www.group15_KD_tr_onto/240,Schiphol,240,52.318,4.79,60,83,37,2,216
36,http://www.group15_KD_tr_onto/SPTN,Santpoort Noord railway station,SPTN,52.4428,4.63917,0.7564102564102564,http://www.group15_KD_tr_onto/240,Schiphol,240,52.318,4.79,60,83,37,2,216
37,http://www.group15_KD_tr_onto/SPTZ,Santpoort Zuid railway station,SPTZ,52.4194,4.63167,0.7307692307692307,http://www.group15_KD_tr_onto/240,Schiphol,240,52.318,4.79,60,83,37,2,216
38,http://www.group15_KD_tr_onto/UTG,Uitgeest railway station,UTG,52.5219,4.70278,0.8507462686567164,http://www.group15_KD_tr_onto/240,Schiphol,240,52.318,4.79,60,83,37,2,216
39,http://www.group15_KD_tr_onto/WM,Wormerveer railway station,WM,52.4892,4.79278,1.018018018018018,http://www.group15_KD_tr_onto/240,Schiphol,240,52.318,4.79,60,83,37,2,216
40,http://www.group15_KD_tr_onto/WP,Weesp railway station,WP,52.3131,5.04361,0.7620689655172413,http://www.group15_KD_tr_onto/240,Schiphol,240,52.318,4.79,60,83,37,2,216
41,http://www.group15_KD_tr_onto/ZD,Zaandam railway station,ZD,52.4389,4.81472,0.7243589743589743,http://www.group15_KD_tr_onto/240,Schiphol,240,52.318,4.79,60,83,37,2,216
42,http://www.group15_KD_tr_onto/ZVT,Zandvoort aan Zee railway station,ZVT,52.3758,4.53139,1.7105263157894737,http://www.group15_KD_tr_onto/240,Schiphol,240,52.318,4.79,60,83,37,2,216
43,http://www.group15_KD_tr_onto/AKL,Arkel railway station,AKL,51.8719,4.99278,0.9571428571428572,http://www.group15_KD_tr_onto/260,De Bilt,260,52.1,5.18,60,87,55,9,220
44,http://www.group15_KD_tr_onto/BHV,Bilthoven railway station,BHV,52.13,5.20528,0.5886524822695035,http://www.group15_KD_tr_onto/260,De Bilt,260,52.1,5.18,60,87,55,9,220
45,http://www.group15_KD_tr_onto/BKL,Breukelen railway station,BKL,52.17,4.99056,0.6711409395973155,http://www.group15_KD_tr_onto/260,De Bilt,260,52.1,5.18,60,87,55,9,220
46,http://www.group15_KD_tr_onto/BNK,Bunnik railway station,BNK,52.0631,5.19556,0.3125,http://www.group15_KD_tr_onto/260,De Bilt,260,52.1,5.18,60,87,55,9,220
47,http://www.group15_KD_tr_onto/BSD,Beesd railway station,BSD,51.8992,5.195,0.7714285714285715,http://www.group15_KD_tr_onto/260,De Bilt,260,52.1,5.18,60,87,55,9,220
48,http://www.group15_KD_tr_onto/CL,Culemborg railway station,CL,51.9472,5.22722,0.8618421052631579,http://www.group15_KD_tr_onto/260,De Bilt,260,52.1,5.18,60,87,55,9,220
49,http://www.group15_KD_tr_onto/DB,Driebergen-Zeist railway station,DB,52.065,5.26,0.6975308641975309,http://www.group15_KD_tr_onto/260,De Bilt,260,52.1,5.18,60,87,55,9,220
50,http://www.group15_KD_tr_onto/GDM,Geldermalsen railway station,GDM,51.8839,5.27083,1.411764705882353,http://www.group15_KD_tr_onto/260,De Bilt,260,52.1,5.18,60,87,55,9,220
51,http://www.group15_KD_tr_onto/HTN,Houten railway station,HTN,52.0344,5.16778,0.75,http://www.group15_KD_tr_onto/260,De Bilt,260,52.1,5.18,60,87,55,9,220
52,http://www.group15_KD_tr_onto/LDM,Leerdam railway station,LDM,51.8947,5.09333,0.7142857142857143,http://www.group15_KD_tr_onto/260,De Bilt,260,52.1,5.18,60,87,55,9,220
53,http://www.group15_KD_tr_onto/MAS,Maarssen railway station,MAS,52.1358,5.03306,0.3944954128440367,http://www.group15_KD_tr_onto/260,De Bilt,260,52.1,5.18,60,87,55,9,220
54,http://www.group15_KD_tr_onto/UTLR,Utrecht Leidsche Rijn railway station,UTLR,52.0983,5.06917,0.39849624060150374,http://www.group15_KD_tr_onto/260,De Bilt,260,52.1,5.18,60,87,55,9,220
55,http://www.group15_KD_tr_onto/UTO,Utrecht Overvecht railway station,UTO,52.11,5.12528,0.5421245421245421,http://www.group15_KD_tr_onto/260,De Bilt,260,52.1,5.18,60,87,55,9,220
56,http://www.group15_KD_tr_onto/UTT,Utrecht Terwijde railway station,UTT,52.1008,5.04306,0.3157894736842105,http://www.group15_KD_tr_onto/260,De Bilt,260,52.1,5.18,60,87,55,9,220
57,http://www.group15_KD_tr_onto/UTVR,Utrecht Vaartsche Rijn railway station,UTVR,52.0786,5.1225,0.5725806451612904,http://www.group15_KD_tr_onto/260,De Bilt,260,52.1,5.18,60,87,55,9,220
58,http://www.group15_KD_tr_onto/UTZL,Utrecht Zuilen railway station,UTZL,52.1031,5.08917,0.2962962962962963,http://www.group15_KD_tr_onto/260,De Bilt,260,52.1,5.18,60,87,55,9,220
59,http://www.group15_KD_tr_onto/UT,Utrecht Centraal railway station,UT,52.0892,5.10972,1.0050761421319796,http://www.group15_KD_tr_onto/260,De Bilt,260,52.1,5.18,60,87,55,9,220
60,http://www.group15_KD_tr_onto/VTN,Vleuten railway station,VTN,52.1031,5.01194,0.45112781954887216,http://www.group15_KD_tr_onto/260,De Bilt,260,52.1,5.18,60,87,55,9,220
61,http://www.group15_KD_tr_onto/WD,Woerden railway station,WD,52.0847,4.89306,0.8955223880597015,http://www.group15_KD_tr_onto/260,De Bilt,260,52.1,5.18,60,87,55,9,220
62,http://www.group15_KD_tr_onto/ZBM,Zaltbommel railway station,ZBM,51.8069,5.26472,1.103896103896104,http://www.group15_KD_tr_onto/260,De Bilt,260,52.1,5.18,60,87,55,9,220
63,http://www.group15_KD_tr_onto/BKF,Bovenkarspel Flora railway station,BKF,52.6958,5.25306,0.2441860465116279,http://www.group15_KD_tr_onto/267,Stavoren,267,52.898,5.384,70,62,12,1,202
64,http://www.group15_KD_tr_onto/BKG,Bovenkarspel-Grootebroek railway station,BKG,52.695,5.23611,0.23255813953488372,http://www.group15_KD_tr_onto/267,Stavoren,267,52.898,5.384,70,62,12,1,202
65,http://www.group15_KD_tr_onto/EKZ,Enkhuizen railway station,EKZ,52.6994,5.28778,0.4523809523809524,http://www.group15_KD_tr_onto/267,Stavoren,267,52.898,5.384,70,62,12,1,202
66,http://www.group15_KD_tr_onto/HKS,Hoogkarspel railway station,HKS,52.6906,5.18389,0.19767441860465115,http://www.group15_KD_tr_onto/267,Stavoren,267,52.898,5.384,70,62,12,1,202
67,http://www.group15_KD_tr_onto/HNP,Hindeloopen railway station,HNP,52.9461,5.42306,1.891304347826087,http://www.group15_KD_tr_onto/267,Stavoren,267,52.898,5.384,70,62,12,1,202
68,http://www.group15_KD_tr_onto/HN,Hoorn railway station,HN,52.645,5.05472,0.510752688172043,http://www.group15_KD_tr_onto/267,Stavoren,267,52.898,5.384,70,62,12,1,202
69,http://www.group15_KD_tr_onto/IJT,IJlst railway station,IJT,53.0147,5.61639,1.3695652173913044,http://www.group15_KD_tr_onto/267,Stavoren,267,52.898,5.384,70,62,12,1,202
70,http://www.group15_KD_tr_onto/KMW,Koudum-Molkwerum railway station,KMW,52.9022,5.41056,1.9130434782608696,http://www.group15_KD_tr_onto/267,Stavoren,267,52.898,5.384,70,62,12,1,202
71,http://www.group15_KD_tr_onto/STV,Stavoren railway station,STV,52.8867,5.35972,2.5217391304347827,http://www.group15_KD_tr_onto/267,Stavoren,267,52.898,5.384,70,62,12,1,202
72,http://www.group15_KD_tr_onto/WK,Workum railway station,WK,52.9714,5.45583,1.891304347826087,http://www.group15_KD_tr_onto/267,Stavoren,267,52.898,5.384,70,62,12,1,202
73,http://www.group15_KD_tr_onto/WV,Wolvega railway station,WV,52.8797,6.00472,0.14925373134328357,http://www.group15_KD_tr_onto/267,Stavoren,267,52.898,5.384,70,62,12,1,202
74,http://www.group15_KD_tr_onto/ALMB,Almere Buiten railway station,ALMB,52.3942,5.27778,0.6309523809523809,http://www.group15_KD_tr_onto/269,Lelystad,269,52.458,5.52,60,82,37,2,223
75,http://www.group15_KD_tr_onto/ALMM,Almere Muziekwijk railway station,ALMM,52.3675,5.19028,0.5391705069124424,http://www.group15_KD_tr_onto/269,Lelystad,269,52.458,5.52,60,82,37,2,223
76,http://www.group15_KD_tr_onto/ALMO,Almere Oostvaarders railway station,ALMO,52.4028,5.3,0.6095238095238096,http://www.group15_KD_tr_onto/269,Lelystad,269,52.458,5.52,60,82,37,2,223
77,http://www.group15_KD_tr_onto/ALMP,Almere Parkwijk railway station,ALMP,52.3767,5.24444,0.5259259259259259,http://www.group15_KD_tr_onto/269,Lelystad,269,52.458,5.52,60,82,37,2,223
78,http://www.group15_KD_tr_onto/ALM,Almere Centrum railway station,ALM,52.375,5.21778,0.8411214953271028,http://www.group15_KD_tr_onto/269,Lelystad,269,52.458,5.52,60,82,37,2,223
79,http://www.group15_KD_tr_onto/DL,Dalfsen railway station,DL,52.4981,6.25861,0.6875,http://www.group15_KD_tr_onto/269,Lelystad,269,52.458,5.52,60,82,37,2,223
80,http://www.group15_KD_tr_onto/DRON,Dronten railway station,DRON,52.5339,5.72306,0.5466666666666666,http://www.group15_KD_tr_onto/269,Lelystad,269,52.458,5.52,60,82,37,2,223
81,http://www.group15_KD_tr_onto/EML,Ermelo railway station,EML,52.3011,5.61444,1.0,http://www.group15_KD_tr_onto/269,Lelystad,269,52.458,5.52,60,82,37,2,223
82,http://www.group15_KD_tr_onto/HDE,'t Harde railway station,HDE,52.4089,5.89306,0.5753424657534246,http://www.group15_KD_tr_onto/269,Lelystad,269,52.458,5.52,60,82,37,2,223
83,http://www.group15_KD_tr_onto/HD,Harderwijk railway station,HD,52.3375,5.61972,1.1081081081081081,http://www.group15_KD_tr_onto/269,Lelystad,269,52.458,5.52,60,82,37,2,223
84,http://www.group15_KD_tr_onto/KPNZ,Kampen Zuid railway station,KPNZ,52.5342,5.91583,0.48,http://www.group15_KD_tr_onto/269,Lelystad,269,52.458,5.52,60,82,37,2,223
85,http://www.group15_KD_tr_onto/KPN,Kampen railway station,KPN,52.5597,5.92111,0.2894736842105263,http://www.group15_KD_tr_onto/269,Lelystad,269,52.458,5.52,60,82,37,2,223
86,http://www.group15_KD_tr_onto/LLS,Lelystad Centrum railway station,LLS,52.5078,5.47333,0.8072289156626506,http://www.group15_KD_tr_onto/269,Lelystad,269,52.458,5.52,60,82,37,2,223
87,http://www.group15_KD_tr_onto/MP,Meppel railway station,MP,52.6914,6.1975,0.6328502415458938,http://www.group15_KD_tr_onto/269,Lelystad,269,52.458,5.52,60,82,37,2,223
88,http://www.group15_KD_tr_onto/NS,Nunspeet railway station,NS,52.3708,5.78472,0.958904109589041,http://www.group15_KD_tr_onto/269,Lelystad,269,52.458,5.52,60,82,37,2,223
89,http://www.group15_KD_tr_onto/OMN,Ommen railway station,OMN,52.5094,6.41694,0.9479166666666666,http://www.group15_KD_tr_onto/269,Lelystad,269,52.458,5.52,60,82,37,2,223
90,http://www.group15_KD_tr_onto/PT,Putten railway station,PT,52.2653,5.57611,0.6575342465753424,http://www.group15_KD_tr_onto/269,Lelystad,269,52.458,5.52,60,82,37,2,223
91,http://www.group15_KD_tr_onto/WZ,Wezep railway station,WZ,52.4536,6.00222,0.5342465753424658,http://www.group15_KD_tr_onto/269,Lelystad,269,52.458,5.52,60,82,37,2,223
92,http://www.group15_KD_tr_onto/ZLSH,Zwolle Stadshagen railway station,ZLSH,52.5279,6.05108,0.18421052631578946,http://www.group15_KD_tr_onto/269,Lelystad,269,52.458,5.52,60,82,37,2,223
93,http://www.group15_KD_tr_onto/ZL,Zwolle railway station,ZL,52.5053,6.09056,0.947136563876652,http://www.group15_KD_tr_onto/269,Lelystad,269,52.458,5.52,60,82,37,2,223
94,http://www.group15_KD_tr_onto/AKM,Akkrum railway station,AKM,53.0472,5.84306,0.2835820895522388,http://www.group15_KD_tr_onto/270,Leeuwarden,270,53.224,5.752,60,66,5,1,214
95,http://www.group15_KD_tr_onto/DEI,Deinum railway station,DEI,53.1886,5.72778,0.32432432432432434,http://www.group15_KD_tr_onto/270,Leeuwarden,270,53.224,5.752,60,66,5,1,214
96,http://www.group15_KD_tr_onto/DRP,Dronryp railway station,DRP,53.1775,5.63472,0.972972972972973,http://www.group15_KD_tr_onto/270,Leeuwarden,270,53.224,5.752,60,66,5,1,214
97,http://www.group15_KD_tr_onto/FN,Franeker railway station,FN,53.1822,5.54944,0.2727272727272727,http://www.group15_KD_tr_onto/270,Leeuwarden,270,53.224,5.752,60,66,5,1,214
98,http://www.group15_KD_tr_onto/GW,Grou-Jirnsum railway station,GW,53.0897,5.82222,0.2537313432835821,http://www.group15_KD_tr_onto/270,Leeuwarden,270,53.224,5.752,60,66,5,1,214
99,http://www.group15_KD_tr_onto/HDG,Hurdegaryp railway station,HDG,53.2186,5.93472,1.2253521126760563,http://www.group15_KD_tr_onto/270,Leeuwarden,270,53.224,5.752,60,66,5,1,214
100,http://www.group15_KD_tr_onto/HLG,Harlingen railway station,HLG,53.1703,5.42528,0.2727272727272727,http://www.group15_KD_tr_onto/270,Leeuwarden,270,53.224,5.752,60,66,5,1,214
101,http://www.group15_KD_tr_onto/HR,Heerenveen railway station,HR,52.9606,5.91528,0.43703703703703706,http://www.group15_KD_tr_onto/270,Leeuwarden,270,53.224,5.752,60,66,5,1,214
102,http://www.group15_KD_tr_onto/LW,Leeuwarden railway station,LW,53.1958,5.79111,0.5495049504950495,http://www.group15_KD_tr_onto/270,Leeuwarden,270,53.224,5.752,60,66,5,1,214
103,http://www.group15_KD_tr_onto/MG,Mantgum railway station,MG,53.1297,5.71333,0.8676470588235294,http://www.group15_KD_tr_onto/270,Leeuwarden,270,53.224,5.752,60,66,5,1,214
104,http://www.group15_KD_tr_onto/SK,Sneek railway station,SK,53.0322,5.65167,1.1578947368421053,http://www.group15_KD_tr_onto/270,Leeuwarden,270,53.224,5.752,60,66,5,1,214
105,http://www.group15_KD_tr_onto/AHPR,Arnhem Presikhaaf railway station,AHPR,51.9875,5.94306,1.1857142857142857,http://www.group15_KD_tr_onto/275,Deelen,275,52.056,5.873,60,85,45,8,221
106,http://www.group15_KD_tr_onto/AHZ,Arnhem Zuid railway station,AHZ,51.9542,5.85167,1.0097087378640777,http://www.group15_KD_tr_onto/275,Deelen,275,52.056,5.873,60,85,45,8,221
107,http://www.group15_KD_tr_onto/AML,Almelo railway station,AML,52.3572,6.655,0.8798701298701299,http://www.group15_KD_tr_onto/275,Deelen,275,52.056,5.873,60,85,45,8,221
108,http://www.group15_KD_tr_onto/APD,Apeldoorn railway station,APD,52.2092,5.96944,1.4115044247787611,http://www.group15_KD_tr_onto/275,Deelen,275,52.056,5.873,60,85,45,8,221
109,http://www.group15_KD_tr_onto/ATN,Aalten railway station,ATN,51.9211,6.57806,0.17567567567567569,http://www.group15_KD_tr_onto/275,Deelen,275,52.056,5.873,60,85,45,8,221
110,http://www.group15_KD_tr_onto/BMN,Brummen railway station,BMN,52.0908,6.14694,0.7142857142857143,http://www.group15_KD_tr_onto/275,Deelen,275,52.056,5.873,60,85,45,8,221
111,http://www.group15_KD_tr_onto/BN,Borne railway station,BN,52.2983,6.74833,0.4895833333333333,http://www.group15_KD_tr_onto/275,Deelen,275,52.056,5.873,60,85,45,8,221
112,http://www.group15_KD_tr_onto/CK,Cuijk railway station,CK,51.7264,5.87417,0.7661290322580645,http://www.group15_KD_tr_onto/275,Deelen,275,52.056,5.873,60,85,45,8,221
113,http://www.group15_KD_tr_onto/DA,Daarlerveen railway station,DA,52.4411,6.57583,0.44642857142857145,http://www.group15_KD_tr_onto/275,Deelen,275,52.056,5.873,60,85,45,8,221
114,http://www.group15_KD_tr_onto/DDN,Delden railway station,DDN,52.26,6.71444,1.7432432432432432,http://www.group15_KD_tr_onto/275,Deelen,275,52.056,5.873,60,85,45,8,221
115,http://www.group15_KD_tr_onto/DID,Didam railway station,DID,51.9333,6.13222,0.4496124031007752,http://www.group15_KD_tr_onto/275,Deelen,275,52.056,5.873,60,85,45,8,221
116,http://www.group15_KD_tr_onto/DR,Dieren railway station,DR,52.045,6.10333,1.5106382978723405,http://www.group15_KD_tr_onto/275,Deelen,275,52.056,5.873,60,85,45,8,221
117,http://www.group15_KD_tr_onto/DTC,Doetinchem railway station,DTC,51.9583,6.29528,0.55,http://www.group15_KD_tr_onto/275,Deelen,275,52.056,5.873,60,85,45,8,221
118,http://www.group15_KD_tr_onto/DVN,Duiven railway station,DVN,51.9433,6.01417,0.5503875968992248,http://www.group15_KD_tr_onto/275,Deelen,275,52.056,5.873,60,85,45,8,221
119,http://www.group15_KD_tr_onto/DV,Deventer railway station,DV,52.2572,6.16083,1.3355481727574752,http://www.group15_KD_tr_onto/275,Deelen,275,52.056,5.873,60,85,45,8,221
120,http://www.group15_KD_tr_onto/ED,Ede-Wageningen railway station,ED,52.0278,5.67194,0.8578431372549019,http://www.group15_KD_tr_onto/275,Deelen,275,52.056,5.873,60,85,45,8,221
121,http://www.group15_KD_tr_onto/EST,Elst railway station,EST,51.9167,5.855,1.0,http://www.group15_KD_tr_onto/275,Deelen,275,52.056,5.873,60,85,45,8,221
122,http://www.group15_KD_tr_onto/ES,Enschede railway station,ES,52.2222,6.89,0.9731543624161074,http://www.group15_KD_tr_onto/275,Deelen,275,52.056,5.873,60,85,45,8,221
123,http://www.group15_KD_tr_onto/GBR,Glanerbrug railway station,GBR,52.2186,6.97389,0.0,http://www.group15_KD_tr_onto/275,Deelen,275,52.056,5.873,60,85,45,8,221
124,http://www.group15_KD_tr_onto/GDR,Gaanderen railway station,GDR,51.9308,6.34778,0.47297297297297297,http://www.group15_KD_tr_onto/275,Deelen,275,52.056,5.873,60,85,45,8,221
125,http://www.group15_KD_tr_onto/GO,Goor railway station,GO,52.2303,6.58444,1.3835616438356164,http://www.group15_KD_tr_onto/275,Deelen,275,52.056,5.873,60,85,45,8,221
126,http://www.group15_KD_tr_onto/HGL,Hengelo railway station,HGL,52.2619,6.79417,1.380952380952381,http://www.group15_KD_tr_onto/275,Deelen,275,52.056,5.873,60,85,45,8,221
127,http://www.group15_KD_tr_onto/HMN,Hemmen-Dodewaard railway station,HMN,51.9222,5.67333,0.7272727272727273,http://www.group15_KD_tr_onto/275,Deelen,275,52.056,5.873,60,85,45,8,221
128,http://www.group15_KD_tr_onto/HNO,Heino railway station,HNO,52.4269,6.22194,0.9342105263157895,http://www.group15_KD_tr_onto/275,Deelen,275,52.056,5.873,60,85,45,8,221
129,http://www.group15_KD_tr_onto/HON,Holten railway station,HON,52.2839,6.42056,0.5204081632653061,http://www.group15_KD_tr_onto/275,Deelen,275,52.056,5.873,60,85,45,8,221
130,http://www.group15_KD_tr_onto/KBK,Klarenbeek railway station,KBK,52.1778,6.08417,0.1875,http://www.group15_KD_tr_onto/275,Deelen,275,52.056,5.873,60,85,45,8,221
131,http://www.group15_KD_tr_onto/KLP,Veenendaal-De Klomp railway station,KLP,52.0458,5.57389,0.8205128205128205,http://www.group15_KD_tr_onto/275,Deelen,275,52.056,5.873,60,85,45,8,221
132,http://www.group15_KD_tr_onto/KTR,Kesteren railway station,KTR,51.9314,5.58361,0.4696969696969697,http://www.group15_KD_tr_onto/275,Deelen,275,52.056,5.873,60,85,45,8,221
133,http://www.group15_KD_tr_onto/LC,Lochem railway station,LC,52.1667,6.42583,1.2083333333333333,http://www.group15_KD_tr_onto/275,Deelen,275,52.056,5.873,60,85,45,8,221
134,http://www.group15_KD_tr_onto/LTV,Lichtenvoorde-Groenlo railway station,LTV,52.0117,6.59639,0.6056338028169014,http://www.group15_KD_tr_onto/275,Deelen,275,52.056,5.873,60,85,45,8,221
135,http://www.group15_KD_tr_onto/MMLH,Mook-Molenhoek railway station,MMLH,51.7647,5.8775,0.9758064516129032,http://www.group15_KD_tr_onto/275,Deelen,275,52.056,5.873,60,85,45,8,221
136,http://www.group15_KD_tr_onto/NM,Nijmegen railway station,NM,51.8433,5.8525,1.518032786885246,http://www.group15_KD_tr_onto/275,Deelen,275,52.056,5.873,60,85,45,8,221
137,http://www.group15_KD_tr_onto/NVD,Nijverdal railway station,NVD,52.3656,6.47028,1.4509803921568627,http://www.group15_KD_tr_onto/275,Deelen,275,52.056,5.873,60,85,45,8,221
138,http://www.group15_KD_tr_onto/ODZ,Oldenzaal railway station,ODZ,52.3061,6.93361,1.0933333333333333,http://www.group15_KD_tr_onto/275,Deelen,275,52.056,5.873,60,85,45,8,221
139,http://www.group15_KD_tr_onto/OP,Opheusden railway station,OP,51.9261,5.63694,0.6060606060606061,http://www.group15_KD_tr_onto/275,Deelen,275,52.056,5.873,60,85,45,8,221
140,http://www.group15_KD_tr_onto/OST,Olst railway station,OST,52.335,6.11306,1.9726027397260273,http://www.group15_KD_tr_onto/275,Deelen,275,52.056,5.873,60,85,45,8,221
141,http://www.group15_KD_tr_onto/OTB,Oosterbeek railway station,OTB,51.9947,5.84,0.3484848484848485,http://www.group15_KD_tr_onto/275,Deelen,275,52.056,5.873,60,85,45,8,221
142,http://www.group15_KD_tr_onto/RAT,Raalte railway station,RAT,52.3908,6.27861,0.9215686274509803,http://www.group15_KD_tr_onto/275,Deelen,275,52.056,5.873,60,85,45,8,221
143,http://www.group15_KD_tr_onto/RHN,Rhenen railway station,RHN,51.9578,5.57833,0.6216216216216216,http://www.group15_KD_tr_onto/275,Deelen,275,52.056,5.873,60,85,45,8,221
144,http://www.group15_KD_tr_onto/RH,Rheden railway station,RH,52.0097,6.02972,0.9,http://www.group15_KD_tr_onto/275,Deelen,275,52.056,5.873,60,85,45,8,221
145,http://www.group15_KD_tr_onto/RL,Ruurlo railway station,RL,52.0806,6.45,0.7605633802816901,http://www.group15_KD_tr_onto/275,Deelen,275,52.056,5.873,60,85,45,8,221
146,http://www.group15_KD_tr_onto/RSN,Rijssen railway station,RSN,52.3117,6.51917,0.6224489795918368,http://www.group15_KD_tr_onto/275,Deelen,275,52.056,5.873,60,85,45,8,221
147,http://www.group15_KD_tr_onto/RVS,Ravenstein railway station,RVS,51.7947,5.63722,1.1,http://www.group15_KD_tr_onto/275,Deelen,275,52.056,5.873,60,85,45,8,221
148,http://www.group15_KD_tr_onto/TWL,Twello railway station,TWL,52.2381,6.1,1.0957446808510638,http://www.group15_KD_tr_onto/275,Deelen,275,52.056,5.873,60,85,45,8,221
149,http://www.group15_KD_tr_onto/VEM,Voorst-Empe railway station,VEM,52.1578,6.14278,0.53125,http://www.group15_KD_tr_onto/275,Deelen,275,52.056,5.873,60,85,45,8,221
150,http://www.group15_KD_tr_onto/VHP,Vroomshoop railway station,VHP,52.4411,6.57583,0.21428571428571427,http://www.group15_KD_tr_onto/275,Deelen,275,52.056,5.873,60,85,45,8,221
151,http://www.group15_KD_tr_onto/VP,Arnhem Velperpoort railway station,VP,51.985,5.92,0.8,http://www.group15_KD_tr_onto/275,Deelen,275,52.056,5.873,60,85,45,8,221
152,http://www.group15_KD_tr_onto/VSV,Varsseveld railway station,VSV,51.9369,6.45806,0.1891891891891892,http://www.group15_KD_tr_onto/275,Deelen,275,52.056,5.873,60,85,45,8,221
153,http://www.group15_KD_tr_onto/VZ,Vriezenveen railway station,VZ,52.4019,6.60028,0.4107142857142857,http://www.group15_KD_tr_onto/275,Deelen,275,52.056,5.873,60,85,45,8,221
154,http://www.group15_KD_tr_onto/WC,Wijchen railway station,WC,51.8111,5.72944,0.8686868686868687,http://www.group15_KD_tr_onto/275,Deelen,275,52.056,5.873,60,85,45,8,221
155,http://www.group15_KD_tr_onto/WDN,Wierden railway station,WDN,52.3614,6.59111,0.5574712643678161,http://www.group15_KD_tr_onto/275,Deelen,275,52.056,5.873,60,85,45,8,221
156,http://www.group15_KD_tr_onto/WF,Wolfheze railway station,WF,52.0053,5.79361,0.3787878787878788,http://www.group15_KD_tr_onto/275,Deelen,275,52.056,5.873,60,85,45,8,221
157,http://www.group15_KD_tr_onto/WH,Wijhe railway station,WH,52.3936,6.14083,2.5753424657534247,http://www.group15_KD_tr_onto/275,Deelen,275,52.056,5.873,60,85,45,8,221
158,http://www.group15_KD_tr_onto/WL,Wehl railway station,WL,51.9567,6.2125,0.5271317829457365,http://www.group15_KD_tr_onto/275,Deelen,275,52.056,5.873,60,85,45,8,221
159,http://www.group15_KD_tr_onto/WWW,Winterswijk West railway station,WWW,51.9744,6.70361,0.36619718309859156,http://www.group15_KD_tr_onto/275,Deelen,275,52.056,5.873,60,85,45,8,221
160,http://www.group15_KD_tr_onto/WW,Winterswijk railway station,WW,51.9675,6.71556,0.410958904109589,http://www.group15_KD_tr_onto/275,Deelen,275,52.056,5.873,60,85,45,8,221
161,http://www.group15_KD_tr_onto/ZA,Zetten-Andelst railway station,ZA,51.9194,5.72306,0.7878787878787878,http://www.group15_KD_tr_onto/275,Deelen,275,52.056,5.873,60,85,45,8,221
162,http://www.group15_KD_tr_onto/ZP,Zutphen railway station,ZP,52.1444,6.19389,1.403755868544601,http://www.group15_KD_tr_onto/275,Deelen,275,52.056,5.873,60,85,45,8,221
163,http://www.group15_KD_tr_onto/ZV,Zevenaar railway station,ZV,51.9231,6.07278,1.2484848484848485,http://www.group15_KD_tr_onto/275,Deelen,275,52.056,5.873,60,85,45,8,221
164,http://www.group15_KD_tr_onto/ASN,Assen railway station,ASN,52.9917,6.57056,0.4755244755244755,http://www.group15_KD_tr_onto/280,Eelde,280,53.125,6.585,60,72,9,1,229
165,http://www.group15_KD_tr_onto/BF,Baflo railway station,BF,53.3608,6.51833,0.972972972972973,http://www.group15_KD_tr_onto/280,Eelde,280,53.125,6.585,60,72,9,1,229
166,http://www.group15_KD_tr_onto/BL,Beilen railway station,BL,52.8547,6.52083,0.6891891891891891,http://www.group15_KD_tr_onto/280,Eelde,280,53.125,6.585,60,72,9,1,229
167,http://www.group15_KD_tr_onto/DLN,Dalen railway station,DLN,52.6944,6.75806,0.6041666666666666,http://www.group15_KD_tr_onto/280,Eelde,280,53.125,6.585,60,72,9,1,229
168,http://www.group15_KD_tr_onto/EMNZ,Emmen Zuid railway station,EMNZ,52.7489,6.87472,0.6463414634146342,http://www.group15_KD_tr_onto/280,Eelde,280,53.125,6.585,60,72,9,1,229
169,http://www.group15_KD_tr_onto/EMN,Emmen railway station,EMN,52.7903,6.89917,0.6829268292682927,http://www.group15_KD_tr_onto/280,Eelde,280,53.125,6.585,60,72,9,1,229
170,http://www.group15_KD_tr_onto/GBG,Gramsbergen railway station,GBG,52.6094,6.67583,1.3541666666666667,http://www.group15_KD_tr_onto/280,Eelde,280,53.125,6.585,60,72,9,1,229
171,http://www.group15_KD_tr_onto/GK,Grijpskerk railway station,GK,53.2556,6.31056,0.5285714285714286,http://www.group15_KD_tr_onto/280,Eelde,280,53.125,6.585,60,72,9,1,229
172,http://www.group15_KD_tr_onto/GN,Groningen railway station,GN,53.2106,6.56472,0.6612903225806451,http://www.group15_KD_tr_onto/280,Eelde,280,53.125,6.585,60,72,9,1,229
173,http://www.group15_KD_tr_onto/HDB,Hardenberg railway station,HDB,52.5722,6.62778,0.7049180327868853,http://www.group15_KD_tr_onto/280,Eelde,280,53.125,6.585,60,72,9,1,229
174,http://www.group15_KD_tr_onto/HGV,Hoogeveen railway station,HGV,52.7333,6.4725,0.527027027027027,http://www.group15_KD_tr_onto/280,Eelde,280,53.125,6.585,60,72,9,1,229
175,http://www.group15_KD_tr_onto/HRN,Haren (NL) railway station,HRN,53.175,6.61778,0.5394736842105263,http://www.group15_KD_tr_onto/280,Eelde,280,53.125,6.585,60,72,9,1,229
176,http://www.group15_KD_tr_onto/KW,Kropswolde railway station,KW,53.1617,6.72139,0.9214285714285714,http://www.group15_KD_tr_onto/280,Eelde,280,53.125,6.585,60,72,9,1,229
177,http://www.group15_KD_tr_onto/NA,Nieuw Amsterdam railway station,NA,52.7186,6.84861,0.7402597402597403,http://www.group15_KD_tr_onto/280,Eelde,280,53.125,6.585,60,72,9,1,229
178,http://www.group15_KD_tr_onto/NSCH,Bad Nieuweschans railway station,NSCH,53.1842,7.19944,1.3076923076923077,http://www.group15_KD_tr_onto/280,Eelde,280,53.125,6.585,60,72,9,1,229
179,http://www.group15_KD_tr_onto/SWK,Steenwijk railway station,SWK,52.7908,6.11611,0.8222222222222222,http://www.group15_KD_tr_onto/280,Eelde,280,53.125,6.585,60,72,9,1,229
180,http://www.group15_KD_tr_onto/VDM,Veendam railway station,VDM,53.1036,6.88472,0.2571428571428571,http://www.group15_KD_tr_onto/280,Eelde,280,53.125,6.585,60,72,9,1,229
181,http://www.group15_KD_tr_onto/VD,Coevorden railway station,VD,52.6631,6.73556,0.8873239436619719,http://www.group15_KD_tr_onto/280,Eelde,280,53.125,6.585,60,72,9,1,229
182,http://www.group15_KD_tr_onto/BGN,Bergen op Zoom railway station,BGN,51.4947,4.29611,0.75,http://www.group15_KD_tr_onto/340,Woensdrecht,340,51.449,4.342,60,91,55,1,229
183,http://www.group15_KD_tr_onto/KBD,Krabbendijke railway station,KBD,51.4333,4.11694,0.96,http://www.group15_KD_tr_onto/340,Woensdrecht,340,51.449,4.342,60,91,55,1,229
184,http://www.group15_KD_tr_onto/KRG,Kruiningen-Yerseke railway station,KRG,51.4653,4.03694,0.5733333333333334,http://www.group15_KD_tr_onto/340,Woensdrecht,340,51.449,4.342,60,91,55,1,229
185,http://www.group15_KD_tr_onto/ODB,Oudenbosch railway station,ODB,51.5881,4.53361,0.2753623188405797,http://www.group15_KD_tr_onto/340,Woensdrecht,340,51.449,4.342,60,91,55,1,229
186,http://www.group15_KD_tr_onto/RB,Rilland-Bath railway station,RB,51.4222,4.16111,0.92,http://www.group15_KD_tr_onto/340,Woensdrecht,340,51.449,4.342,60,91,55,1,229
187,http://www.group15_KD_tr_onto/RSD,Roosendaal railway station,RSD,51.5403,4.45889,1.1467391304347827,http://www.group15_KD_tr_onto/340,Woensdrecht,340,51.449,4.342,60,91,55,1,229
188,http://www.group15_KD_tr_onto/BSKS,Boskoop Snijdelwijk railway station,BSKS,52.0676,4.6462,0.046153846153846156,http://www.group15_KD_tr_onto/344,Rotterdam,344,51.962,4.447,70,85,65,8,224
189,http://www.group15_KD_tr_onto/CPS,Capelle Schollevaar railway station,CPS,51.9533,4.58417,1.175,http://www.group15_KD_tr_onto/344,Rotterdam,344,51.962,4.447,70,85,65,8,224
190,http://www.group15_KD_tr_onto/DT,Rotterdam Delftsche Poort railway station,DT,51.9253,4.47361,0.6975476839237057,http://www.group15_KD_tr_onto/344,Rotterdam,344,51.962,4.447,70,85,65,8,224
191,http://www.group15_KD_tr_onto/EC,Dordrecht railway station,EC,51.8075,4.66778,0.8918918918918919,http://www.group15_KD_tr_onto/344,Rotterdam,344,51.962,4.447,70,85,65,8,224
192,http://www.group15_KD_tr_onto/GD,Gouda railway station,GD,52.0175,4.70556,1.0084388185654007,http://www.group15_KD_tr_onto/344,Rotterdam,344,51.962,4.447,70,85,65,8,224
193,http://www.group15_KD_tr_onto/GVMW,Den Haag Moerwijk railway station,GVMW,52.0533,4.30861,0.2158273381294964,http://www.group15_KD_tr_onto/344,Rotterdam,344,51.962,4.447,70,85,65,8,224
194,http://www.group15_KD_tr_onto/NWK,Nieuwerkerk aan den IJssel railway station,NWK,51.9653,4.61694,1.225,http://www.group15_KD_tr_onto/344,Rotterdam,344,51.962,4.447,70,85,65,8,224
195,http://www.group15_KD_tr_onto/RLB,Rotterdam Lombardijen railway station,RLB,51.8797,4.53111,0.26618705035971224,http://www.group15_KD_tr_onto/344,Rotterdam,344,51.962,4.447,70,85,65,8,224
196,http://www.group15_KD_tr_onto/RSW,Rijswijk railway station,RSW,52.0394,4.31972,0.26618705035971224,http://www.group15_KD_tr_onto/344,Rotterdam,344,51.962,4.447,70,85,65,8,224
197,http://www.group15_KD_tr_onto/RTA,Rotterdam Alexander station,RTA,51.9519,4.55278,1.483695652173913,http://www.group15_KD_tr_onto/344,Rotterdam,344,51.962,4.447,70,85,65,8,224
198,http://www.group15_KD_tr_onto/RTB,Rotterdam Blaak station,RTB,51.92,4.48917,0.607773851590106,http://www.group15_KD_tr_onto/344,Rotterdam,344,51.962,4.447,70,85,65,8,224
199,http://www.group15_KD_tr_onto/RTD,Rotterdam Centraal station,RTD,51.9244,4.46944,3.1658119658119657,http://www.group15_KD_tr_onto/344,Rotterdam,344,51.962,4.447,70,85,65,8,224
200,http://www.group15_KD_tr_onto/RTN,Rotterdam Noord railway station,RTN,51.9422,4.48139,1.4625,http://www.group15_KD_tr_onto/344,Rotterdam,344,51.962,4.447,70,85,65,8,224
201,http://www.group15_KD_tr_onto/RTZ,Rotterdam Zuid railway station,RTZ,51.9094,4.50944,0.31654676258992803,http://www.group15_KD_tr_onto/344,Rotterdam,344,51.962,4.447,70,85,65,8,224
202,http://www.group15_KD_tr_onto/SDM,Schiedam Centrum station,SDM,51.9219,4.41,0.5104895104895105,http://www.group15_KD_tr_onto/344,Rotterdam,344,51.962,4.447,70,85,65,8,224
203,http://www.group15_KD_tr_onto/SDT,Sliedrecht Baanhoek railway station,SDT,51.8297,4.74333,0.9185185185185185,http://www.group15_KD_tr_onto/344,Rotterdam,344,51.962,4.447,70,85,65,8,224
204,http://www.group15_KD_tr_onto/YPB,Den Haag Ypenburg railway station,YPB,52.0592,4.38972,0.5490196078431373,http://www.group15_KD_tr_onto/344,Rotterdam,344,51.962,4.447,70,85,65,8,224
205,http://www.group15_KD_tr_onto/ZWD,Zwijndrecht railway station,ZWD,51.8147,4.64222,0.2733812949640288,http://www.group15_KD_tr_onto/344,Rotterdam,344,51.962,4.447,70,85,65,8,224
206,http://www.group15_KD_tr_onto/BD,Breda railway station,BD,51.595,4.78,2.144,http://www.group15_KD_tr_onto/350,Gilze-Rijen,350,51.566,4.936,50,92,57,2,219
207,http://www.group15_KD_tr_onto/BHDV,Boven Hardinxveld railway station,BHDV,51.8319,4.87472,0.6296296296296297,http://www.group15_KD_tr_onto/350,Gilze-Rijen,350,51.566,4.936,50,92,57,2,219
208,http://www.group15_KD_tr_onto/ETN,Etten-Leur railway station,ETN,51.5753,4.63694,1.2763157894736843,http://www.group15_KD_tr_onto/350,Gilze-Rijen,350,51.566,4.936,50,92,57,2,219
209,http://www.group15_KD_tr_onto/GND,Hardinxveld-Giessendam railway station,GND,51.8303,4.83528,1.0666666666666667,http://www.group15_KD_tr_onto/350,Gilze-Rijen,350,51.566,4.936,50,92,57,2,219
210,http://www.group15_KD_tr_onto/GR,Gorinchem railway station,GR,51.8336,4.9675,0.6372549019607843,http://www.group15_KD_tr_onto/350,Gilze-Rijen,350,51.566,4.936,50,92,57,2,219
211,http://www.group15_KD_tr_onto/GZ,Gilze-Rijen railway station,GZ,51.5839,4.925,1.1571428571428573,http://www.group15_KD_tr_onto/350,Gilze-Rijen,350,51.566,4.936,50,92,57,2,219
212,http://www.group15_KD_tr_onto/OT,Oisterwijk railway station,OT,51.5822,5.19444,0.9130434782608695,http://www.group15_KD_tr_onto/350,Gilze-Rijen,350,51.566,4.936,50,92,57,2,219
213,http://www.group15_KD_tr_onto/TBR,Tilburg Reeshof railway station,TBR,51.5739,4.99278,1.2571428571428571,http://www.group15_KD_tr_onto/350,Gilze-Rijen,350,51.566,4.936,50,92,57,2,219
214,http://www.group15_KD_tr_onto/TBU,Tilburg Universiteit railway station,TBU,51.5653,5.05139,0.8942307692307693,http://www.group15_KD_tr_onto/350,Gilze-Rijen,350,51.566,4.936,50,92,57,2,219
215,http://www.group15_KD_tr_onto/TB,Tilburg railway station,TB,51.5606,5.08278,1.6456140350877193,http://www.group15_KD_tr_onto/350,Gilze-Rijen,350,51.566,4.936,50,92,57,2,219
216,http://www.group15_KD_tr_onto/ZLW,Lage Zwaluwe railway station,ZLW,51.6906,4.66333,0.6642857142857143,http://www.group15_KD_tr_onto/350,Gilze-Rijen,350,51.566,4.936,50,92,57,2,219
217,http://www.group15_KD_tr_onto/ZVB,Zevenbergen railway station,ZVB,51.6414,4.60972,0.7246376811594203,http://www.group15_KD_tr_onto/350,Gilze-Rijen,350,51.566,4.936,50,92,57,2,219
218,http://www.group15_KD_tr_onto/BET,Best railway station,BET,51.5097,5.38889,1.1151079136690647,http://www.group15_KD_tr_onto/370,Eindhoven,370,51.451,5.377,60,94,73,4,217
219,http://www.group15_KD_tr_onto/BMR,Boxmeer railway station,BMR,51.6444,5.93944,0.8870967741935484,http://www.group15_KD_tr_onto/370,Eindhoven,370,51.451,5.377,60,94,73,4,217
220,http://www.group15_KD_tr_onto/BR,Blerick railway station,BR,51.3725,6.155,1.037037037037037,http://www.group15_KD_tr_onto/370,Eindhoven,370,51.451,5.377,60,94,73,4,217
221,http://www.group15_KD_tr_onto/BTL,Boxtel railway station,BTL,51.5844,5.31889,1.0359712230215827,http://www.group15_KD_tr_onto/370,Eindhoven,370,51.451,5.377,60,94,73,4,217
222,http://www.group15_KD_tr_onto/DN,Deurne railway station,DN,51.4558,5.78833,1.8869565217391304,http://www.group15_KD_tr_onto/370,Eindhoven,370,51.451,5.377,60,94,73,4,217
223,http://www.group15_KD_tr_onto/EHS,Eindhoven Stadion railway station,EHS,51.443,5.46731,0.9928057553956835,http://www.group15_KD_tr_onto/370,Eindhoven,370,51.451,5.377,60,94,73,4,217
224,http://www.group15_KD_tr_onto/EHV,Eindhoven Centraal railway station,EHV,51.4428,5.48028,1.721938775510204,http://www.group15_KD_tr_onto/370,Eindhoven,370,51.451,5.377,60,94,73,4,217
225,http://www.group15_KD_tr_onto/GP,Geldrop railway station,GP,51.42,5.55111,0.9104477611940298,http://www.group15_KD_tr_onto/370,Eindhoven,370,51.451,5.377,60,94,73,4,217
226,http://www.group15_KD_tr_onto/HMH,Helmond 't Hout railway station,HMH,51.4678,5.63083,1.6417910447761195,http://www.group15_KD_tr_onto/370,Eindhoven,370,51.451,5.377,60,94,73,4,217
227,http://www.group15_KD_tr_onto/HM,Helmond railway station,HM,51.4756,5.66167,1.2885906040268456,http://www.group15_KD_tr_onto/370,Eindhoven,370,51.451,5.377,60,94,73,4,217
228,http://www.group15_KD_tr_onto/HRT,Horst-Sevenum railway station,HRT,51.4267,6.04194,0.9390243902439024,http://www.group15_KD_tr_onto/370,Eindhoven,370,51.451,5.377,60,94,73,4,217
229,http://www.group15_KD_tr_onto/HT,'s-Hertogenbosch railway station,HT,51.69,5.29333,1.2703962703962703,http://www.group15_KD_tr_onto/370,Eindhoven,370,51.451,5.377,60,94,73,4,217
230,http://www.group15_KD_tr_onto/HZ,Heeze railway station,HZ,51.385,5.56944,2.6666666666666665,http://www.group15_KD_tr_onto/370,Eindhoven,370,51.451,5.377,60,94,73,4,217
231,http://www.group15_KD_tr_onto/MZ,Maarheeze railway station,MZ,51.3039,5.63028,0.835820895522388,http://www.group15_KD_tr_onto/370,Eindhoven,370,51.451,5.377,60,94,73,4,217
232,http://www.group15_KD_tr_onto/OW,Oss West railway station,OW,51.7581,5.50611,0.7222222222222222,http://www.group15_KD_tr_onto/370,Eindhoven,370,51.451,5.377,60,94,73,4,217
233,http://www.group15_KD_tr_onto/O,Oss railway station,O,51.7653,5.53167,1.5241379310344827,http://www.group15_KD_tr_onto/370,Eindhoven,370,51.451,5.377,60,94,73,4,217
234,http://www.group15_KD_tr_onto/RS,Rosmalen railway station,RS,51.715,5.36889,0.8611111111111112,http://www.group15_KD_tr_onto/370,Eindhoven,370,51.451,5.377,60,94,73,4,217
235,http://www.group15_KD_tr_onto/TG,Tegelen railway station,TG,51.3411,6.14333,1.5263157894736843,http://www.group15_KD_tr_onto/370,Eindhoven,370,51.451,5.377,60,94,73,4,217
236,http://www.group15_KD_tr_onto/VG,Vught railway station,VG,51.6547,5.29194,0.8,http://www.group15_KD_tr_onto/370,Eindhoven,370,51.451,5.377,60,94,73,4,217
237,http://www.group15_KD_tr_onto/VLB,Vierlingsbeek railway station,VLB,51.5922,5.99667,0.9919354838709677,http://www.group15_KD_tr_onto/370,Eindhoven,370,51.451,5.377,60,94,73,4,217
238,http://www.group15_KD_tr_onto/VL,Venlo railway station,VL,51.3647,6.17139,1.3687943262411348,http://www.group15_KD_tr_onto/370,Eindhoven,370,51.451,5.377,60,94,73,4,217
239,http://www.group15_KD_tr_onto/VRY,Venray railway station,VRY,51.5264,6.01417,1.0679611650485437,http://www.group15_KD_tr_onto/370,Eindhoven,370,51.451,5.377,60,94,73,4,217
240,http://www.group15_KD_tr_onto/WT,Weert railway station,WT,51.2486,5.7025,1.457142857142857,http://www.group15_KD_tr_onto/370,Eindhoven,370,51.451,5.377,60,94,73,4,217
241,http://www.group15_KD_tr_onto/CVM,Chevremont railway station,CVM,50.8758,6.05944,0.40789473684210525,http://www.group15_KD_tr_onto/380,Maastricht,380,50.906,5.762,50,96,109,24,217
242,http://www.group15_KD_tr_onto/EDN,Eijsden railway station,EDN,50.772,5.71004,1.5555555555555556,http://www.group15_KD_tr_onto/380,Maastricht,380,50.906,5.762,50,96,109,24,217
243,http://www.group15_KD_tr_onto/EGH,Eygelshoven railway station,EGH,50.8903,6.04556,0.3684210526315789,http://www.group15_KD_tr_onto/380,Maastricht,380,50.906,5.762,50,96,109,24,217
244,http://www.group15_KD_tr_onto/GLN,Geleen Oost railway station,GLN,50.9672,5.84306,0.65,http://www.group15_KD_tr_onto/380,Maastricht,380,50.906,5.762,50,96,109,24,217
245,http://www.group15_KD_tr_onto/HB,Hoensbroek railway station,HB,50.9053,5.93111,1.0,http://www.group15_KD_tr_onto/380,Maastricht,380,50.906,5.762,50,96,109,24,217
246,http://www.group15_KD_tr_onto/HRLW,Heerlen Woonboulevard railway station,HRLW,50.8961,5.95278,0.46153846153846156,http://www.group15_KD_tr_onto/380,Maastricht,380,50.906,5.762,50,96,109,24,217
247,http://www.group15_KD_tr_onto/HRL,Heerlen railway station,HRL,50.8908,5.97472,1.3421052631578947,http://www.group15_KD_tr_onto/380,Maastricht,380,50.906,5.762,50,96,109,24,217
248,http://www.group15_KD_tr_onto/KMR,Klimmen-Ransdaal railway station,KMR,50.8667,5.89056,0.358974358974359,http://www.group15_KD_tr_onto/380,Maastricht,380,50.906,5.762,50,96,109,24,217
249,http://www.group15_KD_tr_onto/KRD,Kerkrade Centrum railway station,KRD,50.8614,6.0575,0.3157894736842105,http://www.group15_KD_tr_onto/380,Maastricht,380,50.906,5.762,50,96,109,24,217
250,http://www.group15_KD_tr_onto/LG,Landgraaf railway station,LG,50.8964,6.02,1.0964912280701755,http://www.group15_KD_tr_onto/380,Maastricht,380,50.906,5.762,50,96,109,24,217
251,http://www.group15_KD_tr_onto/MT,Maastricht railway station,MT,50.85,5.70528,0.717948717948718,http://www.group15_KD_tr_onto/380,Maastricht,380,50.906,5.762,50,96,109,24,217
252,http://www.group15_KD_tr_onto/NH,Nuth railway station,NH,50.9197,5.8925,1.05,http://www.group15_KD_tr_onto/380,Maastricht,380,50.906,5.762,50,96,109,24,217
253,http://www.group15_KD_tr_onto/RM,Roermond railway station,RM,51.1933,5.99472,0.9490740740740741,http://www.group15_KD_tr_onto/380,Maastricht,380,50.906,5.762,50,96,109,24,217
254,http://www.group15_KD_tr_onto/RV,Reuver railway station,RV,51.2831,6.07944,1.355263157894737,http://www.group15_KD_tr_onto/380,Maastricht,380,50.906,5.762,50,96,109,24,217
255,http://www.group15_KD_tr_onto/SBK,Spaubeek railway station,SBK,50.9431,5.84972,1.55,http://www.group15_KD_tr_onto/380,Maastricht,380,50.906,5.762,50,96,109,24,217
256,http://www.group15_KD_tr_onto/SM,Swalmen railway station,SM,51.2358,6.0325,0.6973684210526315,http://www.group15_KD_tr_onto/380,Maastricht,380,50.906,5.762,50,96,109,24,217
257,http://www.group15_KD_tr_onto/SN,Schinnen railway station,SN,50.9386,5.87611,1.525,http://www.group15_KD_tr_onto/380,Maastricht,380,50.906,5.762,50,96,109,24,217
258,http://www.group15_KD_tr_onto/SRN,Susteren railway station,SRN,51.0608,5.86278,0.7972972972972973,http://www.group15_KD_tr_onto/380,Maastricht,380,50.906,5.762,50,96,109,24,217
259,http://www.group15_KD_tr_onto/STD,Sittard railway station,STD,51.0011,5.85833,0.8208333333333333,http://www.group15_KD_tr_onto/380,Maastricht,380,50.906,5.762,50,96,109,24,217
260,http://www.group15_KD_tr_onto/VDL,Voerendaal railway station,VDL,50.8867,5.92944,0.3333333333333333,http://www.group15_KD_tr_onto/380,Maastricht,380,50.906,5.762,50,96,109,24,217
